60,2234.51831856,N,11431.63006159,E,4,21,0.7,-4.0925,M,-1.3716,M,01,0000*5F
$GPRMC,043819.60,A,2234.51831856,N,11431.63006159,E,0.433,315.2,071224,3.4,W,D*2D
$GNVTG,300.389,T,303.828,M,0.20117,N,0.37257,K,D*3A
$GNHDT,333.3470,T*18
$GPGGA,043819.80,2234.51832423,N,11431.63005117,E,4,21,0.7,-4.1547,M,-1.3716,M,00,0000*5D
$GPRMC,043819.80,A,2234.51832423,N,11431.63005117,E,0.201,300.4,071224,3.4,W,D*22
$GNVTG,305.648,T,309.087,M,0.16135,N,0.29882,K,D*38
$GNHDT,334.4214,T*1C
$GPGGA,043820.00,2234.51832948,N,11431.63004330,E,4,21,0.7,-4.2081,M,-1.3716,M,01,0000*54
$GPRMC,043820.00,A,2234.51832948,N,11431.63004330,E,0.161,305.6,071224,3.4,W,D*24
$GNVTG,308.352,T,311.791,M,0.16828,N,0.31166,K,D*3D
$GNHDT,334.5878,T*1D
$GPGGA,043820.20,2234.51833530,N,11431.63003538,E,4,21,0.7,-4.1499,M,-1.3716,M,01,0000*53
$GPRMC,043820.20,A,2234.51833530,N,11431.63003538,E,0.168,308.4,071224,3.4,W,D*2B
$GNVTG,290.145,T,293.584,M,0.36502,N,0.67602,K,D*35
$GNHDT,335.1458,T*16
$GPGGA,043820.40,2234.51834231,N,11431.63001481,E,4,21,0.7,-4.0622,M,-1.3716,M,01,0000*56
$GPRMC,043820.40,A,2234.51834231,N,11431.63001481,E,0.365,290.1,071224,3.4,W,D*27
$GNVTG,310.839,T,314.277,M,0.68541,N,1.26938,K,D*35
$GNHDT,334.7786,T*11
$GPGGA,043820.60,2234.51836729,N,11431.62998368,E,4,21,0.7,-3.9624,M,-1.3716,M,01,0000*5A
$GPRMC,043820.60,A,2234.51836729,N,11431.62998368,E,0.685,310.8,071224,3.4,W,D*28
$GNVTG,308.487,T,311.926,M,0.79814,N,1.47815,K,D*3B
$GNHDT,333.5323,T*1F
$GPGGA,043820.80,2234.51839498,N,11431.62994618,E,4,21,0.7,-3.8754,M,-1.3716,M,00,0000*5A
$GPRMC,043820.80,A,2234.51839498,N,11431.62994618,E,0.798,308.5,071224,3.4,W,D*27
$GNVTG,304.757,T,308.195,M,0.83889,N,1.55362,K,D*38
$GNHDT,332.8781,T*1F
$GPGGA,043821.00,2234.51842164,N,11431.62990480,E,4,21,0.7,-3.8554,M,-1.3716,M,01,0000*5D
$GPRMC,043821.00,A,2234.51842164,N,11431.62990480,E,0.839,304.8,071224,3.4,W,D*26
$GNVTG,310.191,T,313.629,M,0.77470,N,1.43474,K,D*3D
$GNHDT,331.8257,T*12
$GPGGA,043821.20,2234.51844951,N,11431.62986928,E,4,21,0.7,-3.8385,M,-1.3716,M,01,0000*55
$GPRMC,043821.20,A,2234.51844951,N,11431.62986928,E,0.775,310.2,071224,3.4,W,D*2C
$GNVTG,292.430,T,295.869,M,0.60988,N,1.12950,K,D*3E
$GNHDT,331.3486,T*13
$GPGGA,043821.40,2234.51846249,N,11431.62983544,E,4,21,0.7,-3.9385,M,-1.3716,M,01,0000*51
$GPRMC,043821.40,A,2234.51846249,N,11431.62983544,E,0.610,292.4,071224,3.4,W,D*26
$GNVTG,281.981,T,285.419,M,0.42675,N,0.79034,K,D*3B
$GNHDT,330.6455,T*19
$GPGGA,043821.60,2234.51846742,N,11431.62981038,E,4,21,0.7,-4.0046,M,-1.3716,M,01,0000*53
$GPRMC,043821.60,A,2234.51846742,N,11431.62981038,E,0.427,282.0,071224,3.4,W,D*25
$GNVTG,276.282,T,279.720,M,0.50621,N,0.93751,K,D*33
$GNHDT,331.6697,T*14
$GPGGA,043821.80,2234.51847051,N,11431.62978018,E,4,21,0.7,-4.0491,M,-1.3716,M,01,0000*53
$GPRMC,043821.80,A,2234.51847051,N,11431.62978018,E,0.506,276.3,071224,3.4,W,D*21
$GNVTG,277.660,T,281.099,M,0.54879,N,1.01635,K,D*36
$GNHDT,331.8315,T*15
$GPGGA,043822.00,2234.51847459,N,11431.62974753,E,4,21,0.7,-4.0842,M,-1.3716,M,02,0000*51
$GPRMC,043822.00,A,2234.51847459,N,11431.62974753,E,0.549,277.7,071224,3.4,W,D*2C
$GNVTG,291.655,T,295.093,M,0.57623,N,1.06719,K,D*3D
$GNHDT,331.6141,T*18
$GPGGA,043822.20,2234.51848644,N,11431.62971538,E,4,21,0.7,-4.0229,M,-1.3716,M,02,0000*5F
$GPRMC,043822.20,A,2234.51848644,N,11431.62971538,E,0.576,291.7,071224,3.4,W,D*21
$GNVTG,300.596,T,304.034,M,0.78377,N,1.45155,K,D*3C
$GNHDT,331.1502,T*1C
$GPGGA,043822.40,2234.51850868,N,11431.62967488,E,4,21,0.7,-3.9890,M,-1.3716,M,02,0000*5B
$GPRMC,043822.40,A,2234.51850868,N,11431.62967488,E,0.784,300.6,071224,3.4,W,D*24
$GNVTG,318.862,T,322.301,M,0.72419,N,1.34120,K,D*33
$GNHDT,330.1568,T*11
$GPGGA,043822.60,2234.51853909,N,11431.62964628,E,4,21,0.7,-3.9645,M,-1.3716,M,02,0000*51
$GPRMC,043822.60,A,2234.51853909,N,11431.62964628,E,0.724,318.9,071224,3.4,W,D*24
$GNVTG,305.046,T,308.484,M,0.59696,N,1.10557,K,D*3D
$GNHDT,330.3935,T*17
$GPGGA,043822.80,2234.51855820,N,11431.62961694,E,4,21,0.7,-3.9483,M,-1.3716,M,00,0000*5B
$GPRMC,043822.80,A,2234.51855820,N,11431.62961694,E,0.597,305.0,071224,3.4,W,D*2B
$GNVTG,322.435,T,325.874,M,0.50337,N,0.93225,K,D*3B
$GNHDT,329.4908,T*16
$GPGGA,043823.00,2234.51858044,N,11431.62959852,E,4,21,0.7,-3.9545,M,-1.3716,M,01,0000*50
$GPRMC,043823.00,A,2234.51858044,N,11431.62959852,E,0.503,322.4,071224,3.4,W,D*26
$GNVTG,291.449,T,294.888,M,0.50497,N,0.93520,K,D*3E
$GNHDT,329.9522,T*1F
$GPGGA,043823.20,2234.51859074,N,11431.62957031,E,4,21,0.7,-3.9625,M,-1.3716,M,01,0000*56
$GPRMC,043823.20,A,2234.51859074,N,11431.62957031,E,0.505,291.4,071224,3.4,W,D*2A
$GNVTG,301.928,T,305.366,M,0.54795,N,1.01481,K,D*3B
$GNHDT,329.1973,T*1F
$GPGGA,043823.40,2234.51860689,N,11431.62954239,E,4,21,0.7,-3.9495,M,-1.3716,M,01,0000*5E
$GPRMC,043823.40,A,2234.51860689,N,11431.62954239,E,0.548,301.9,071224,3.4,W,D*27
$GNVTG,292.220,T,295.658,M,0.58522,N,1.08383,K,D*3D
$GNHDT,328.6878,T*13
$GPGGA,043823.60,2234.51861923,N,11431.62950987,E,4,22,0.7,-3.9554,M,-1.3716,M,01,0000*57
$GPRMC,043823.60,A,2234.51861923,N,11431.62950987,E,0.585,292.2,071224,3.4,W,D*20
$GNVTG,293.642,T,297.080,M,0.67025,N,1.24131,K,D*36
$GNHDT,328.3263,T*16
$GPGGA,043823.80,2234.51863421,N,11431.62947301,E,4,22,0.7,-4.0010,M,-1.3716,M,00,0000*5C
$GPRMC,043823.80,A,2234.51863421,N,11431.62947301,E,0.670,293.6,071224,3.4,W,D*2D
$GNVTG,305.171,T,308.609,M,0.56514,N,1.04664,K,D*3F
$GNHDT,327.8913,T*1E
$GPGGA,043824.00,2234.51865236,N,11431.62944528,E,4,21,0.7,-4.0388,M,-1.3716,M,01,0000*5B
$GPRMC,043824.00,A,2234.51865236,N,11431.62944528,E,0.565,305.2,071224,3.4,W,D*27
$GNVTG,308.503,T,311.941,M,0.53195,N,0.98517,K,D*33
$GNHDT,327.8602,T*11
$GPGGA,043824.20,2234.51867082,N,11431.62942029,E,4,21,0.7,-4.0957,M,-1.3716,M,01,0000*5C
$GPRMC,043824.20,A,2234.51867082,N,11431.62942029,E,0.532,308.5,071224,3.4,W,D*20
$GNVTG,313.538,T,316.976,M,0.43438,N,0.80448,K,D*33
$GNHDT,327.6569,T*11
$GPGGA,043824.40,2234.51868750,N,11431.62940139,E,4,21,0.7,-4.1197,M,-1.3716,M,01,0000*5A
$GPRMC,043824.40,A,2234.51868750,N,11431.62940139,E,0.434,313.5,071224,3.4,W,D*2E
$GNVTG,305.001,T,308.439,M,0.37535,N,0.69515,K,D*33
$GNHDT,328.4788,T*11
$GPGGA,043824.60,2234.51869950,N,11431.62938293,E,4,21,0.7,-4.1077,M,-1.3716,M,01,0000*54
$GPRMC,043824.60,A,2234.51869950,N,11431.62938293,E,0.375,305.0,071224,3.4,W,D*2F
$GNVTG,313.966,T,317.405,M,0.40053,N,0.74178,K,D*3B
$GNHDT,328.3001,T*10
$GPGGA,043824.80,2234.51871500,N,11431.62936563,E,4,23,0.7,-4.0596,M,-1.3716,M,00,0000*54
$GPRMC,043824.80,A,2234.51871500,N,11431.62936563,E,0.401,314.0,071224,3.4,W,D*23
$GNVTG,306.356,T,309.795,M,0.52263,N,0.96791,K,D*3C
$GNHDT,328.4104,T*13
$GPGGA,043825.00,2234.51873228,N,11431.62934036,E,4,23,0.7,-4.0196,M,-1.3716,M,01,0000*50
$GPRMC,043825.00,A,2234.51873228,N,11431.62934036,E,0.523,306.4,071224,3.4,W,D*24
$GNVTG,315.831,T,319.269,M,0.46505,N,0.86128,K,D*34
$GNHDT,327.2684,T*15
$GPGGA,043825.20,2234.51875087,N,11431.62932091,E,4,22,0.7,-3.9665,M,-1.3716,M,01,0000*5C
$GPRMC,043825.20,A,2234.51875087,N,11431.62932091,E,0.465,315.8,071224,3.4,W,D*21
$GNVTG,299.087,T,302.526,M,0.51636,N,0.95630,K,D*3B
$GNHDT,327.2294,T*10
$GPGGA,043825.40,2234.51876487,N,11431.62929383,E,4,22,0.7,-3.9893,M,-1.3716,M,01,0000*50
$GPRMC,043825.40,A,2234.51876487,N,11431.62929383,E,0.516,299.1,071224,3.4,W,D*23
$GNVTG,319.502,T,322.941,M,0.45976,N,0.85148,K,D*32
$GNHDT,326.9540,T*14
$GPGGA,043825.60,2234.51878436,N,11431.62927590,E,4,22,0.7,-4.0350,M,-1.3716,M,01,0000*56
$GPRMC,043825.60,A,2234.51878436,N,11431.62927590,E,0.460,319.5,071224,3.4,W,D*22
$GNVTG,309.425,T,312.863,M,0.35223,N,0.65234,K,D*3F
$GNHDT,326.5467,T*1C
$GPGGA,043825.80,2234.51879683,N,11431.62925957,E,4,22,0.7,-4.0977,M,-1.3716,M,00,0000*5E
$GPRMC,043825.80,A,2234.51879683,N,11431.62925957,E,0.352,309.4,071224,3.4,W,D*22
$GNVTG,306.482,T,309.920,M,0.30144,N,0.55827,K,D*3D
$GNHDT,326.4070,T*1F
$GPGGA,043826.00,2234.51880682,N,11431.62924502,E,4,22,0.7,-4.1231,M,-1.3716,M,01,0000*56
$GPRMC,043826.00,A,2234.51880682,N,11431.62924502,E,0.301,306.5,071224,3.4,W,D*2B
$GNVTG,301.237,T,304.676,M,0.41307,N,0.76500,K,D*39
$GNHDT,326.5898,T*10
$GPGGA,043826.20,2234.51881876,N,11431.62922382,E,4,20,0.7,-4.1607,M,-1.3716,M,01,0000*5B
$GPRMC,043826.20,A,2234.51881876,N,11431.62922382,E,0.413,301.2,071224,3.4,W,D*21
$GNVTG,306.960,T,310.399,M,0.38386,N,0.71091,K,D*3B
$GNHDT,326.5523,T*1D
$GPGGA,043826.40,2234.51883163,N,11431.62920541,E,4,20,0.7,-4.1356,M,-1.3716,M,01,0000*58
$GPRMC,043826.40,A,2234.51883163,N,11431.62920541,E,0.384,307.0,071224,3.4,W,D*2E
$GNVTG,328.907,T,332.345,M,0.45282,N,0.83862,K,D*31
$GNHDT,326.0891,T*1C
$GPGGA,043826.60,2234.51885324,N,11431.62919137,E,4,20,0.7,-4.0877,M,-1.3716,M,01,0000*5B
$GPRMC,043826.60,A,2234.51885324,N,11431.62919137,E,0.453,328.9,071224,3.4,W,D*2D
$GNVTG,306.444,T,309.883,M,0.50537,N,0.93594,K,D*36
$GNHDT,326.5092,T*12
$GPGGA,043826.80,2234.51886998,N,11431.62916697,E,4,20,0.7,-4.0608,M,-1.3716,M,01,0000*5F
$GPRMC,043826.80,A,2234.51886998,N,11431.62916697,E,0.505,306.4,071224,3.4,W,D*2C
$GNVTG,348.512,T,351.950,M,0.46285,N,0.85721,K,D*3E
$GNHDT,326.0271,T*18
$GPGGA,043827.00,2234.51889526,N,11431.62916143,E,4,20,0.7,-4.0199,M,-1.3716,M,02,0000*52
$GPRMC,043827.00,A,2234.51889526,N,11431.62916143,E,0.463,348.5,071224,3.4,W,D*27
$GNVTG,322.194,T,325.632,M,0.45669,N,0.84578,K,D*3A
$GNHDT,326.2734,T*1E
$GPGGA,043827.20,2234.51891538,N,11431.62914463,E,4,20,0.8,-4.0297,M,-1.3716,M,02,0000*51
$GPRMC,043827.20,A,2234.51891538,N,11431.62914463,E,0.457,322.2,071224,3.4,W,D*2A
$GNVTG,345.771,T,349.210,M,0.26104,N,0.48344,K,D*38
$GNHDT,325.7869,T*1F
$GPGGA,043827.40,2234.51892948,N,11431.62914078,E,4,20,0.8,-4.0518,M,-1.3716,M,02,0000*51
$GPRMC,043827.40,A,2234.51892948,N,11431.62914078,E,0.261,345.8,071224,3.4,W,D*22
$GNVTG,316.402,T,319.841,M,0.19512,N,0.36137,K,D*32
$GNHDT,326.0629,T*11
$GPGGA,043827.60,2234.51893736,N,11431.62913270,E,4,19,0.8,-4.0802,M,-1.3716,M,00,0000*56
$GPRMC,043827.60,A,2234.51893736,N,11431.62913270,E,0.195,316.4,071224,3.4,W,D*29
$GNVTG,307.102,T,310.541,M,0.14204,N,0.26306,K,D*3F
$GNHDT,326.1475,T*1B
$GPGGA,043827.80,2234.51894214,N,11431.62912590,E,4,19,0.8,-4.1001,M,-1.3716,M,00,0000*58
$GPRMC,043827.80,A,2234.51894214,N,11431.62912590,E,0.142,307.1,071224,3.4,W,D*22
$GNVTG,323.543,T,326.981,M,0.42349,N,0.78430,K,D*3F
$GNHDT,325.8593,T*18
$GPGGA,043828.00,2234.51896113,N,11431.62911079,E,4,19,0.8,-4.0738,M,-1.3716,M,01,0000*55
$GPRMC,043828.00,A,2234.51896113,N,11431.62911079,E,0.423,323.5,071224,3.4,W,D*22
$GNVTG,312.207,T,315.646,M,0.70180,N,1.29974,K,D*30
$GNHDT,325.1971,T*11
$GPGGA,043828.20,2234.51898741,N,11431.62907959,E,4,19,0.8,-4.0533,M,-1.3716,M,01,0000*5D
$GPRMC,043828.20,A,2234.51898741,N,11431.62907959,E,0.702,312.2,071224,3.4,W,D*26
$GNVTG,306.176,T,309.614,M,0.85360,N,1.58088,K,D*30
$GNHDT,324.9174,T*15
$GPGGA,043828.40,2234.51901550,N,11431.62903823,E,4,20,0.8,-3.9940,M,-1.3716,M,01,0000*5C
$GPRMC,043828.40,A,2234.51901550,N,11431.62903823,E,0.854,306.2,071224,3.4,W,D*22
$GNVTG,306.826,T,310.265,M,0.79946,N,1.48060,K,D*3C
$GNHDT,324.7791,T*16
$GPGGA,043828.60,2234.51904221,N,11431.62899981,E,4,19,0.8,-3.9456,M,-1.3716,M,01,0000*51
$GPRMC,043828.60,A,2234.51904221,N,11431.62899981,E,0.799,306.8,071224,3.4,W,D*2B
$GNVTG,308.063,T,311.502,M,0.64257,N,1.19005,K,D*3C
$GNHDT,323.8393,T*18
$GPGGA,043828.80,2234.51906430,N,11431.62896944,E,4,18,0.8,-3.9293,M,-1.3716,M,00,0000*52
$GPRMC,043828.80,A,2234.51906430,N,11431.62896944,E,0.643,308.1,071224,3.4,W,D*26
$GNVTG,304.039,T,307.477,M,0.52152,N,0.96586,K,D*30
$GNHDT,323.9729,T*1C
$GPGGA,043829.00,2234.51908057,N,11431.62894350,E,4,19,0.8,-3.9679,M,-1.3717,M,01,0000*5C
$GPRMC,043829.00,A,2234.51908057,N,11431.62894350,E,0.522,304.0,071224,3.4,W,D*20
$GNVTG,317.172,T,320.611,M,0.37066,N,0.68646,K,D*30
$GNHDT,323.9349,T*1E
$GPGGA,043829.20,2234.51909573,N,11431.62892837,E,4,19,0.8,-4.0467,M,-1.3717,M,01,0000*53
$GPRMC,043829.20,A,2234.51909573,N,11431.62892837,E,0.371,317.2,071224,3.4,W,D*2C
$GNVTG,330.913,T,334.351,M,0.31254,N,0.57882,K,D*31
$GNHDT,323.5948,T*19
$GPGGA,043829.40,2234.51911095,N,11431.62891925,E,4,19,0.8,-4.0841,M,-1.3717,M,01,0000*58
$GPRMC,043829.40,A,2234.51911095,N,11431.62891925,E,0.313,330.9,071224,3.4,W,D*25
$GNVTG,313.801,T,317.240,M,0.53906,N,0.99834,K,D*35
$GNHDT,323.4798,T*1B
$GPGGA,043829.60,2234.51913175,N,11431.62889590,E,4,19,0.8,-4.1096,M,-1.3717,M,01,0000*5F
$GPRMC,043829.60,A,2234.51913175,N,11431.62889590,E,0.539,313.8,071224,3.4,W,D*2F
$GNVTG,306.068,T,309.507,M,0.56075,N,1.03850,K,D*35
$GNHDT,323.4815,T*11
$GPGGA,043829.80,2234.51915016,N,11431.62886869,E,4,19,0.8,-4.0630,M,-1.3717,M,00,0000*5D
$GPRMC,043829.80,A,2234.51915016,N,11431.62886869,E,0.561,306.1,071224,3.4,W,D*27
$GNVTG,305.848,T,309.287,M,0.77311,N,1.43179,K,D*37
$GNHDT,323.7281,T*15
$GPGGA,043830.00,2234.51917540,N,11431.62883107,E,4,19,0.8,-4.0400,M,-1.3717,M,01,0000*5D
$GPRMC,043830.00,A,2234.51917540,N,11431.62883107,E,0.773,305.8,071224,3.4,W,D*2C
$GNVTG,309.850,T,313.288,M,0.71761,N,1.32901,K,D*32
$GNHDT,323.4348,T*12
$GPGGA,043830.20,2234.51920103,N,11431.62879800,E,4,19,0.8,-3.9995,M,-1.3717,M,01,0000*5C
$GPRMC,043830.20,A,2234.51920103,N,11431.62879800,E,0.718,309.8,071224,3.4,W,D*23
$GNVTG,306.840,T,310.278,M,0.62713,N,1.16144,K,D*38
$GNHDT,323.4055,T*1D
$GPGGA,043830.40,2234.51922199,N,11431.62876787,E,4,19,0.8,-4.0011,M,-1.3717,M,01,0000*5F
$GPRMC,043830.40,A,2234.51922199,N,11431.62876787,E,0.627,306.8,071224,3.4,W,D*29
$GNVTG,325.121,T,328.559,M,0.48403,N,0.89643,K,D*35
$GNHDT,322.2797,T*13
$GPGGA,043830.60,2234.51924413,N,11431.62875126,E,4,19,0.8,-3.9621,M,-1.3717,M,01,0000*59
$GPRMC,043830.60,A,2234.51924413,N,11431.62875126,E,0.484,325.1,071224,3.4,W,D*27
$GNVTG,318.184,T,321.623,M,0.47313,N,0.87624,K,D*35
$GNHDT,322.2344,T*19
$GPGGA,043830.80,2234.51926379,N,11431.62873232,E,4,20,0.8,-3.9818,M,-1.3717,M,01,0000*50
$GPRMC,043830.80,A,2234.51926379,N,11431.62873232,E,0.473,318.2,071224,3.4,W,D*25
$GNVTG,306.758,T,310.196,M,0.55313,N,1.02440,K,D*39
$GNHDT,321.7838,T*1F
$GPGGA,043831.00,2234.51928224,N,11431.62870572,E,4,20,0.8,-3.9878,M,-1.3717,M,02,0000*5B
$GPRMC,043831.00,A,2234.51928224,N,11431.62870572,E,0.553,306.8,071224,3.4,W,D*2D
$GNVTG,296.597,T,300.036,M,0.66443,N,1.23052,K,D*3C
$GNHDT,321.8122,T*12
$GPGGA,043831.20,2234.51929882,N,11431.62867006,E,4,20,0.8,-3.9907,M,-1.3717,M,02,0000*57
$GPRMC,043831.20,A,2234.51929882,N,11431.62867006,E,0.664,296.6,071224,3.4,W,D*29
$GNVTG,289.899,T,293.338,M,0.79505,N,1.47242,K,D*3B
$GNHDT,321.9374,T*12
$GPGGA,043831.40,2234.51931391,N,11431.62862518,E,4,20,0.8,-3.9472,M,-1.3717,M,02,0000*51
$GPRMC,043831.40,A,2234.51931391,N,11431.62862518,E,0.795,289.9,071224,3.4,W,D*2E
$GNVTG,290.495,T,293.934,M,0.65936,N,1.22114,K,D*37
$GNHDT,321.6758,T*17
$GPGGA,043831.60,2234.51932678,N,11431.62858811,E,4,20,0.8,-3.9610,M,-1.3717,M,02,0000*59
$GPRMC,043831.60,A,2234.51932678,N,11431.62858811,E,0.659,290.5,071224,3.4,W,D*25
$GNVTG,297.240,T,300.679,M,0.49803,N,0.92234,K,D*31
$GNHDT,321.7242,T*18
$GPGGA,043831.80,2234.51933949,N,11431.62856153,E,4,20,0.8,-3.9854,M,-1.3717,M,00,0000*56
$GPRMC,043831.80,A,2234.51933949,N,11431.62856153,E,0.498,297.2,071224,3.4,W,D*29
$GNVTG,310.026,T,313.465,M,0.36449,N,0.67504,K,D*34
$GNHDT,321.6276,T*1E
$GPGGA,043832.00,2234.51935255,N,11431.62854477,E,4,20,0.8,-4.0569,M,-1.3717,M,01,0000*50
$GPRMC,043832.00,A,2234.51935255,N,11431.62854477,E,0.364,310.0,071224,3.4,W,D*2B
$GNVTG,318.334,T,321.773,M,0.22189,N,0.41093,K,D*3A
$GNHDT,321.9254,T*11
$GPGGA,043832.20,2234.51936179,N,11431.62853592,E,4,19,0.8,-4.1370,M,-1.3717,M,01,0000*54
$GPRMC,043832.20,A,2234.51936179,N,11431.62853592,E,0.222,318.3,071224,3.4,W,D*22
$GNVTG,337.415,T,340.854,M,0.22476,N,0.41625,K,D*30
$GNHDT,322.3671,T*1B
$GPGGA,043832.40,2234.51937336,N,11431.62853074,E,4,18,0.8,-4.1752,M,-1.3717,M,01,0000*52
$GPRMC,043832.40,A,2234.51937336,N,11431.62853074,E,0.225,337.4,071224,3.4,W,D*2C
$GNVTG,331.674,T,335.112,M,0.33611,N,0.62248,K,D*37
$GNHDT,322.4977,T*15
$GPGGA,043832.60,2234.51938986,N,11431.62852116,E,4,18,0.8,-4.1966,M,-1.3717,M,01,0000*53
$GPRMC,043832.60,A,2234.51938986,N,11431.62852116,E,0.336,331.7,071224,3.4,W,D*22
$GNVTG,330.248,T,333.687,M,0.47245,N,0.87497,K,D*39
$GNHDT,322.1448,T*11
$GPGGA,043832.80,2234.51941272,N,11431.62850709,E,4,18,0.8,-4.1695,M,-1.3717,M,00,0000*5B
$GPRMC,043832.80,A,2234.51941272,N,11431.62850709,E,0.472,330.2,071224,3.4,W,D*2B
$GNVTG,320.953,T,324.391,M,0.46575,N,0.86257,K,D*33
$GNHDT,321.8379,T*1E
$GPGGA,043833.00,2234.51943289,N,11431.62848948,E,4,18,0.8,-4.1167,M,-1.3717,M,01,0000*5D
$GPRMC,043833.00,A,2234.51943289,N,11431.62848948,E,0.466,321.0,071224,3.4,W,D*21
$GNVTG,326.931,T,330.369,M,0.63167,N,1.16985,K,D*3F
$GNHDT,321.1374,T*1A
$GPGGA,043833.20,2234.51946240,N,11431.62846879,E,4,18,0.8,-4.0616,M,-1.3717,M,01,0000*52
$GPRMC,043833.20,A,2234.51946240,N,11431.62846879,E,0.632,326.9,071224,3.4,W,D*23
$GNVTG,319.029,T,322.468,M,0.52289,N,0.96840,K,D*36
$GNHDT,321.2553,T*1A
$GPGGA,043833.40,2234.51948441,N,11431.62844821,E,4,18,0.8,-4.0234,M,-1.3717,M,01,0000*56
$GPRMC,043833.40,A,2234.51948441,N,11431.62844821,E,0.523,319.0,071224,3.4,W,D*25
$GNVTG,321.261,T,324.699,M,0.37208,N,0.68909,K,D*3E
$GNHDT,321.3164,T*1B
$GPGGA,043833.60,2234.51950059,N,11431.62843423,E,4,18,0.8,-3.9772,M,-1.3717,M,00,0000*51
$GPRMC,043833.60,A,2234.51950059,N,11431.62843423,E,0.372,321.3,071224,3.4,W,D*20
$GNVTG,321.402,T,324.841,M,0.32337,N,0.59888,K,D*34
$GNHDT,321.2801,T*10
$GPGGA,043833.80,2234.51951467,N,11431.62842212,E,4,19,0.8,-3.9914,M,-1.3717,M,00,0000*5D
$GPRMC,043833.80,A,2234.51951467,N,11431.62842212,E,0.323,321.4,071224,3.4,W,D*20
$GNVTG,320.155,T,323.593,M,0.35371,N,0.65508,K,D*38
$GNHDT,320.9557,T*14
$GPGGA,043834.00,2234.51952981,N,11431.62840851,E,4,19,0.8,-4.0586,M,-1.3717,M,01,0000*53
$GPRMC,043834.00,A,2234.51952981,N,11431.62840851,E,0.354,320.2,071224,3.4,W,D*21
$GNVTG,315.233,T,318.672,M,0.34903,N,0.64640,K,D*39
$GNHDT,320.7163,T*19
$GPGGA,043834.20,2234.51954363,N,11431.62839376,E,4,19,0.8,-4.0884,M,-1.3717,M,01,0000*5E
$GPRMC,043834.20,A,2234.51954363,N,11431.62839376,E,0.349,315.2,071224,3.4,W,D*29
$GNVTG,312.562,T,316.000,M,0.43732,N,0.80991,K,D*35
$GNHDT,320.6341,T*1A
$GPGGA,043834.40,2234.51956012,N,11431.62837442,E,4,19,0.8,-4.1278,M,-1.3717,M,01,0000*59
$GPRMC,043834.40,A,2234.51956012,N,11431.62837442,E,0.437,312.6,071224,3.4,W,D*2B
$GNVTG,301.636,T,305.075,M,0.37752,N,0.69916,K,D*38
$GNHDT,321.1430,T*1D
$GPGGA,043834.60,2234.51957116,N,11431.62835513,E,4,19,0.8,-4.1364,M,-1.3717,M,00,0000*55
$GPRMC,043834.60,A,2234.51957116,N,11431.62835513,E,0.378,301.6,071224,3.4,W,D*24
$GNVTG,329.215,T,332.653,M,0.49661,N,0.91971,K,D*3F
$GNHDT,321.0430,T*1C
$GPGGA,043834.80,2234.51959494,N,11431.62833987,E,4,19,0.8,-4.1186,M,-1.3717,M,00,0000*53
$GPRMC,043834.80,A,2234.51959494,N,11431.62833987,E,0.497,329.2,071224,3.4,W,D*24
$GNVTG,331.272,T,334.711,M,0.28649,N,0.53058,K,D*37
$GNHDT,321.5629,T*13
$GPGGA,043835.00,2234.51960895,N,11431.62833161,E,4,20,0.8,-4.1184,M,-1.3717,M,01,0000*54
$GPRMC,043835.00,A,2234.51960895,N,11431.62833161,E,0.286,331.3,071224,3.4,W,D*24
$GNVTG,333.040,T,336.478,M,0.40328,N,0.74687,K,D*35
$GNHDT,322.0023,T*19
$GPGGA,043835.20,2234.51962898,N,11431.62832063,E,4,21,0.7,-4.0518,M,-1.3717,M,01,0000*55
$GPRMC,043835.20,A,2234.51962898,N,11431.62832063,E,0.403,333.0,071224,3.4,W,D*21
$GNVTG,304.871,T,308.309,M,0.40688,N,0.75354,K,D*32
$GNHDT,322.3995,T*1E
$GPGGA,043835.40,2234.51964195,N,11431.62830059,E,4,21,0.7,-3.9763,M,-1.3717,M,01,0000*5A
$GPRMC,043835.40,A,2234.51964195,N,11431.62830059,E,0.407,304.9,071224,3.4,W,D*27
$GNVTG,317.100,T,320.538,M,0.46841,N,0.86749,K,D*38
$GNHDT,321.1688,T*1C
$GPGGA,043835.60,2234.51966108,N,11431.62828145,E,4,21,0.7,-3.9049,M,-1.3717,M,01,0000*54
$GPRMC,043835.60,A,2234.51966108,N,11431.62828145,E,0.468,317.1,071224,3.4,W,D*25
$GNVTG,300.989,T,304.427,M,0.57612,N,1.06698,K,D*32
$GNHDT,321.3796,T*10
$GPGGA,043835.80,2234.51967762,N,11431.62825181,E,4,21,0.7,-3.8698,M,-1.3717,M,00,0000*5E
$GPRMC,043835.80,A,2234.51967762,N,11431.62825181,E,0.576,301.0,071224,3.4,W,D*2D
$GNVTG,299.312,T,302.750,M,0.80518,N,1.49118,K,D*39
$GNHDT,320.8439,T*1C
$GPGGA,043836.00,2234.51969959,N,11431.62820966,E,4,21,0.7,-3.8941,M,-1.3717,M,01,0000*53
$GPRMC,043836.00,A,2234.51969959,N,11431.62820966,E,0.805,299.3,071224,3.4,W,D*20
$GNVTG,311.484,T,314.922,M,0.71355,N,1.32149,K,D*35
$GNHDT,319.8683,T*15
$GPGGA,043836.20,2234.51972594,N,11431.62817757,E,4,21,0.7,-3.9710,M,-1.3717,M,01,0000*55
$GPRMC,043836.20,A,2234.51972594,N,11431.62817757,E,0.714,311.5,071224,3.4,W,D*25
$GNVTG,301.541,T,304.980,M,0.58194,N,1.07775,K,D*3E
$GNHDT,320.0381,T*10
$GPGGA,043836.40,2234.51974291,N,11431.62814780,E,4,21,0.7,-4.0495,M,-1.3717,M,01,0000*5E
$GPRMC,043836.40,A,2234.51974291,N,11431.62814780,E,0.582,301.5,071224,3.4,W,D*22
$GNVTG,302.195,T,305.633,M,0.45731,N,0.84694,K,D*37
$GNHDT,320.0253,T*1E
$GPGGA,043836.60,2234.51975649,N,11431.62812457,E,4,21,0.7,-4.1064,M,-1.3717,M,01,0000*58
$GPRMC,043836.60,A,2234.51975649,N,11431.62812457,E,0.457,302.2,071224,3.4,W,D*22
$GNVTG,298.520,T,301.958,M,0.27774,N,0.51438,K,D*30
$GNHDT,320.4224,T*1A
$GPGGA,043836.80,2234.51976389,N,11431.62810992,E,4,21,0.7,-4.1283,M,-1.3717,M,01,0000*51
$GPRMC,043836.80,A,2234.51976389,N,11431.62810992,E,0.278,298.5,071224,3.4,W,D*2E
$GNVTG,314.263,T,317.702,M,0.30571,N,0.56617,K,D*3A
$GNHDT,321.1119,T*13
$GPGGA,043837.00,2234.51977578,N,11431.62809678,E,4,20,0.7,-4.1350,M,-1.3717,M,02,0000*5F
$GPRMC,043837.00,A,2234.51977578,N,11431.62809678,E,0.306,314.3,071224,3.4,W,D*26
$GNVTG,307.020,T,310.459,M,0.41274,N,0.76439,K,D*3F
$GNHDT,321.7177,T*1D
$GPGGA,043837.20,2234.51978964,N,11431.62807700,E,4,20,0.7,-4.0924,M,-1.3717,M,02,0000*5B
$GPRMC,043837.20,A,2234.51978964,N,11431.62807700,E,0.413,307.0,071224,3.4,W,D*28
$GNVTG,321.561,T,324.999,M,0.49537,N,0.91742,K,D*33
$GNHDT,321.6139,T*16
$GPGGA,043837.40,2234.51981127,N,11431.62805851,E,4,20,0.7,-4.0418,M,-1.3717,M,02,0000*5F
$GPRMC,043837.40,A,2234.51981127,N,11431.62805851,E,0.495,321.6,071224,3.4,W,D*22
$GNVTG,322.757,T,326.195,M,0.70670,N,1.30880,K,D*30
$GNHDT,321.5176,T*1E
$GPGGA,043837.60,2234.51984263,N,11431.62803284,E,4,20,0.7,-4.0159,M,-1.3718,M,02,0000*50
$GPRMC,043837.60,A,2234.51984263,N,11431.62803284,E,0.707,322.8,071224,3.4,W,D*27
$GNVTG,326.300,T,329.739,M,0.57395,N,1.06296,K,D*3E
$GNHDT,321.5035,T*18
$GPGGA,043837.80,2234.51986925,N,11431.62801372,E,4,20,0.7,-4.0286,M,-1.3718,M,00,0000*5C
$GPRMC,043837.80,A,2234.51986925,N,11431.62801372,E,0.574,326.3,071224,3.4,W,D*21
$GNVTG,336.475,T,339.914,M,0.43399,N,0.80374,K,D*31
$GNHDT,321.1605,T*19
$GPGGA,043838.00,2234.51989143,N,11431.62800332,E,4,21,0.7,-4.0497,M,-1.3718,M,01,0000*5F
$GPRMC,043838.00,A,2234.51989143,N,11431.62800332,E,0.434,336.5,071224,3.4,W,D*26
$GNVTG,315.545,T,318.984,M,0.27503,N,0.50935,K,D*3D
$GNHDT,321.5923,T*16
$GPGGA,043838.20,2234.51990237,N,11431.62799176,E,4,21,0.7,-4.1044,M,-1.3718,M,01,0000*53
$GPRMC,043838.20,A,2234.51990237,N,11431.62799176,E,0.275,315.5,071224,3.4,W,D*23
$GNVTG,340.333,T,343.772,M,0.27766,N,0.51422,K,D*38
$GNHDT,321.0706,T*1A
$GPGGA,043838.40,2234.51991695,N,11431.62798615,E,4,21,0.7,-4.0965,M,-1.3718,M,01,0000*50
$GPRMC,043838.40,A,2234.51991695,N,11431.62798615,E,0.278,340.3,071224,3.4,W,D*20
$GNVTG,297.309,T,300.748,M,0.33521,N,0.62081,K,D*3D
$GNHDT,321.8539,T*1C
$GPGGA,043838.60,2234.51992552,N,11431.62796827,E,4,21,0.7,-4.0650,M,-1.3718,M,01,0000*51
$GPRMC,043838.60,A,2234.51992552,N,11431.62796827,E,0.335,297.3,071224,3.4,W,D*2B
$GNVTG,317.600,T,321.038,M,0.33264,N,0.61604,K,D*35
$GNHDT,320.7679,T*15
$GPGGA,043838.80,2234.51993922,N,11431.62795481,E,4,21,0.7,-4.0481,M,-1.3718,M,00,0000*59
$GPRMC,043838.80,A,2234.51993922,N,11431.62795481,E,0.333,317.6,071224,3.4,W,D*26
$GNVTG,304.773,T,308.211,M,0.38508,N,0.71317,K,D*30
$GNHDT,322.3480,T*17
$GPGGA,043839.00,2234.51995146,N,11431.62793582,E,4,21,0.7,-4.0386,M,-1.3718,M,01,0000*59
$GPRMC,043839.00,A,2234.51995146,N,11431.62793582,E,0.385,304.8,071224,3.4,W,D*26
$GNVTG,320.405,T,323.844,M,0.40507,N,0.75019,K,D*3E
$GNHDT,321.9684,T*18
$GPGGA,043839.20,2234.51996886,N,11431.62792032,E,4,21,0.7,-4.0205,M,-1.3718,M,01,0000*58
$GPRMC,043839.20,A,2234.51996886,N,11431.62792032,E,0.405,320.4,071224,3.4,W,D*28
$GNVTG,317.681,T,321.119,M,0.48115,N,0.89110,K,D*33
$GNHDT,322.6242,T*1A
$GPGGA,043839.40,2234.51998869,N,11431.62790088,E,4,21,0.7,-4.0240,M,-1.3718,M,01,0000*53
$GPRMC,043839.40,A,2234.51998869,N,11431.62790088,E,0.481,317.7,071224,3.4,W,D*29
$GNVTG,333.407,T,336.845,M,0.30473,N,0.56436,K,D*36
$GNHDT,321.9846,T*18
$GPGGA,043839.60,2234.52000388,N,11431.62789269,E,4,21,0.7,-4.0568,M,-1.3718,M,01,0000*56
$GPRMC,043839.60,A,2234.52000388,N,11431.62789269,E,0.305,333.4,071224,3.4,W,D*2F
$GNVTG,336.616,T,340.054,M,0.26726,N,0.49497,K,D*39
$GNHDT,322.1452,T*1A
$GPGGA,043839.80,2234.52001756,N,11431.62788632,E,4,22,0.7,-4.0817,M,-1.3718,M,01,0000*53
$GPRMC,043839.80,A,2234.52001756,N,11431.62788632,E,0.267,336.6,071224,3.4,W,D*2E
$GNVTG,337.314,T,340.753,M,0.42709,N,0.79098,K,D*38
$GNHDT,322.2803,T*11
$GPGGA,043840.00,2234.52003953,N,11431.62787643,E,4,22,0.7,-4.1177,M,-1.3718,M,02,0000*58
$GPRMC,043840.00,A,2234.52003953,N,11431.62787643,E,0.427,337.3,071224,3.4,W,D*2E
$GNVTG,320.242,T,323.681,M,0.51260,N,0.94934,K,D*33
$GNHDT,322.3251,T*1D
$GPGGA,043840.20,2234.52006150,N,11431.62785675,E,4,22,0.7,-4.0889,M,-1.3718,M,02,0000*5A
$GPRMC,043840.20,A,2234.52006150,N,11431.62785675,E,0.513,320.2,071224,3.4,W,D*24
$GNVTG,318.844,T,322.282,M,0.48101,N,0.89084,K,D*30
$GNHDT,322.1992,T*1B
$GPGGA,043840.40,2234.52008168,N,11431.62783775,E,4,22,0.7,-4.0310,M,-1.3718,M,01,0000*56
$GPRMC,043840.40,A,2234.52008168,N,11431.62783775,E,0.481,318.8,071224,3.4,W,D*2B
$GNVTG,308.227,T,311.665,M,0.55314,N,1.02442,K,D*35
$GNHDT,322.6158,T*12
$GPGGA,043840.60,2234.52010077,N,11431.62781167,E,4,22,0.7,-3.9651,M,-1.3718,M,01,0000*5B
$GPRMC,043840.60,A,2234.52010077,N,11431.62781167,E,0.553,308.2,071224,3.4,W,D*2D
$GNVTG,316.589,T,320.028,M,0.43658,N,0.80854,K,D*3E
$GNHDT,322.2891,T*1A
$GPGGA,043840.80,2234.52011845,N,11431.62779366,E,4,22,0.7,-3.9365,M,-1.3718,M,00,0000*5A
$GPRMC,043840.80,A,2234.52011845,N,11431.62779366,E,0.437,316.6,071224,3.4,W,D*27
$GNVTG,309.360,T,312.798,M,0.45655,N,0.84553,K,D*39
$GNHDT,323.0096,T*16
$GPGGA,043841.00,2234.52013459,N,11431.62777247,E,4,22,0.7,-3.9687,M,-1.3718,M,01,0000*54
$GPRMC,043841.00,A,2234.52013459,N,11431.62777247,E,0.457,309.4,071224,3.4,W,D*2B
$GNVTG,336.486,T,339.925,M,0.29616,N,0.54849,K,D*3D
$GNHDT,322.7982,T*1C
$GPGGA,043841.20,2234.52014973,N,11431.62776537,E,4,22,0.7,-4.0370,M,-1.3718,M,01,0000*56
$GPRMC,043841.20,A,2234.52014973,N,11431.62776537,E,0.296,336.5,071224,3.4,W,D*2C
$GNVTG,323.615,T,327.053,M,0.30390,N,0.56282,K,D*3A
$GNHDT,322.4351,T*1B
$GPGGA,043841.40,2234.52016336,N,11431.62775455,E,4,22,0.7,-4.1154,M,-1.3718,M,01,0000*5A
$GPRMC,043841.40,A,2234.52016336,N,11431.62775455,E,0.304,323.6,071224,3.4,W,D*28
$GNVTG,314.253,T,317.692,M,0.40258,N,0.74558,K,D*32
$GNHDT,322.6880,T*1E
$GPGGA,043841.60,2234.52017903,N,11431.62773724,E,4,21,0.7,-4.1269,M,-1.3718,M,01,0000*58
$GPRMC,043841.60,A,2234.52017903,N,11431.62773724,E,0.403,314.3,071224,3.4,W,D*25
$GNVTG,307.154,T,310.593,M,0.46676,N,0.86444,K,D*3E
$GNHDT,322.5587,T*17
$GPGGA,043841.80,2234.52019474,N,11431.62771491,E,4,21,0.7,-4.0860,M,-1.3718,M,00,0000*59
$GPRMC,043841.80,A,2234.52019474,N,11431.62771491,E,0.467,307.2,071224,3.4,W,D*26
$GNVTG,293.685,T,297.123,M,0.60534,N,1.12110,K,D*31
$GNHDT,322.7295,T*11
$GPGGA,043842.00,2234.52020830,N,11431.62768163,E,4,21,0.7,-3.9905,M,-1.3718,M,01,0000*59
$GPRMC,043842.00,A,2234.52020830,N,11431.62768163,E,0.605,293.7,071224,3.4,W,D*24
$GNVTG,299.833,T,303.271,M,0.63049,N,1.16767,K,D*3E
$GNHDT,323.5197,T*13
$GPGGA,043842.20,2234.52022578,N,11431.62764880,E,4,20,0.8,-3.9297,M,-1.3718,M,01,0000*5E
$GPRMC,043842.20,A,2234.52022578,N,11431.62764880,E,0.630,299.8,071224,3.4,W,D*2E
$GNVTG,299.549,T,302.988,M,0.60047,N,1.11208,K,D*34
$GNHDT,323.3749,T*10
$GPGGA,043842.40,2234.52024229,N,11431.62761745,E,4,19,0.8,-3.8771,M,-1.3718,M,01,0000*58
$GPRMC,043842.40,A,2234.52024229,N,11431.62761745,E,0.600,299.5,071224,3.4,W,D*20
$GNVTG,306.907,T,310.346,M,0.46291,N,0.85731,K,D*30
$GNHDT,323.5137,T*19
$GPGGA,043842.60,2234.52025779,N,11431.62759523,E,4,19,0.8,-3.8880,M,-1.3718,M,01,0000*53
$GPRMC,043842.60,A,2234.52025779,N,11431.62759523,E,0.463,306.9,071224,3.4,W,D*26
$GNVTG,311.400,T,314.838,M,0.28583,N,0.52937,K,D*34
$GNHDT,323.6391,T*14
$GPGGA,043842.80,2234.52026833,N,11431.62758236,E,4,20,0.8,-3.9705,M,-1.3718,M,00,0000*55
$GPRMC,043842.80,A,2234.52026833,N,11431.62758236,E,0.286,311.4,071224,3.4,W,D*2E
$GNVTG,319.053,T,322.491,M,0.21510,N,0.39836,K,D*3A
$GNHDT,323.3318,T*10
$GPGGA,043843.00,2234.52027738,N,11431.62757389,E,4,19,0.8,-4.0306,M,-1.3718,M,01,0000*51
$GPRMC,043843.00,A,2234.52027738,N,11431.62757389,E,0.215,319.1,071224,3.4,W,D*2F
$GNVTG,297.522,T,300.961,M,0.48852,N,0.90474,K,D*31
$GNHDT,323.8151,T*14
$GPGGA,043843.20,2234.52028997,N,11431.62754789,E,4,19,0.8,-4.1200,M,-1.3718,M,01,0000*56
$GPRMC,043843.20,A,2234.52028997,N,11431.62754789,E,0.489,297.5,071224,3.4,W,D*2E
$GNVTG,309.911,T,313.349,M,0.45192,N,0.83696,K,D*3D
$GNHDT,323.7845,T*17
$GPGGA,043843.40,2234.52030613,N,11431.62752708,E,4,20,0.7,-4.1298,M,-1.3718,M,01,0000*51
$GPRMC,043843.40,A,2234.52030613,N,11431.62752708,E,0.452,309.9,071224,3.4,W,D*21
$GNVTG,297.078,T,300.517,M,0.59330,N,1.09880,K,D*3F
$GNHDT,323.7548,T*17
$GPGGA,043843.60,2234.52032119,N,11431.62749537,E,4,19,0.8,-4.0892,M,-1.3718,M,01,0000*5C
$GPRMC,043843.60,A,2234.52032119,N,11431.62749537,E,0.593,297.1,071224,3.4,W,D*2A
$GNVTG,296.481,T,299.919,M,0.73528,N,1.36174,K,D*36
$GNHDT,323.8852,T*1E
$GPGGA,043843.80,2234.52033946,N,11431.62745586,E,4,20,0.7,-4.0011,M,-1.3718,M,00,0000*50
$GPRMC,043843.80,A,2234.52033946,N,11431.62745586,E,0.735,296.5,071224,3.4,W,D*2A
$GNVTG,297.578,T,301.016,M,0.70453,N,1.30479,K,D*36
$GNHDT,324.2960,T*13
$GPGGA,043844.00,2234.52035765,N,11431.62741837,E,4,20,0.8,-3.9480,M,-1.3718,M,01,0000*59
$GPRMC,043844.00,A,2234.52035765,N,11431.62741837,E,0.705,297.6,071224,3.4,W,D*2E
$GNVTG,311.108,T,314.546,M,0.55330,N,1.02472,K,D*31
$GNHDT,323.9503,T*16
$GPGGA,043844.20,2234.52037793,N,11431.62739335,E,4,20,0.8,-3.9386,M,-1.3718,M,01,0000*57
$GPRMC,043844.20,A,2234.52037793,N,11431.62739335,E,0.553,311.1,071224,3.4,W,D*28
$GNVTG,323.962,T,327.401,M,0.43022,N,0.79678,K,D*34
$GNHDT,324.0129,T*14
$GPGGA,043844.40,2234.52039732,N,11431.62737815,E,4,20,0.8,-3.9531,M,-1.3718,M,01,0000*59
$GPRMC,043844.40,A,2234.52039732,N,11431.62737815,E,0.430,324.0,071224,3.4,W,D*2F
$GNVTG,310.545,T,313.984,M,0.27405,N,0.50755,K,D*3C
$GNHDT,324.2695,T*16
$GPGGA,043844.60,2234.52040725,N,11431.62736565,E,4,20,0.8,-4.0528,M,-1.3718,M,01,0000*5E
$GPRMC,043844.60,A,2234.52040725,N,11431.62736565,E,0.274,310.5,071224,3.4,W,D*2A
$GNVTG,321.445,T,324.883,M,0.22482,N,0.41637,K,D*32
$GNHDT,323.8842,T*1F
$GPGGA,043844.80,2234.52041705,N,11431.62735724,E,4,20,0.8,-4.1238,M,-1.3718,M,00,0000*51
$GPRMC,043844.80,A,2234.52041705,N,11431.62735724,E,0.225,321.4,071224,3.4,W,D*24
$GNVTG,315.637,T,319.075,M,0.31488,N,0.58317,K,D*3A
$GNHDT,324.3895,T*19
$GPGGA,043845.00,2234.52042960,N,11431.62734403,E,4,20,0.8,-4.1567,M,-1.3718,M,01,0000*5D
$GPRMC,043845.00,A,2234.52042960,N,11431.62734403,E,0.315,315.6,071224,3.4,W,D*23
$GNVTG,291.020,T,294.459,M,0.35049,N,0.64910,K,D*36
$GNHDT,324.9302,T*16
$GPGGA,043845.20,2234.52043661,N,11431.62732439,E,4,20,0.8,-4.1484,M,-1.3718,M,01,0000*53
$GPRMC,043845.20,A,2234.52043661,N,11431.62732439,E,0.350,291.0,071224,3.4,W,D*2B
$GNVTG,307.313,T,310.752,M,0.56435,N,1.04518,K,D*37
$GNHDT,324.7266,T*1B
$GPGGA,043845.40,2234.52045568,N,11431.62729744,E,4,20,0.8,-4.1068,M,-1.3718,M,01,0000*5C
$GPRMC,043845.40,A,2234.52045568,N,11431.62729744,E,0.564,307.3,071224,3.4,W,D*2E
$GNVTG,300.445,T,303.884,M,0.59739,N,1.10637,K,D*39
$GNHDT,324.7874,T*12
$GPGGA,043845.60,2234.52047256,N,11431.62726653,E,4,20,0.8,-4.0450,M,-1.3718,M,00,0000*51
$GPRMC,043845.60,A,2234.52047256,N,11431.62726653,E,0.597,300.4,071224,3.4,W,D*20
$GNVTG,303.643,T,307.081,M,0.64550,N,1.19546,K,D*38
$GNHDT,325.0491,T*13
$GPGGA,043845.80,2234.52049249,N,11431.62723427,E,4,21,0.7,-3.9827,M,-1.3718,M,00,0000*57
$GPRMC,043845.80,A,2234.52049249,N,11431.62723427,E,0.645,303.6,071224,3.4,W,D*27
$GNVTG,311.847,T,315.285,M,0.48033,N,0.88957,K,D*3F
$GNHDT,324.5755,T*1C
$GPGGA,043846.00,2234.52051036,N,11431.62721279,E,4,21,0.7,-3.9558,M,-1.3718,M,01,0000*54
$GPRMC,043846.00,A,2234.52051036,N,11431.62721279,E,0.480,311.8,071224,3.4,W,D*26
$GNVTG,295.497,T,298.935,M,0.52757,N,0.97706,K,D*3D
$GNHDT,325.7281,T*13
$GPGGA,043846.20,2234.52052302,N,11431.62718420,E,4,21,0.7,-3.9923,M,-1.3718,M,01,0000*51
$GPRMC,043846.20,A,2234.52052302,N,11431.62718420,E,0.528,295.5,071224,3.4,W,D*20
$GNVTG,322.477,T,325.915,M,0.26282,N,0.48673,K,D*34
$GNHDT,325.1617,T*1E
$GPGGA,043846.40,2234.52053464,N,11431.62717460,E,4,21,0.7,-4.0509,M,-1.3718,M,01,0000*50
$GPRMC,043846.40,A,2234.52053464,N,11431.62717460,E,0.263,322.5,071224,3.4,W,D*2E
$GNVTG,281.716,T,285.155,M,0.14228,N,0.26350,K,D*32
$GNHDT,325.2700,T*1A
$GPGGA,043846.60,2234.52053625,N,11431.62716623,E,4,21,0.7,-4.1608,M,-1.3718,M,01,0000*52
$GPRMC,043846.60,A,2234.52053625,N,11431.62716623,E,0.142,281.7,071224,3.4,W,D*25
$GNVTG,295.258,T,298.697,M,0.10519,N,0.19482,K,D*38
$GNHDT,325.0782,T*12
$GPGGA,043846.80,2234.52053875,N,11431.62716052,E,4,21,0.7,-4.2384,M,-1.3718,M,01,0000*55
$GPRMC,043846.80,A,2234.52053875,N,11431.62716052,E,0.105,295.3,071224,3.4,W,D*22
$GNVTG,312.431,T,315.870,M,0.33445,N,0.61941,K,D*38
$GNHDT,325.8690,T*18
$GPGGA,043847.00,2234.52055133,N,11431.62714570,E,4,20,0.8,-4.2417,M,-1.3718,M,02,0000*56
$GPRMC,043847.00,A,2234.52055133,N,11431.62714570,E,0.334,312.4,071224,3.4,W,D*28
$GNVTG,316.601,T,320.040,M,0.40175,N,0.74404,K,D*3A
$GNHDT,326.1982,T*1E
$GPGGA,043847.20,2234.52056760,N,11431.62712913,E,4,20,0.8,-4.2020,M,-1.3718,M,02,0000*58
$GPRMC,043847.20,A,2234.52056760,N,11431.62712913,E,0.402,316.6,071224,3.4,W,D*22
$GNVTG,313.923,T,317.362,M,0.41433,N,0.76734,K,D*33
$GNHDT,327.0120,T*1E
$GPGGA,043847.40,2234.52058363,N,11431.62711122,E,4,20,0.8,-4.0791,M,-1.3718,M,02,0000*51
$GPRMC,043847.40,A,2234.52058363,N,11431.62711122,E,0.414,313.9,071224,3.4,W,D*29
$GNVTG,325.221,T,328.660,M,0.45407,N,0.84094,K,D*37
$GNHDT,326.3645,T*18
$GPGGA,043847.60,2234.52060442,N,11431.62709567,E,4,20,0.8,-4.0201,M,-1.3718,M,02,0000*5C
$GPRMC,043847.60,A,2234.52060442,N,11431.62709567,E,0.454,325.2,071224,3.4,W,D*22
$GNVTG,316.091,T,319.529,M,0.46501,N,0.86119,K,D*30
$GNHDT,326.7247,T*1A
$GPGGA,043847.80,2234.52062309,N,11431.62707631,E,4,20,0.8,-3.9900,M,-1.3718,M,02,0000*52
$GPRMC,043847.80,A,2234.52062309,N,11431.62707631,E,0.465,316.1,071224,3.4,W,D*29
$GNVTG,327.052,T,330.490,M,0.42845,N,0.79350,K,D*33
$GNHDT,326.4720,T*1D
$GPGGA,043848.00,2234.52064314,N,11431.62706233,E,4,19,0.8,-3.9664,M,-1.3718,M,03,0000*5E
$GPRMC,043848.00,A,2234.52064314,N,11431.62706233,E,0.428,327.1,071224,3.4,W,D*28
$GNVTG,323.740,T,327.178,M,0.50651,N,0.93806,K,D*32
$GNHDT,326.0880,T*1C
$GPGGA,043848.20,2234.52066590,N,11431.62704434,E,4,20,0.8,-3.9988,M,-1.3718,M,03,0000*50
$GPRMC,043848.20,A,2234.52066590,N,11431.62704434,E,0.507,323.7,071224,3.4,W,D*2F
$GNVTG,307.457,T,310.896,M,0.43947,N,0.81389,K,D*39
$GNHDT,325.6315,T*1E
$GPGGA,043848.40,2234.52068080,N,11431.62702340,E,4,19,0.8,-4.0486,M,-1.3718,M,03,0000*59
$GPRMC,043848.40,A,2234.52068080,N,11431.62702340,E,0.439,307.5,071224,3.4,W,D*29
$GNVTG,301.014,T,304.452,M,0.47213,N,0.87438,K,D*38
$GNHDT,325.8798,T*11
$GPGGA,043848.60,2234.52069436,N,11431.62699911,E,4,19,0.8,-4.0782,M,-1.3718,M,03,0000*59
$GPRMC,043848.60,A,2234.52069436,N,11431.62699911,E,0.472,301.0,071224,3.4,W,D*22
$GNVTG,296.004,T,299.442,M,0.43052,N,0.79733,K,D*38
$GNHDT,326.4285,T*17
$GPGGA,043848.80,2234.52070489,N,11431.62697588,E,4,20,0.8,-4.0894,M,-1.3718,M,03,0000*5B
$GPRMC,043848.80,A,2234.52070489,N,11431.62697588,E,0.431,296.0,071224,3.4,W,D*2A
$GNVTG,285.452,T,288.890,M,0.45565,N,0.84387,K,D*30
$GNHDT,326.8432,T*11
$GPGGA,043849.00,2234.52071165,N,11431.62694952,E,4,20,0.8,-4.0304,M,-1.3718,M,04,0000*59
$GPRMC,043849.00,A,2234.52071165,N,11431.62694952,E,0.456,285.5,071224,3.4,W,D*2B
$GNVTG,284.560,T,287.998,M,0.38443,N,0.71197,K,D*31
$GNHDT,326.9206,T*11
$GPGGA,043849.20,2234.52071704,N,11431.62692719,E,4,21,0.7,-3.9812,M,-1.3718,M,04,0000*51
$GPRMC,043849.20,A,2234.52071704,N,11431.62692719,E,0.384,284.6,071224,3.4,W,D*25
$GNVTG,284.235,T,287.673,M,0.38071,N,0.70508,K,D*3A
$GNHDT,327.8493,T*1B
$GPGGA,043849.40,2234.52072226,N,11431.62690503,E,4,21,0.7,-3.9291,M,-1.3718,M,04,0000*5B
$GPRMC,043849.40,A,2234.52072226,N,11431.62690503,E,0.381,284.2,071224,3.4,W,D*2F
$GNVTG,292.818,T,296.257,M,0.29506,N,0.54645,K,D*33
$GNHDT,328.0048,T*1E
$GPGGA,043849.60,2234.52072864,N,11431.62688871,E,4,21,0.7,-3.9067,M,-1.3718,M,04,0000*5F
$GPRMC,043849.60,A,2234.52072864,N,11431.62688871,E,0.295,292.8,071224,3.4,W,D*29
$GNVTG,303.974,T,307.412,M,0.53251,N,0.98620,K,D*34
$GNHDT,328.4413,T*10
$GPGGA,043849.80,2234.52074523,N,11431.62686220,E,4,21,0.7,-3.9210,M,-1.3718,M,04,0000*5B
$GPRMC,043849.80,A,2234.52074523,N,11431.62686220,E,0.533,304.0,071224,3.4,W,D*22
$GNVTG,296.767,T,300.206,M,0.61067,N,1.13096,K,D*3E
$GNHDT,328.2671,T*10
$GPGGA,043850.00,2234.52076056,N,11431.62682947,E,4,20,0.8,-3.9162,M,-1.3718,M,05,0000*59
$GPRMC,043850.00,A,2234.52076056,N,11431.62682947,E,0.611,296.8,071224,3.4,W,D*28
$GNVTG,303.012,T,306.450,M,0.71485,N,1.32390,K,D*3A
$GNHDT,327.5343,T*1C
$GPGGA,043850.20,2234.52078227,N,11431.62679349,E,4,19,0.8,-3.9206,M,-1.3718,M,05,0000*5A
$GPRMC,043850.20,A,2234.52078227,N,11431.62679349,E,0.715,303.0,071224,3.4,W,D*20
$GNVTG,290.546,T,293.984,M,0.81633,N,1.51184,K,D*3E
$GNHDT,327.7447,T*1D
$GPGGA,043850.40,2234.52079824,N,11431.62674760,E,4,19,0.8,-3.9357,M,-1.3718,M,04,0000*52
$GPRMC,043850.40,A,2234.52079824,N,11431.62674760,E,0.816,290.5,071224,3.4,W,D*2E
$GNVTG,288.895,T,292.333,M,0.80776,N,1.49598,K,D*32
$GNHDT,327.2867,T*16
$GPGGA,043850.60,2234.52081283,N,11431.62670172,E,4,19,0.8,-3.8896,M,-1.3718,M,04,0000*56
$GPRMC,043850.60,A,2234.52081283,N,11431.62670172,E,0.808,288.9,071224,3.4,W,D*27
$GNVTG,277.069,T,280.507,M,0.69880,N,1.29418,K,D*35
$GNHDT,327.9004,T*10
$GPGGA,043850.80,2234.52081762,N,11431.62666009,E,4,19,0.8,-3.8645,M,-1.3719,M,00,0000*5D
$GPRMC,043850.80,A,2234.52081762,N,11431.62666009,E,0.699,277.1,071224,3.4,W,D*27
$GNVTG,268.520,T,271.958,M,0.49507,N,0.91688,K,D*32
$GNHDT,328.0530,T*14
$GPGGA,043851.00,2234.52081691,N,11431.62663039,E,4,19,0.8,-3.8926,M,-1.3719,M,01,0000*54
$GPRMC,043851.00,A,2234.52081691,N,11431.62663039,E,0.495,268.5,071224,3.4,W,D*21
$GNVTG,258.167,T,261.605,M,0.39832,N,0.73769,K,D*3E
$GNHDT,329.2552,T*13
$GPGGA,043851.20,2234.52081235,N,11431.62660698,E,4,19,0.8,-4.0057,M,-1.3719,M,01,0000*52
$GPRMC,043851.20,A,2234.52081235,N,11431.62660698,E,0.398,258.2,071224,3.4,W,D*29
$GNVTG,307.080,T,310.518,M,0.48300,N,0.89452,K,D*37
$GNHDT,329.2369,T*1D
$GPGGA,043851.40,2234.52082859,N,11431.62658385,E,4,19,0.8,-4.0401,M,-1.3719,M,01,0000*52
$GPRMC,043851.40,A,2234.52082859,N,11431.62658385,E,0.483,307.1,071224,3.4,W,D*2B
$GNVTG,300.374,T,303.812,M,0.37250,N,0.68988,K,D*34
$GNHDT,328.7830,T*1E
$GPGGA,043851.60,2234.52083909,N,11431.62656456,E,4,20,0.8,-4.1352,M,-1.3719,M,01,0000*58
$GPRMC,043851.60,A,2234.52083909,N,11431.62656456,E,0.373,300.4,071224,3.4,W,D*21
$GNVTG,307.562,T,311.001,M,0.54988,N,1.01838,K,D*34
$GNHDT,328.4880,T*16
$GPGGA,043851.80,2234.52085778,N,11431.62653840,E,4,20,0.8,-4.1938,M,-1.3719,M,01,0000*50
$GPRMC,043851.80,A,2234.52085778,N,11431.62653840,E,0.550,307.6,071224,3.4,W,D*2D
$GNVTG,314.237,T,317.675,M,0.42426,N,0.78572,K,D*30
$GNHDT,328.4219,T*1C
$GPGGA,043852.00,2234.52087427,N,11431.62652015,E,4,20,0.8,-4.1914,M,-1.3719,M,02,0000*54
$GPRMC,043852.00,A,2234.52087427,N,11431.62652015,E,0.424,314.2,071224,3.4,W,D*20
$GNVTG,312.418,T,315.856,M,0.33827,N,0.62648,K,D*3A
$GNHDT,329.3978,T*16
$GPGGA,043852.20,2234.52088699,N,11431.62650516,E,4,20,0.8,-4.1703,M,-1.3719,M,02,0000*52
$GPRMC,043852.20,A,2234.52088699,N,11431.62650516,E,0.338,312.4,071224,3.4,W,D*24
$GNVTG,13.355,T,16.794,M,0.17864,N,0.33083,K,D*33
$GNHDT,329.2637,T*13
$GPGGA,043852.40,2234.52089668,N,11431.62650764,E,4,19,0.8,-4.0828,M,-1.3719,M,01,0000*52
$GPRMC,043852.40,A,2234.52089668,N,11431.62650764,E,0.179,13.4,071224,3.4,W,D*1F
$GNVTG,36.354,T,39.792,M,0.07242,N,0.13412,K,D*3F
$GNHDT,330.1631,T*1E
$GPGGA,043852.60,2234.52089994,N,11431.62651021,E,4,20,0.8,-4.0703,M,-1.3719,M,01,0000*57
$GPRMC,043852.60,A,2234.52089994,N,11431.62651021,E,0.072,36.4,071224,3.4,W,D*1B
$GNVTG,52.383,T,55.821,M,0.27368,N,0.50685,K,D*3A
$GNHDT,330.6161,T*1B
$GPGGA,043852.80,2234.52090925,N,11431.62652323,E,4,20,0.8,-4.0468,M,-1.3719,M,01,0000*57
$GPRMC,043852.80,A,2234.52090925,N,11431.62652323,E,0.274,52.4,071224,3.4,W,D*13
$GNVTG,344.344,T,347.783,M,0.11097,N,0.20552,K,D*3A
$GNHDT,331.2160,T*1F
$GPGGA,043853.00,2234.52091520,N,11431.62652143,E,4,21,0.7,-4.0459,M,-1.3719,M,02,0000*5D
$GPRMC,043853.00,A,2234.52091520,N,11431.62652143,E,0.111,344.3,071224,3.4,W,D*25
$GNVTG,342.914,T,346.353,M,0.29873,N,0.55326,K,D*35
$GNHDT,331.4708,T*11
$GPGGA,043853.20,2234.52093112,N,11431.62651616,E,4,20,0.8,-4.0794,M,-1.3719,M,02,0000*50
$GPRMC,043853.20,A,2234.52093112,N,11431.62651616,E,0.299,342.9,071224,3.4,W,D*2B
$GNVTG,322.664,T,326.102,M,0.57898,N,1.07227,K,D*31
$GNHDT,330.2900,T*10
$GPGGA,043853.40,2234.52095679,N,11431.62649508,E,4,20,0.8,-4.1286,M,-1.3719,M,01,0000*5B
$GPRMC,043853.40,A,2234.52095679,N,11431.62649508,E,0.579,322.7,071224,3.4,W,D*25
$GNVTG,313.069,T,316.508,M,0.45527,N,0.84316,K,D*36
$GNHDT,329.7414,T*15
$GPGGA,043853.60,2234.52097412,N,11431.62647512,E,4,19,0.8,-4.1330,M,-1.3719,M,01,0000*57
$GPRMC,043853.60,A,2234.52097412,N,11431.62647512,E,0.455,313.1,071224,3.4,W,D*24
$GNVTG,297.509,T,300.948,M,0.41248,N,0.76391,K,D*3F
$GNHDT,330.2551,T*18
$GPGGA,043853.80,2234.52098474,N,11431.62645315,E,4,20,0.7,-4.1054,M,-1.3719,M,00,0000*50
$GPRMC,043853.80,A,2234.52098474,N,11431.62645315,E,0.412,297.5,071224,3.4,W,D*2C
$GNVTG,264.588,T,268.026,M,0.21380,N,0.39596,K,D*3D
$GNHDT,330.2698,T*1E
$GPGGA,043854.00,2234.52098361,N,11431.62644038,E,4,20,0.7,-4.0726,M,-1.3719,M,01,0000*53
$GPRMC,043854.00,A,2234.52098361,N,11431.62644038,E,0.214,264.6,071224,3.4,W,D*22
$GNVTG,226.179,T,229.618,M,0.34254,N,0.63439,K,D*38
$GNHDT,332.2917,T*14
$GPGGA,043854.20,2234.52097039,N,11431.62642554,E,4,21,0.7,-4.0373,M,-1.3719,M,01,0000*5C
$GPRMC,043854.20,A,2234.52097039,N,11431.62642554,E,0.343,226.2,071224,3.4,W,D*29
$GNVTG,226.396,T,229.834,M,0.09613,N,0.17803,K,D*34
$GNHDT,332.1432,T*1D
$GPGGA,043854.40,2234.52096670,N,11431.62642136,E,4,20,0.8,-4.0111,M,-1.3719,M,01,0000*58
$GPRMC,043854.40,A,2234.52096670,N,11431.62642136,E,0.096,226.4,071224,3.4,W,D*28
$GNVTG,314.791,T,318.230,M,0.22422,N,0.41526,K,D*3A
$GNHDT,332.2858,T*1E
$GPGGA,043854.60,2234.52097550,N,11431.62641181,E,4,20,0.8,-4.0140,M,-1.3719,M,01,0000*51
$GPRMC,043854.60,A,2234.52097550,N,11431.62641181,E,0.224,314.8,071224,3.4,W,D*22
$GNVTG,302.290,T,305.729,M,0.52237,N,0.96743,K,D*36
$GNHDT,332.7046,T*1C
$GPGGA,043854.80,2234.52099106,N,11431.62638530,E,4,20,0.8,-4.0404,M,-1.3719,M,01,0000*53
$GPRMC,043854.80,A,2234.52099106,N,11431.62638530,E,0.522,302.3,071224,3.4,W,D*28
$GNVTG,322.613,T,326.051,M,0.72982,N,1.35163,K,D*39
$GNHDT,331.8304,T*15
$GPGGA,043855.00,2234.52102339,N,11431.62635870,E,4,21,0.7,-4.0258,M,-1.3719,M,02,0000*51
$GPRMC,043855.00,A,2234.52102339,N,11431.62635870,E,0.730,322.6,071224,3.4,W,D*2E
$GNVTG,308.880,T,312.319,M,0.79169,N,1.46622,K,D*3D
$GNHDT,331.2173,T*1D
$GPGGA,043855.20,2234.52105109,N,11431.62632171,E,4,21,0.7,-4.0044,M,-1.3719,M,02,0000*55
$GPRMC,043855.20,A,2234.52105109,N,11431.62632171,E,0.792,308.9,071224,3.4,W,D*2A
$GNVTG,292.970,T,296.408,M,0.73646,N,1.36392,K,D*32
$GNHDT,331.1836,T*16
$GPGGA,043855.40,2234.52106711,N,11431.62628100,E,4,21,0.7,-3.9531,M,-1.3719,M,02,0000*5B
$GPRMC,043855.40,A,2234.52106711,N,11431.62628100,E,0.736,293.0,071224,3.4,W,D*29
$GNVTG,274.132,T,277.570,M,0.69538,N,1.28784,K,D*38
$GNHDT,332.0833,T*11
$GPGGA,043855.60,2234.52106990,N,11431.62623937,E,4,21,0.7,-3.9137,M,-1.3719,M,02,0000*5B
$GPRMC,043855.60,A,2234.52106990,N,11431.62623937,E,0.695,274.1,071224,3.4,W,D*2B
$GNVTG,269.335,T,272.773,M,0.40582,N,0.75158,K,D*31
$GNHDT,332.1676,T*1F
$GPGGA,043855.80,2234.52106964,N,11431.62621501,E,4,21,0.7,-3.8483,M,-1.3719,M,00,0000*5C
$GPRMC,043855.80,A,2234.52106964,N,11431.62621501,E,0.406,269.3,071224,3.4,W,D*23
$GNVTG,263.708,T,267.147,M,0.53195,N,0.98518,K,D*37
$GNHDT,332.6794,T*15
$GPGGA,043856.00,2234.52106639,N,11431.62618327,E,4,22,0.7,-3.8778,M,-1.3719,M,01,0000*5D
$GPRMC,043856.00,A,2234.52106639,N,11431.62618327,E,0.532,263.7,071224,3.4,W,D*2F
$GNVTG,291.842,T,295.280,M,0.56501,N,1.04640,K,D*38
$GNHDT,332.9647,T*15
$GPGGA,043856.20,2234.52107811,N,11431.62615179,E,4,21,0.7,-3.9193,M,-1.3719,M,01,0000*5F
$GPRMC,043856.20,A,2234.52107811,N,11431.62615179,E,0.565,291.8,071224,3.4,W,D*2C
$GNVTG,290.098,T,293.537,M,0.81587,N,1.51099,K,D*3D
$GNHDT,332.6872,T*12
$GPGGA,043856.40,2234.52109374,N,11431.62610580,E,4,21,0.7,-3.9924,M,-1.3719,M,01,0000*5C
$GPRMC,043856.40,A,2234.52109374,N,11431.62610580,E,0.816,290.1,071224,3.4,W,D*2A
$GNVTG,292.657,T,296.096,M,0.76747,N,1.42136,K,D*31
$GNHDT,332.5424,T*1E
$GPGGA,043856.60,2234.52111022,N,11431.62606328,E,4,21,0.7,-4.0441,M,-1.3719,M,01,0000*54
$GPRMC,043856.60,A,2234.52111022,N,11431.62606328,E,0.767,292.7,071224,3.4,W,D*2F
$GNVTG,287.046,T,290.484,M,0.68434,N,1.26740,K,D*3F
$GNHDT,332.5010,T*1D
$GPGGA,043856.80,2234.52112140,N,11431.62602401,E,4,21,0.7,-4.0637,M,-1.3719,M,00,0000*56
$GPRMC,043856.80,A,2234.52112140,N,11431.62602401,E,0.684,287.0,071224,3.4,W,D*20
$GNVTG,267.112,T,270.551,M,0.63424,N,1.17462,K,D*3D
$GNHDT,333.1452,T*1A
$GPGGA,043857.00,2234.52111962,N,11431.62598598,E,4,21,0.7,-4.0472,M,-1.3719,M,01,0000*57
$GPRMC,043857.00,A,2234.52111962,N,11431.62598598,E,0.634,267.1,071224,3.4,W,D*27
$GNVTG,242.853,T,246.292,M,0.48131,N,0.89138,K,D*3F
$GNHDT,334.0730,T*1B
$GPGGA,043857.20,2234.52110738,N,11431.62596027,E,4,21,0.7,-4.0007,M,-1.3719,M,01,0000*5C
$GPRMC,043857.20,A,2234.52110738,N,11431.62596027,E,0.481,242.9,071224,3.4,W,D*29
$GNVTG,247.655,T,251.093,M,0.57187,N,1.05910,K,D*33
$GNHDT,335.2281,T*17
$GPGGA,043857.40,2234.52109526,N,11431.62592852,E,4,21,0.7,-3.9606,M,-1.3719,M,01,0000*58
$GPRMC,043857.40,A,2234.52109526,N,11431.62592852,E,0.572,247.7,071224,3.4,W,D*22
$GNVTG,269.458,T,272.897,M,0.35875,N,0.66440,K,D*31
$GNHDT,334.1388,T*1D
$GPGGA,043857.60,2234.52109507,N,11431.62590699,E,4,21,0.7,-3.9351,M,-1.3719,M,01,0000*55
$GPRMC,043857.60,A,2234.52109507,N,11431.62590699,E,0.359,269.5,071224,3.4,W,D*29
$GNVTG,286.670,T,290.109,M,0.55471,N,1.02731,K,D*32
$GNHDT,334.7870,T*17
$GPGGA,043857.80,2234.52110394,N,11431.62587509,E,4,23,0.7,-3.9779,M,-1.3719,M,01,0000*5F
$GPRMC,043857.80,A,2234.52110394,N,11431.62587509,E,0.555,286.7,071224,3.4,W,D*26
$GNVTG,313.784,T,317.222,M,0.67755,N,1.25482,K,D*3B
$GNHDT,333.5168,T*12
$GPGGA,043858.00,2234.52113008,N,11431.62584573,E,4,22,0.7,-4.0473,M,-1.3719,M,02,0000*56
$GPRMC,043858.00,A,2234.52113008,N,11431.62584573,E,0.678,313.8,071224,3.4,W,D*24
$GNVTG,294.398,T,297.837,M,0.62055,N,1.14927,K,D*39
$GNHDT,333.1978,T*1F
$GPGGA,043858.20,2234.52114437,N,11431.62581180,E,4,22,0.7,-4.1289,M,-1.3719,M,02,0000*54
$GPRMC,043858.20,A,2234.52114437,N,11431.62581180,E,0.621,294.4,071224,3.4,W,D*2A
$GNVTG,292.193,T,295.632,M,0.40516,N,0.75036,K,D*32
$GNHDT,333.0686,T*10
$GPGGA,043858.40,2234.52115290,N,11431.62578928,E,4,22,0.7,-4.1876,M,-1.3719,M,01,0000*5D
$GPRMC,043858.40,A,2234.52115290,N,11431.62578928,E,0.405,292.2,071224,3.4,W,D*2E
$GNVTG,242.715,T,246.153,M,0.31274,N,0.57919,K,D*38
$GNHDT,334.5732,T*1C
$GPGGA,043858.60,2234.52114491,N,11431.62577260,E,4,22,0.7,-4.1565,M,-1.3719,M,01,0000*5E
$GPRMC,043858.60,A,2234.52114491,N,11431.62577260,E,0.313,242.7,071224,3.4,W,D*2A
$GNVTG,207.752,T,211.191,M,0.36968,N,0.68465,K,D*3D
$GNHDT,335.0981,T*1E
$GPGGA,043858.80,2234.52112667,N,11431.62576226,E,4,22,0.7,-4.1154,M,-1.3719,M,01,0000*58
$GPRMC,043858.80,A,2234.52112667,N,11431.62576226,E,0.370,207.8,071224,3.4,W,D*21
$GNVTG,219.435,T,222.874,M,0.36939,N,0.68410,K,D*34
$GNHDT,336.2133,T*1E
$GPGGA,043859.00,2234.52111076,N,11431.62574818,E,4,22,0.7,-4.0242,M,-1.3719,M,02,0000*57
$GPRMC,043859.00,A,2234.52111076,N,11431.62574818,E,0.369,219.4,071224,3.4,W,D*23
$GNVTG,261.135,T,264.573,M,0.26465,N,0.49013,K,D*37
$GNHDT,335.9810,T*1E
$GPGGA,043859.20,2234.52110849,N,11431.62573248,E,4,22,0.7,-3.9607,M,-1.3719,M,02,0000*53
$GPRMC,043859.20,A,2234.52110849,N,11431.62573248,E,0.265,261.1,071224,3.4,W,D*2B
$GNVTG,294.300,T,297.738,M,0.46235,N,0.85628,K,D*33
$GNHDT,335.7313,T*18
$GPGGA,043859.40,2234.52111910,N,11431.62570719,E,4,22,0.7,-3.9394,M,-1.3719,M,01,0000*57
$GPRMC,043859.40,A,2234.52111910,N,11431.62570719,E,0.462,294.3,071224,3.4,W,D*2A
$GNVTG,308.180,T,311.618,M,0.60585,N,1.12204,K,D*3C
$GNHDT,335.7068,T*17
$GPGGA,043859.60,2234.52113997,N,11431.62567860,E,4,22,0.7,-3.9756,M,-1.3719,M,01,0000*55
$GPRMC,043859.60,A,2234.52113997,N,11431.62567860,E,0.606,308.2,071224,3.4,W,D*27
$GNVTG,302.448,T,305.886,M,0.62689,N,1.16099,K,D*34
$GNHDT,334.6515,T*18
$GPGGA,043859.80,2234.52115872,N,11431.62564684,E,4,22,0.7,-4.0079,M,-1.3719,M,00,0000*55
$GPRMC,043859.80,A,2234.52115872,N,11431.62564684,E,0.627,302.4,071224,3.4,W,D*2D
$GNVTG,286.504,T,289.943,M,0.55644,N,1.03053,K,D*3A
$GNHDT,333.7377,T*1C
$GPGGA,043900.00,2234.52116754,N,11431.62561482,E,4,22,0.7,-4.0519,M,-1.3719,M,01,0000*5B
$GPRMC,043900.00,A,2234.52116754,N,11431.62561482,E,0.556,286.5,071224,3.4,W,D*28
$GNVTG,250.431,T,253.870,M,0.58119,N,1.07635,K,D*30
$GNHDT,334.3156,T*1E
$GPGGA,043900.20,2234.52115668,N,11431.62558194,E,4,20,0.7,-4.0709,M,-1.3719,M,01,0000*5D
$GPRMC,043900.20,A,2234.52115668,N,11431.62558194,E,0.581,250.4,071224,3.4,W,D*2F
$GNVTG,227.307,T,230.745,M,0.53750,N,0.99546,K,D*3F
$GNHDT,335.2707,T*1C
$GPGGA,043900.40,2234.52113637,N,11431.62555823,E,4,20,0.7,-4.0637,M,-1.3719,M,01,0000*53
$GPRMC,043900.40,A,2234.52113637,N,11431.62555823,E,0.538,227.3,071224,3.4,W,D*28
$GNVTG,219.402,T,222.841,M,0.47692,N,0.88326,K,D*32
$GNHDT,335.8272,T*11
$GPGGA,043900.60,2234.52111582,N,11431.62554006,E,4,20,0.7,-4.0408,M,-1.3719,M,00,0000*5F
$GPRMC,043900.60,A,2234.52111582,N,11431.62554006,E,0.477,219.4,071224,3.4,W,D*2B
$GNVTG,247.853,T,251.291,M,0.42847,N,0.79353,K,D*3D
$GNHDT,336.0232,T*1E
$GPGGA,043900.80,2234.52110682,N,11431.62551623,E,4,21,0.7,-4.0491,M,-1.3719,M,00,0000*56
$GPRMC,043900.80,A,2234.52110682,N,11431.62551623,E,0.428,247.9,071224,3.4,W,D*2F
$GNVTG,284.437,T,287.876,M,0.36332,N,0.67286,K,D*38
$GNHDT,336.2674,T*1A
$GPGGA,043901.00,2234.52111187,N,11431.62549511,E,4,21,0.7,-4.0332,M,-1.3719,M,01,0000*58
$GPRMC,043901.00,A,2234.52111187,N,11431.62549511,E,0.363,284.4,071224,3.4,W,D*24
$GNVTG,297.062,T,300.500,M,0.63812,N,1.18180,K,D*39
$GNHDT,335.8821,T*1D
$GPGGA,043901.20,2234.52112805,N,11431.62546100,E,4,20,0.7,-4.0364,M,-1.3719,M,01,0000*53
$GPRMC,043901.20,A,2234.52112805,N,11431.62546100,E,0.638,297.1,071224,3.4,W,D*21
$GNVTG,301.834,T,305.273,M,0.61584,N,1.14053,K,D*39
$GNHDT,335.0569,T*14
$GPGGA,043901.40,2234.52114616,N,11431.62542960,E,4,20,0.7,-4.0372,M,-1.3719,M,01,0000*52
$GPRMC,043901.40,A,2234.52114616,N,11431.62542960,E,0.616,301.8,071224,3.4,W,D*2C
$GNVTG,275.415,T,278.853,M,0.53591,N,0.99251,K,D*36
$GNHDT,334.7061,T*1F
$GPGGA,043901.60,2234.52114898,N,11431.62539757,E,4,20,0.7,-4.0203,M,-1.3719,M,01,0000*59
$GPRMC,043901.60,A,2234.52114898,N,11431.62539757,E,0.536,275.4,071224,3.4,W,D*2F
$GNVTG,262.845,T,266.284,M,0.50731,N,0.93953,K,D*3E
$GNHDT,335.2930,T*16
$GPGGA,043901.80,2234.52114546,N,11431.62536735,E,4,20,0.7,-4.0211,M,-1.3719,M,00,0000*50
$GPRMC,043901.80,A,2234.52114546,N,11431.62536735,E,0.507,262.8,071224,3.4,W,D*2C
$GNVTG,241.874,T,245.312,M,0.51439,N,0.95265,K,D*30
$GNHDT,335.8804,T*1A
$GPGGA,043902.00,2234.52113194,N,11431.62534012,E,4,20,0.7,-4.0012,M,-1.3719,M,01,0000*57
$GPRMC,043902.00,A,2234.52113194,N,11431.62534012,E,0.514,241.9,071224,3.4,W,D*29
$GNVTG,253.516,T,256.954,M,0.36540,N,0.67673,K,D*30
$GNHDT,335.9069,T*18
$GPGGA,043902.20,2234.52112616,N,11431.62531909,E,4,20,0.7,-4.0025,M,-1.3719,M,01,0000*5B
$GPRMC,043902.20,A,2234.52112616,N,11431.62531909,E,0.365,253.5,071224,3.4,W,D*2E
$GNVTG,244.361,T,247.799,M,0.57798,N,1.07042,K,D*3C
$GNHDT,335.8891,T*16
$GPGGA,043902.40,2234.52111222,N,11431.62528781,E,4,20,0.7,-4.0106,M,-1.3720,M,01,0000*51
$GPRMC,043902.40,A,2234.52111222,N,11431.62528781,E,0.578,244.4,071224,3.4,W,D*23
$GNVTG,265.437,T,268.875,M,0.57761,N,1.06973,K,D*37
$GNHDT,335.5451,T*1B
$GPGGA,043902.60,2234.52110966,N,11431.62525325,E,4,22,0.7,-4.0213,M,-1.3720,M,01,0000*5B
$GPRMC,043902.60,A,2234.52110966,N,11431.62525325,E,0.578,265.4,071224,3.4,W,D*2F
$GNVTG,275.804,T,279.243,M,0.74256,N,1.37522,K,D*3F
$GNHDT,335.6344,T*1B
$GPGGA,043902.80,2234.52111384,N,11431.62520890,E,4,22,0.7,-4.0615,M,-1.3720,M,00,0000*51
$GPRMC,043902.80,A,2234.52111384,N,11431.62520890,E,0.743,275.8,071224,3.4,W,D*21
$GNVTG,269.798,T,273.237,M,0.60397,N,1.11856,K,D*32
$GNHDT,335.2270,T*19
$GPGGA,043903.00,2234.52111372,N,11431.62517265,E,4,21,0.7,-4.0767,M,-1.3720,M,01,0000*53
$GPRMC,043903.00,A,2234.52111372,N,11431.62517265,E,0.604,269.8,071224,3.4,W,D*2A
$GNVTG,270.784,T,274.222,M,0.56329,N,1.04321,K,D*3B
$GNHDT,334.1057,T*1C
$GPGGA,043903.20,2234.52111415,N,11431.62513884,E,4,21,0.7,-4.0669,M,-1.3720,M,01,0000*59
$GPRMC,043903.20,A,2234.52111415,N,11431.62513884,E,0.563,270.8,071224,3.4,W,D*25
$GNVTG,245.675,T,249.114,M,0.75986,N,1.40726,K,D*37
$GNHDT,335.1994,T*1B
$GPGGA,043903.40,2234.52109670,N,11431.62509727,E,4,21,0.7,-4.0597,M,-1.3719,M,01,0000*52
$GPRMC,043903.40,A,2234.52109670,N,11431.62509727,E,0.760,245.7,071224,3.4,W,D*2E
$GNVTG,259.726,T,263.164,M,0.63404,N,1.17424,K,D*31
$GNHDT,334.7570,T*1A
$GPGGA,043903.60,2234.52109040,N,11431.62505982,E,4,21,0.7,-4.0579,M,-1.3719,M,00,0000*59
$GPRMC,043903.60,A,2234.52109040,N,11431.62505982,E,0.634,259.7,071224,3.4,W,D*29
$GNVTG,253.293,T,256.732,M,0.62953,N,1.16589,K,D*3A
$GNHDT,334.6561,T*1B
$GPGGA,043903.80,2234.52108031,N,11431.62502363,E,4,21,0.7,-4.0871,M,-1.3719,M,00,0000*57
$GPRMC,043903.80,A,2234.52108031,N,11431.62502363,E,0.630,253.3,071224,3.4,W,D*28
$GNVTG,253.703,T,257.141,M,0.57591,N,1.06659,K,D*3E
$GNHDT,334.1130,T*1C
$GPGGA,043904.00,2234.52107130,N,11431.62499045,E,4,21,0.7,-4.0866,M,-1.3719,M,01,0000*54
$GPRMC,043904.00,A,2234.52107130,N,11431.62499045,E,0.576,253.7,071224,3.4,W,D*29
$GNVTG,257.863,T,261.302,M,0.62713,N,1.16144,K,D*37
$GNHDT,333.0177,T*19
$GPGGA,043904.20,2234.52106395,N,11431.62495364,E,4,20,0.7,-4.0792,M,-1.3719,M,01,0000*53
$GPRMC,043904.20,A,2234.52106395,N,11431.62495364,E,0.627,257.9,071224,3.4,W,D*26
$GNVTG,280.056,T,283.494,M,0.61933,N,1.14700,K,D*3C
$GNHDT,331.5510,T*1B
$GPGGA,043904.40,2234.52106998,N,11431.62491704,E,4,20,0.7,-4.0625,M,-1.3719,M,01,0000*59
$GPRMC,043904.40,A,2234.52106998,N,11431.62491704,E,0.619,280.1,071224,3.4,W,D*2E
$GNVTG,276.129,T,279.567,M,0.82749,N,1.53251,K,D*38
$GNHDT,330.9567,T*16
$GPGGA,043904.60,2234.52107490,N,11431.62486765,E,4,20,0.7,-4.1025,M,-1.3719,M,01,0000*59
$GPRMC,043904.60,A,2234.52107490,N,11431.62486765,E,0.827,276.1,071224,3.4,W,D*23
$GNVTG,272.101,T,275.540,M,0.68698,N,1.27229,K,D*3A
$GNHDT,329.5385,T*18
$GPGGA,043904.80,2234.52107631,N,11431.62482644,E,4,20,0.7,-4.1042,M,-1.3720,M,01,0000*53
$GPRMC,043904.80,A,2234.52107631,N,11431.62482644,E,0.687,272.1,071224,3.4,W,D*22
$GNVTG,249.998,T,253.436,M,0.71153,N,1.31776,K,D*3E
$GNHDT,329.5989,T*1E
$GPGGA,043905.00,2234.52106274,N,11431.62478630,E,4,20,0.7,-4.0509,M,-1.3720,M,02,0000*50
$GPRMC,043905.00,A,2234.52106274,N,11431.62478630,E,0.712,250.0,071224,3.4,W,D*25
$GNVTG,240.347,T,243.785,M,0.62406,N,1.15577,K,D*37
$GNHDT,328.4915,T*1B
$GPGGA,043905.20,2234.52104553,N,11431.62475374,E,4,19,0.8,-3.9890,M,-1.3720,M,02,0000*5C
$GPRMC,043905.20,A,2234.52104553,N,11431.62475374,E,0.624,240.3,071224,3.4,W,D*29
$GNVTG,261.693,T,265.132,M,0.69500,N,1.28715,K,D*32
$GNHDT,327.0749,T*17
$GPGGA,043905.40,2234.52103993,N,11431.62471246,E,4,19,0.8,-4.0139,M,-1.3720,M,01,0000*5E
$GPRMC,043905.40,A,2234.52103993,N,11431.62471246,E,0.695,261.7,071224,3.4,W,D*21
$GNVTG,260.854,T,264.293,M,0.73833,N,1.36738,K,D*39
$GNHDT,325.4269,T*16
$GPGGA,043905.60,2234.52103339,N,11431.62466871,E,4,19,0.8,-3.9731,M,-1.3720,M,01,0000*5E
$GPRMC,043905.60,A,2234.52103339,N,11431.62466871,E,0.738,260.9,071224,3.4,W,D*28
$GNVTG,268.460,T,271.898,M,0.96209,N,1.78179,K,D*3E
$GNHDT,324.5638,T*16
$GPGGA,043905.80,2234.52103195,N,11431.62461097,E,4,19,0.8,-3.9750,M,-1.3720,M,01,0000*54
$GPRMC,043905.80,A,2234.52103195,N,11431.62461097,E,0.962,268.5,071224,3.4,W,D*20
$GNVTG,273.008,T,276.446,M,0.87509,N,1.62066,K,D*35
$GNHDT,322.9186,T*1E
$GPGGA,043906.00,2234.52103451,N,11431.62455852,E,4,18,0.8,-3.9847,M,-1.3720,M,02,0000*5F
$GPRMC,043906.00,A,2234.52103451,N,11431.62455852,E,0.875,273.0,071224,3.4,W,D*28
$GNVTG,265.271,T,268.709,M,0.97953,N,1.81410,K,D*33
$GNHDT,322.1895,T*1D
$GPGGA,043906.20,2234.52103000,N,11431.62449992,E,4,19,0.8,-4.0083,M,-1.3720,M,02,0000*52
$GPRMC,043906.20,A,2234.52103000,N,11431.62449992,E,0.980,265.3,071224,3.4,W,D*25
$GNVTG,261.784,T,265.222,M,0.71727,N,1.32839,K,D*33
$GNHDT,320.3314,T*1F
$GPGGA,043906.40,2234.52102429,N,11431.62445730,E,4,19,0.8,-4.0592,M,-1.3720,M,02,0000*55
$GPRMC,043906.40,A,2234.52102429,N,11431.62445730,E,0.717,261.8,071224,3.4,W,D*28
$GNVTG,253.327,T,256.765,M,0.85214,N,1.57816,K,D*39
$GNHDT,320.4497,T*14
$GPGGA,043906.60,2234.52101066,N,11431.62440830,E,4,19,0.8,-4.0753,M,-1.3720,M,02,0000*5E
$GPRMC,043906.60,A,2234.52101066,N,11431.62440830,E,0.852,253.3,071224,3.4,W,D*28
$GNVTG,242.612,T,246.051,M,0.72234,N,1.33777,K,D*3B
$GNHDT,319.8429,T*17
$GPGGA,043906.80,2234.52099214,N,11431.62436980,E,4,19,0.8,-4.0043,M,-1.3720,M,02,0000*5A
$GPRMC,043906.80,A,2234.52099214,N,11431.62436980,E,0.722,242.6,071224,3.4,W,D*27
$GNVTG,240.476,T,243.914,M,0.84299,N,1.56122,K,D*3F
$GNHDT,321.0678,T*12
$GPGGA,043907.00,2234.52096898,N,11431.62432577,E,4,19,0.8,-3.9684,M,-1.3720,M,03,0000*50
$GPRMC,043907.00,A,2234.52096898,N,11431.62432577,E,0.843,240.5,071224,3.4,W,D*26
$GNVTG,245.307,T,248.745,M,0.62241,N,1.15271,K,D*35
$GNHDT,320.6014,T*19
$GPGGA,043907.20,2234.52095448,N,11431.62429182,E,4,19,0.8,-3.9571,M,-1.3720,M,03,0000*5D
$GPRMC,043907.20,A,2234.52095448,N,11431.62429182,E,0.622,245.3,071224,3.4,W,D*28
$GNVTG,252.545,T,255.983,M,0.59729,N,1.10617,K,D*39
$GNHDT,320.8052,T*15
$GPGGA,043907.40,2234.52094450,N,11431.62425762,E,4,18,0.8,-3.9619,M,-1.3720,M,03,0000*5B
$GPRMC,043907.40,A,2234.52094450,N,11431.62425762,E,0.597,252.5,071224,3.4,W,D*2F
$GNVTG,262.021,T,265.459,M,0.60056,N,1.11224,K,D*34
$GNHDT,320.4277,T*1C
$GPGGA,043907.60,2234.52093985,N,11431.62422192,E,4,18,0.8,-4.0069,M,-1.3720,M,02,0000*5B
$GPRMC,043907.60,A,2234.52093985,N,11431.62422192,E,0.601,262.0,071224,3.4,W,D*2B
$GNVTG,259.877,T,263.316,M,0.59490,N,1.10176,K,D*3C
$GNHDT,320.6696,T*15
