37,T*12
$GPGGA,022718.80,2234.03506362,N,11431.92532083,E,4,19,0.9,3.4038,M,-1.3415,M,00,0000*7F
$GPRMC,022718.80,A,2234.03506362,N,11431.92532083,E,0.009,115.3,051224,3.4,W,D*2E
$GNVTG,85.060,T,88.490,M,0.05259,N,0.09739,K,D*31
$GNHDT,234.0260,T*1A
$GPGGA,022719.00,2234.03506388,N,11431.92532398,E,4,19,0.9,3.3924,M,-1.3415,M,01,0000*79
$GPRMC,022719.00,A,2234.03506388,N,11431.92532398,E,0.053,85.1,051224,3.4,W,D*1F
$GNVTG,139.620,T,143.050,M,0.07275,N,0.13472,K,D*30
$GNHDT,234.3533,T*18
$GPGGA,022719.20,2234.03506079,N,11431.92532680,E,4,19,0.9,3.3962,M,-1.3415,M,01,0000*78
$GPRMC,022719.20,A,2234.03506079,N,11431.92532680,E,0.073,139.6,051224,3.4,W,D*2F
$GNVTG,324.077,T,327.507,M,0.09363,N,0.17341,K,D*36
$GNHDT,233.7644,T*18
$GPGGA,022719.40,2234.03506501,N,11431.92532351,E,4,19,0.9,3.3943,M,-1.3415,M,01,0000*7E
$GPRMC,022719.40,A,2234.03506501,N,11431.92532351,E,0.094,324.1,051224,3.4,W,D*2A
$GNVTG,209.923,T,213.353,M,0.05526,N,0.10235,K,D*3F
$GNHDT,234.0176,T*1E
$GPGGA,022719.60,2234.03506234,N,11431.92532185,E,4,19,0.9,3.3978,M,-1.3415,M,00,0000*7F
$GPRMC,022719.60,A,2234.03506234,N,11431.92532185,E,0.055,209.9,051224,3.4,W,D*29
$GNVTG,114.399,T,117.829,M,0.07181,N,0.13299,K,D*34
$GNHDT,234.1678,T*16
$GPGGA,022719.80,2234.03506069,N,11431.92532578,E,4,19,0.9,3.3856,M,-1.3415,M,00,0000*70
$GPRMC,022719.80,A,2234.03506069,N,11431.92532578,E,0.072,114.4,051224,3.4,W,D*2C
$GNVTG,217.600,T,221.030,M,0.03784,N,0.07007,K,D*30
$GNHDT,234.1568,T*14
$GPGGA,022720.00,2234.03505902,N,11431.92532439,E,4,20,0.8,3.3870,M,-1.3415,M,01,0000*7F
$GPRMC,022720.00,A,2234.03505902,N,11431.92532439,E,0.038,217.6,051224,3.4,W,D*21
$GNVTG,162.027,T,165.457,M,0.03003,N,0.05562,K,D*38
$GNHDT,234.0288,T*1C
$GPGGA,022720.20,2234.03505743,N,11431.92532495,E,4,20,0.8,3.3862,M,-1.3415,M,01,0000*73
$GPRMC,022720.20,A,2234.03505743,N,11431.92532495,E,0.030,162.0,051224,3.4,W,D*21
$GNVTG,18.248,T,21.678,M,0.13556,N,0.25106,K,D*31
$GNHDT,234.0790,T*10
$GPGGA,022720.40,2234.03506460,N,11431.92532750,E,4,20,0.8,3.3851,M,-1.3415,M,01,0000*7E
$GPRMC,022720.40,A,2234.03506460,N,11431.92532750,E,0.136,18.2,051224,3.4,W,D*15
$GNVTG,334.997,T,338.426,M,0.06005,N,0.11121,K,D*32
$GNHDT,233.8699,T*17
$GPGGA,022720.60,2234.03506764,N,11431.92532597,E,4,20,0.8,3.3880,M,-1.3415,M,01,0000*7E
$GPRMC,022720.60,A,2234.03506764,N,11431.92532597,E,0.060,335.0,051224,3.4,W,D*25
$GNVTG,167.291,T,170.721,M,0.07281,N,0.13484,K,D*36
$GNHDT,234.2440,T*1C
$GPGGA,022720.80,2234.03506368,N,11431.92532693,E,4,20,0.8,3.3966,M,-1.3415,M,01,0000*76
$GPRMC,022720.80,A,2234.03506368,N,11431.92532693,E,0.073,167.3,051224,3.4,W,D*20
$GNVTG,12.089,T,15.519,M,0.03900,N,0.07223,K,D*3D
$GNHDT,234.0961,T*10
$GPGGA,022721.00,2234.03506580,N,11431.92532742,E,4,20,0.8,3.3924,M,-1.3415,M,02,0000*77
$GPRMC,022721.00,A,2234.03506580,N,11431.92532742,E,0.039,12.1,051224,3.4,W,D*1B
$GNVTG,272.421,T,275.851,M,0.06756,N,0.12512,K,D*33
$GNHDT,233.7924,T*11
$GPGGA,022721.20,2234.03506596,N,11431.92532337,E,4,20,0.8,3.3858,M,-1.3415,M,02,0000*7E
$GPRMC,022721.20,A,2234.03506596,N,11431.92532337,E,0.068,272.4,051224,3.4,W,D*2D
$GNVTG,109.185,T,112.615,M,0.09318,N,0.17256,K,D*38
$GNHDT,234.2651,T*1E
$GPGGA,022721.40,2234.03506426,N,11431.92532866,E,4,20,0.8,3.3856,M,-1.3415,M,02,0000*73
$GPRMC,022721.40,A,2234.03506426,N,11431.92532866,E,0.093,109.2,051224,3.4,W,D*23
$GNVTG,170.228,T,173.658,M,0.01029,N,0.01906,K,D*3C
$GNHDT,234.1795,T*14
$GPGGA,022721.60,2234.03506369,N,11431.92532876,E,4,20,0.8,3.3874,M,-1.3415,M,00,0000*7E
$GPRMC,022721.60,A,2234.03506369,N,11431.92532876,E,0.010,170.2,051224,3.4,W,D*29
$GNVTG,63.958,T,67.388,M,0.03661,N,0.06781,K,D*31
$GNHDT,234.3091,T*15
$GPGGA,022721.80,2234.03506459,N,11431.92533073,E,4,20,0.8,3.3896,M,-1.3415,M,00,0000*74
$GPRMC,022721.80,A,2234.03506459,N,11431.92533073,E,0.037,64.0,051224,3.4,W,D*1C
$GNVTG,48.022,T,51.451,M,0.07972,N,0.14763,K,D*3C
$GNHDT,234.2349,T*12
$GPGGA,022722.00,2234.03506756,N,11431.92533429,E,4,20,0.8,3.3779,M,-1.3415,M,01,0000*77
$GPRMC,022722.00,A,2234.03506756,N,11431.92533429,E,0.080,48.0,051224,3.4,W,D*12
$GNVTG,278.787,T,282.217,M,0.04264,N,0.07897,K,D*34
$GNHDT,234.5229,T*12
$GPGGA,022722.20,2234.03506792,N,11431.92533176,E,4,19,0.8,3.3816,M,-1.3415,M,01,0000*7E
$GPRMC,022722.20,A,2234.03506792,N,11431.92533176,E,0.043,278.8,051224,3.4,W,D*21
$GNVTG,264.785,T,268.215,M,0.03525,N,0.06529,K,D*31
$GNHDT,234.3943,T*13
$GPGGA,022722.40,2234.03506774,N,11431.92532965,E,4,18,0.9,3.3847,M,-1.3415,M,01,0000*7F
$GPRMC,022722.40,A,2234.03506774,N,11431.92532965,E,0.035,264.8,051224,3.4,W,D*28
$GNVTG,334.996,T,338.425,M,0.02651,N,0.04909,K,D*35
$GNHDT,234.1395,T*10
$GPGGA,022722.60,2234.03506908,N,11431.92532898,E,4,18,0.9,3.3785,M,-1.3415,M,01,0000*7A
$GPRMC,022722.60,A,2234.03506908,N,11431.92532898,E,0.027,335.0,051224,3.4,W,D*22
$GNVTG,185.757,T,189.186,M,0.05248,N,0.09718,K,D*32
$GNHDT,234.2687,T*15
$GPGGA,022722.80,2234.03506617,N,11431.92532867,E,4,18,0.9,3.3930,M,-1.3415,M,00,0000*74
$GPRMC,022722.80,A,2234.03506617,N,11431.92532867,E,0.052,185.8,051224,3.4,W,D*2E
$GNVTG,234.167,T,237.597,M,0.04948,N,0.09164,K,D*3B
$GNHDT,234.3423,T*18
$GPGGA,022723.00,2234.03506456,N,11431.92532626,E,4,19,0.9,3.4063,M,-1.3415,M,01,0000*79
$GPRMC,022723.00,A,2234.03506456,N,11431.92532626,E,0.049,234.2,051224,3.4,W,D*22
$GNVTG,122.827,T,126.257,M,0.03010,N,0.05575,K,D*31
$GNHDT,234.1699,T*19
$GPGGA,022723.20,2234.03506365,N,11431.92532778,E,4,19,0.9,3.4012,M,-1.3415,M,01,0000*70
$GPRMC,022723.20,A,2234.03506365,N,11431.92532778,E,0.030,122.8,051224,3.4,W,D*2D
$GNVTG,52.495,T,55.925,M,0.03443,N,0.06377,K,D*3C
$GNHDT,234.1730,T*1B
$GPGGA,022723.40,2234.03506482,N,11431.92532942,E,4,19,0.9,3.3725,M,-1.3415,M,01,0000*7B
$GPRMC,022723.40,A,2234.03506482,N,11431.92532942,E,0.034,52.5,051224,3.4,W,D*1D
$GNVTG,65.440,T,68.869,M,0.06666,N,0.12346,K,D*30
$GNHDT,234.5735,T*1A
$GPGGA,022723.60,2234.03506636,N,11431.92533306,E,4,19,0.9,3.3680,M,-1.3415,M,01,0000*71
$GPRMC,022723.60,A,2234.03506636,N,11431.92533306,E,0.067,65.4,051224,3.4,W,D*1A
$GNVTG,25.459,T,28.889,M,0.02498,N,0.04625,K,D*36
$GNHDT,234.6912,T*12
$GPGGA,022723.80,2234.03506762,N,11431.92533370,E,4,19,0.9,3.3586,M,-1.3415,M,00,0000*7A
$GPRMC,022723.80,A,2234.03506762,N,11431.92533370,E,0.025,25.5,051224,3.4,W,D*16
$GNVTG,274.772,T,278.202,M,0.05442,N,0.10078,K,D*3F
$GNHDT,234.3913,T*16
$GPGGA,022724.00,2234.03506787,N,11431.92533045,E,4,20,0.8,3.3496,M,-1.3415,M,01,0000*71
$GPRMC,022724.00,A,2234.03506787,N,11431.92533045,E,0.054,274.8,051224,3.4,W,D*2A
$GNVTG,221.805,T,225.234,M,0.05823,N,0.10784,K,D*32
$GNHDT,234.5037,T*1F
$GPGGA,022724.20,2234.03506545,N,11431.92532812,E,4,19,0.9,3.3866,M,-1.3415,M,01,0000*7C
$GPRMC,022724.20,A,2234.03506545,N,11431.92532812,E,0.058,221.8,051224,3.4,W,D*23
$GNVTG,22.804,T,26.234,M,0.13000,N,0.24075,K,D*33
$GNHDT,234.4755,T*1D
$GPGGA,022724.40,2234.03507213,N,11431.92533114,E,4,19,0.9,3.3723,M,-1.3415,M,01,0000*7F
$GPRMC,022724.40,A,2234.03507213,N,11431.92533114,E,0.130,22.8,051224,3.4,W,D*10
$GNVTG,185.703,T,189.133,M,0.07263,N,0.13451,K,D*33
$GNHDT,234.5362,T*1C
$GPGGA,022724.60,2234.03506810,N,11431.92533071,E,4,19,0.9,3.3953,M,-1.3415,M,01,0000*7E
$GPRMC,022724.60,A,2234.03506810,N,11431.92533071,E,0.073,185.7,051224,3.4,W,D*2D
$GNVTG,37.047,T,40.477,M,0.08124,N,0.15046,K,D*36
$GNHDT,234.4107,T*1C
$GPGGA,022724.80,2234.03507172,N,11431.92533364,E,4,20,0.8,3.3763,M,-1.3415,M,00,0000*7C
$GPRMC,022724.80,A,2234.03507172,N,11431.92533364,E,0.081,37.0,051224,3.4,W,D*1A
$GNVTG,271.073,T,274.503,M,0.03405,N,0.06307,K,D*3F
$GNHDT,234.4464,T*1C
$GPGGA,022725.00,2234.03507175,N,11431.92533160,E,4,20,0.8,3.3922,M,-1.3415,M,01,0000*7E
$GPRMC,022725.00,A,2234.03507175,N,11431.92533160,E,0.034,271.1,051224,3.4,W,D*2D
$GNVTG,228.184,T,231.614,M,0.05161,N,0.09558,K,D*3C
$GNHDT,234.2498,T*19
$GPGGA,022725.20,2234.03506983,N,11431.92532929,E,4,20,0.8,3.3834,M,-1.3415,M,01,0000*7E
$GPRMC,022725.20,A,2234.03506983,N,11431.92532929,E,0.052,228.2,051224,3.4,W,D*24
$GNVTG,16.780,T,20.210,M,0.05394,N,0.09989,K,D*3B
$GNHDT,234.3542,T*1E
$GPGGA,022725.40,2234.03507271,N,11431.92533023,E,4,20,0.8,3.3853,M,-1.3415,M,01,0000*7C
$GPRMC,022725.40,A,2234.03507271,N,11431.92533023,E,0.054,16.8,051224,3.4,W,D*14
$GNVTG,97.998,T,101.427,M,0.02964,N,0.05489,K,D*06
$GNHDT,234.3816,T*12
$GPGGA,022725.60,2234.03507248,N,11431.92533199,E,4,20,0.8,3.3628,M,-1.3415,M,01,0000*76
$GPRMC,022725.60,A,2234.03507248,N,11431.92533199,E,0.030,98.0,051224,3.4,W,D*10
$GNVTG,276.044,T,279.474,M,0.08063,N,0.14932,K,D*30
$GNHDT,234.3869,T*1A
$GPGGA,022725.80,2234.03507296,N,11431.92532718,E,4,20,0.8,3.3812,M,-1.3415,M,00,0000*73
$GPRMC,022725.80,A,2234.03507296,N,11431.92532718,E,0.081,276.0,051224,3.4,W,D*2B
$GNVTG,93.678,T,97.108,M,0.08018,N,0.14850,K,D*35
$GNHDT,234.6059,T*14
$GPGGA,022726.00,2234.03507267,N,11431.92533198,E,4,20,0.8,3.3826,M,-1.3415,M,01,0000*7F
$GPRMC,022726.00,A,2234.03507267,N,11431.92533198,E,0.080,93.7,051224,3.4,W,D*1E
$GNVTG,299.444,T,302.873,M,0.08578,N,0.15887,K,D*32
$GNHDT,234.3672,T*1E
$GPGGA,022726.20,2234.03507502,N,11431.92532749,E,4,20,0.8,3.3862,M,-1.3415,M,01,0000*72
$GPRMC,022726.20,A,2234.03507502,N,11431.92532749,E,0.086,299.4,051224,3.4,W,D*2E
$GNVTG,344.016,T,347.446,M,0.05618,N,0.10405,K,D*30
$GNHDT,234.4823,T*13
$GPGGA,022726.40,2234.03507803,N,11431.92532657,E,4,20,0.8,3.3869,M,-1.3415,M,01,0000*7D
$GPRMC,022726.40,A,2234.03507803,N,11431.92532657,E,0.056,344.0,051224,3.4,W,D*22
$GNVTG,349.315,T,352.745,M,0.01346,N,0.02493,K,D*3F
$GNHDT,234.2764,T*19
$GPGGA,022726.60,2234.03507877,N,11431.92532642,E,4,20,0.8,3.3908,M,-1.3415,M,01,0000*7E
$GPRMC,022726.60,A,2234.03507877,N,11431.92532642,E,0.013,349.3,051224,3.4,W,D*28
$GNVTG,47.195,T,50.624,M,0.06250,N,0.11576,K,D*36
$GNHDT,234.5029,T*10
$GPGGA,022726.80,2234.03508114,N,11431.92532917,E,4,20,0.8,3.4045,M,-1.3415,M,00,0000*7A
$GPRMC,022726.80,A,2234.03508114,N,11431.92532917,E,0.063,47.2,051224,3.4,W,D*11
$GNVTG,283.942,T,287.371,M,0.03874,N,0.07175,K,D*3A
$GNHDT,234.3651,T*1F
$GPGGA,022727.00,2234.03508166,N,11431.92532691,E,4,20,0.8,3.4008,M,-1.3415,M,01,0000*7F
$GPRMC,022727.00,A,2234.03508166,N,11431.92532691,E,0.039,283.9,051224,3.4,W,D*22
$GNVTG,66.638,T,70.067,M,0.12096,N,0.22402,K,D*39
$GNHDT,234.4133,T*1B
$GPGGA,022727.20,2234.03508433,N,11431.92533358,E,4,20,0.8,3.3841,M,-1.3415,M,01,0000*7B
$GPRMC,022727.20,A,2234.03508433,N,11431.92533358,E,0.121,66.6,051224,3.4,W,D*1A
$GNVTG,22.333,T,25.763,M,0.08723,N,0.16154,K,D*37
$GNHDT,234.3676,T*1A
$GPGGA,022727.40,2234.03508883,N,11431.92533557,E,4,20,0.8,3.3829,M,-1.3415,M,01,0000*7D
$GPRMC,022727.40,A,2234.03508883,N,11431.92533557,E,0.087,22.3,051224,3.4,W,D*1A
$GNVTG,318.670,T,322.100,M,0.00485,N,0.00897,K,D*3E
$GNHDT,234.3980,T*1C
$GPGGA,022727.60,2234.03508903,N,11431.92533537,E,4,20,0.8,3.3853,M,-1.3415,M,00,0000*7C
$GPRMC,022727.60,A,2234.03508903,N,11431.92533537,E,0.005,318.7,051224,3.4,W,D*23
$GNVTG,42.592,T,46.022,M,0.03689,N,0.06833,K,D*38
$GNHDT,234.3542,T*1E
$GPGGA,022727.80,2234.03509054,N,11431.92533687,E,4,20,0.8,3.3825,M,-1.3415,M,00,0000*71
$GPRMC,022727.80,A,2234.03509054,N,11431.92533687,E,0.037,42.6,051224,3.4,W,D*13
$GNVTG,277.671,T,281.101,M,0.01982,N,0.03671,K,D*30
$GNHDT,234.2813,T*16
$GPGGA,022728.00,2234.03509069,N,11431.92533569,E,4,20,0.8,3.3871,M,-1.3415,M,01,0000*7B
$GPRMC,022728.00,A,2234.03509069,N,11431.92533569,E,0.020,277.7,051224,3.4,W,D*2A
$GNVTG,96.423,T,99.853,M,0.06999,N,0.12962,K,D*3D
$GNHDT,234.3926,T*10
$GPGGA,022728.20,2234.03509026,N,11431.92533987,E,4,20,0.8,3.3899,M,-1.3415,M,01,0000*78
$GPRMC,022728.20,A,2234.03509026,N,11431.92533987,E,0.070,96.4,051224,3.4,W,D*14
$GNVTG,314.359,T,317.788,M,0.06358,N,0.11775,K,D*3E
$GNHDT,234.5453,T*19
$GPGGA,022728.40,2234.03509273,N,11431.92533714,E,4,20,0.8,3.4143,M,-1.3415,M,01,0000*71
$GPRMC,022728.40,A,2234.03509273,N,11431.92533714,E,0.064,314.4,051224,3.4,W,D*28
$GNVTG,120.696,T,124.126,M,0.01607,N,0.02975,K,D*39
$GNHDT,234.2613,T*18
$GPGGA,022728.60,2234.03509228,N,11431.92533797,E,4,20,0.8,3.4040,M,-1.3415,M,00,0000*75
$GPRMC,022728.60,A,2234.03509228,N,11431.92533797,E,0.016,120.7,051224,3.4,W,D*2C
$GNVTG,28.561,T,31.990,M,0.08152,N,0.15098,K,D*39
$GNHDT,234.1017,T*19
$GPGGA,022728.80,2234.03509627,N,11431.92534031,E,4,20,0.8,3.4094,M,-1.3415,M,00,0000*75
$GPRMC,022728.80,A,2234.03509627,N,11431.92534031,E,0.082,28.6,051224,3.4,W,D*10
$GNVTG,89.120,T,92.550,M,0.05215,N,0.09658,K,D*30
$GNHDT,234.7406,T*1B
$GPGGA,022729.00,2234.03509631,N,11431.92534344,E,4,20,0.8,3.3973,M,-1.3415,M,01,0000*7C
$GPRMC,022729.00,A,2234.03509631,N,11431.92534344,E,0.052,89.1,051224,3.4,W,D*1E
$GNVTG,40.832,T,44.262,M,0.03815,N,0.07065,K,D*38
$GNHDT,234.3996,T*1B
$GPGGA,022729.20,2234.03509792,N,11431.92534494,E,4,20,0.8,3.3720,M,-1.3415,M,01,0000*74
$GPRMC,022729.20,A,2234.03509792,N,11431.92534494,E,0.038,40.8,051224,3.4,W,D*1E
$GNVTG,285.901,T,289.331,M,0.07028,N,0.13015,K,D*36
$GNHDT,234.3761,T*1D
$GPGGA,022729.40,2234.03509900,N,11431.92534088,E,4,20,0.8,3.3911,M,-1.3415,M,01,0000*72
$GPRMC,022729.40,A,2234.03509900,N,11431.92534088,E,0.070,285.9,051224,3.4,W,D*22
$GNVTG,199.000,T,202.430,M,0.04871,N,0.09021,K,D*3E
$GNHDT,234.4904,T*17
$GPGGA,022729.60,2234.03509643,N,11431.92533993,E,4,20,0.8,3.3883,M,-1.3415,M,00,0000*77
$GPRMC,022729.60,A,2234.03509643,N,11431.92533993,E,0.049,199.0,051224,3.4,W,D*21
$GNVTG,127.460,T,130.890,M,0.05865,N,0.10862,K,D*3E
$GNHDT,234.5141,T*1F
$GPGGA,022729.80,2234.03509444,N,11431.92534272,E,4,20,0.8,3.4001,M,-1.3415,M,00,0000*7A
$GPRMC,022729.80,A,2234.03509444,N,11431.92534272,E,0.059,127.5,051224,3.4,W,D*28
$GNVTG,330.792,T,334.222,M,0.04759,N,0.08814,K,D*38
$GNHDT,234.5698,T*1C
$GPGGA,022730.00,2234.03509675,N,11431.92534133,E,4,20,0.8,3.3974,M,-1.3415,M,01,0000*71
$GPRMC,022730.00,A,2234.03509675,N,11431.92534133,E,0.048,330.8,051224,3.4,W,D*27
$GNVTG,73.195,T,76.625,M,0.01504,N,0.02786,K,D*3A
$GNHDT,234.5554,T*1F
$GPGGA,022730.20,2234.03509700,N,11431.92534219,E,4,20,0.8,3.3841,M,-1.3415,M,01,0000*7C
$GPRMC,022730.20,A,2234.03509700,N,11431.92534219,E,0.015,73.2,051224,3.4,W,D*1B
$GNVTG,356.713,T,0.142,M,0.09304,N,0.17232,K,D*31
$GNHDT,234.4535,T*19
$GPGGA,022730.40,2234.03510218,N,11431.92534187,E,4,20,0.8,3.3799,M,-1.3415,M,01,0000*70
$GPRMC,022730.40,A,2234.03510218,N,11431.92534187,E,0.093,356.7,051224,3.4,W,D*22
$GNVTG,45.144,T,48.574,M,0.03720,N,0.06890,K,D*33
$GNHDT,234.3929,T*1F
$GPGGA,022730.60,2234.03510364,N,11431.92534346,E,4,20,0.8,3.3652,M,-1.3415,M,00,0000*70
$GPRMC,022730.60,A,2234.03510364,N,11431.92534346,E,0.037,45.1,051224,3.4,W,D*1C
$GNVTG,214.080,T,217.510,M,0.01712,N,0.03170,K,D*37
$GNHDT,234.5355,T*18
$GPGGA,022730.80,2234.03510285,N,11431.92534288,E,4,20,0.8,3.3642,M,-1.3415,M,00,0000*72
$GPRMC,022730.80,A,2234.03510285,N,11431.92534288,E,0.017,214.1,051224,3.4,W,D*2B
$GNVTG,277.134,T,280.563,M,0.07255,N,0.13436,K,D*30
$GNHDT,234.4127,T*1E
$GPGGA,022731.00,2234.03510335,N,11431.92533856,E,4,20,0.8,3.3796,M,-1.3415,M,01,0000*76
$GPRMC,022731.00,A,2234.03510335,N,11431.92533856,E,0.073,277.1,051224,3.4,W,D*21
$GNVTG,119.490,T,122.919,M,0.06594,N,0.12212,K,D*30
$GNHDT,234.6827,T*15
$GPGGA,022731.20,2234.03510154,N,11431.92534200,E,4,20,0.8,3.3737,M,-1.3415,M,01,0000*74
$GPRMC,022731.20,A,2234.03510154,N,11431.92534200,E,0.066,119.5,051224,3.4,W,D*23
$GNVTG,326.732,T,330.161,M,0.03060,N,0.05667,K,D*38
$GNHDT,234.7898,T*10
$GPGGA,022731.40,2234.03510297,N,11431.92534100,E,4,20,0.8,3.3695,M,-1.3415,M,01,0000*74
$GPRMC,022731.40,A,2234.03510297,N,11431.92534100,E,0.031,326.7,051224,3.4,W,D*24
$GNVTG,38.078,T,41.508,M,0.00678,N,0.01256,K,D*3D
$GNHDT,234.7581,T*15
$GPGGA,022731.60,2234.03510327,N,11431.92534125,E,4,20,0.8,3.3722,M,-1.3415,M,01,0000*76
$GPRMC,022731.60,A,2234.03510327,N,11431.92534125,E,0.007,38.1,051224,3.4,W,D*14
$GNVTG,347.191,T,350.621,M,0.04560,N,0.08445,K,D*38
$GNHDT,234.3882,T*1F
$GPGGA,022731.80,2234.03510574,N,11431.92534064,E,4,20,0.8,3.3758,M,-1.3415,M,00,0000*70
$GPRMC,022731.80,A,2234.03510574,N,11431.92534064,E,0.046,347.2,051224,3.4,W,D*23
$GNVTG,31.178,T,34.608,M,0.06809,N,0.12610,K,D*3E
$GNHDT,234.6363,T*1E
$GPGGA,022732.00,2234.03510899,N,11431.92534276,E,4,20,0.8,3.3600,M,-1.3415,M,01,0000*79
$GPRMC,022732.00,A,2234.03510899,N,11431.92534276,E,0.068,31.2,051224,3.4,W,D*19
$GNVTG,202.623,T,206.053,M,0.07023,N,0.13006,K,D*3F
$GNHDT,234.7552,T*1B
$GPGGA,022732.20,2234.03510538,N,11431.92534113,E,4,20,0.8,3.3487,M,-1.3415,M,01,0000*70
$GPRMC,022732.20,A,2234.03510538,N,11431.92534113,E,0.070,202.6,051224,3.4,W,D*22
$GNVTG,46.627,T,50.056,M,0.08021,N,0.14855,K,D*39
$GNHDT,234.7626,T*1B
$GPGGA,022732.40,2234.03510845,N,11431.92534463,E,4,20,0.8,3.3433,M,-1.3415,M,01,0000*7C
$GPRMC,022732.40,A,2234.03510845,N,11431.92534463,E,0.080,46.6,051224,3.4,W,D*1C
$GNVTG,144.218,T,147.648,M,0.03636,N,0.06734,K,D*3C
$GNHDT,235.1496,T*15
$GPGGA,022732.60,2234.03510680,N,11431.92534591,E,4,20,0.8,3.3633,M,-1.3415,M,01,0000*77
$GPRMC,022732.60,A,2234.03510680,N,11431.92534591,E,0.036,144.2,051224,3.4,W,D*2F
$GNVTG,58.057,T,61.487,M,0.08570,N,0.15873,K,D*39
$GNHDT,235.0654,T*18
$GPGGA,022732.80,2234.03510933,N,11431.92535028,E,4,20,0.8,3.3609,M,-1.3415,M,01,0000*71
$GPRMC,022732.80,A,2234.03510933,N,11431.92535028,E,0.086,58.1,051224,3.4,W,D*14
$GNVTG,115.549,T,118.979,M,0.08862,N,0.16413,K,D*3F
$GNHDT,235.2141,T*19
$GPGGA,022733.00,2234.03510720,N,11431.92535508,E,4,20,0.8,3.3546,M,-1.3415,M,02,0000*78
$GPRMC,022733.00,A,2234.03510720,N,11431.92535508,E,0.089,115.5,051224,3.4,W,D*25
$GNVTG,318.099,T,321.529,M,0.10542,N,0.19524,K,D*35
$GNHDT,234.7722,T*1E
$GPGGA,022733.20,2234.03511158,N,11431.92535085,E,4,20,0.8,3.3893,M,-1.3415,M,02,0000*77
$GPRMC,022733.20,A,2234.03511158,N,11431.92535085,E,0.105,318.1,051224,3.4,W,D*21
$GNVTG,357.959,T,1.388,M,0.01470,N,0.02722,K,D*39
$GNHDT,234.8222,T*14
$GPGGA,022733.40,2234.03511239,N,11431.92535082,E,4,20,0.8,3.3877,M,-1.3415,M,02,0000*78
$GPRMC,022733.40,A,2234.03511239,N,11431.92535082,E,0.015,358.0,051224,3.4,W,D*21
$GNVTG,68.079,T,71.509,M,0.11335,N,0.20992,K,D*37
$GNHDT,234.7895,T*1D
$GPGGA,022733.60,2234.03511475,N,11431.92535713,E,4,20,0.8,3.3656,M,-1.3415,M,02,0000*76
$GPRMC,022733.60,A,2234.03511475,N,11431.92535713,E,0.113,68.1,051224,3.4,W,D*14
$GNVTG,163.055,T,166.485,M,0.14516,N,0.26883,K,D*34
$GNHDT,235.3556,T*1A
$GPGGA,022733.80,2234.03510701,N,11431.92535967,E,4,20,0.8,3.3881,M,-1.3415,M,00,0000*72
$GPRMC,022733.80,A,2234.03510701,N,11431.92535967,E,0.145,163.1,051224,3.4,W,D*2F
$GNVTG,10.894,T,14.324,M,0.10170,N,0.18835,K,D*3C
$GNHDT,234.9846,T*1D
$GPGGA,022734.00,2234.03511258,N,11431.92536082,E,4,20,0.8,3.3720,M,-1.3415,M,01,0000*71
$GPRMC,022734.00,A,2234.03511258,N,11431.92536082,E,0.102,10.9,051224,3.4,W,D*17
$GNVTG,1.732,T,5.162,M,0.12995,N,0.24067,K,D*3E
$GNHDT,235.2436,T*1C
$GPGGA,022734.20,2234.03511982,N,11431.92536106,E,4,20,0.8,3.3745,M,-1.3415,M,01,0000*71
$GPRMC,022734.20,A,2234.03511982,N,11431.92536106,E,0.130,1.7,051224,3.4,W,D*2B
$GNVTG,223.974,T,227.403,M,0.08192,N,0.15171,K,D*30
$GNHDT,235.4558,T*13
$GPGGA,022734.40,2234.03511653,N,11431.92535764,E,4,19,0.9,3.3931,M,-1.3415,M,01,0000*73
$GPRMC,022734.40,A,2234.03511653,N,11431.92535764,E,0.082,224.0,051224,3.4,W,D*25
$GNVTG,341.461,T,344.891,M,0.02245,N,0.04158,K,D*37
$GNHDT,235.4507,T*19
$GPGGA,022734.60,2234.03511772,N,11431.92535722,E,4,19,0.9,3.4059,M,-1.3415,M,01,0000*71
$GPRMC,022734.60,A,2234.03511772,N,11431.92535722,E,0.022,341.5,051224,3.4,W,D*2A
$GNVTG,200.170,T,203.600,M,0.04715,N,0.08733,K,D*33
$GNHDT,235.0644,T*19
$GPGGA,022734.80,2234.03511525,N,11431.92535624,E,4,19,0.9,3.4080,M,-1.3415,M,00,0000*7D
$GPRMC,022734.80,A,2234.03511525,N,11431.92535624,E,0.047,200.2,051224,3.4,W,D*23
$GNVTG,35.153,T,38.583,M,0.06785,N,0.12566,K,D*36
$GNHDT,235.2270,T*18
$GPGGA,022735.00,2234.03511835,N,11431.92535859,E,4,19,0.9,3.4062,M,-1.3415,M,01,0000*71
$GPRMC,022735.00,A,2234.03511835,N,11431.92535859,E,0.068,35.2,051224,3.4,W,D*1B
$GNVTG,344.461,T,347.891,M,0.04848,N,0.08978,K,D*36
$GNHDT,235.3747,T*18
$GPGGA,022735.20,2234.03512095,N,11431.92535781,E,4,19,0.9,3.3764,M,-1.3415,M,01,0000*7E
$GPRMC,022735.20,A,2234.03512095,N,11431.92535781,E,0.048,344.5,051224,3.4,W,D*22
$GNVTG,197.641,T,201.071,M,0.00967,N,0.01791,K,D*37
$GNHDT,235.5783,T*16
$GPGGA,022735.40,2234.03512044,N,11431.92535763,E,4,19,0.9,3.3828,M,-1.3415,M,01,0000*7F
$GPRMC,022735.40,A,2234.03512044,N,11431.92535763,E,0.010,197.6,051224,3.4,W,D*26
$GNVTG,286.906,T,290.336,M,0.05191,N,0.09614,K,D*30
$GNHDT,235.6678,T*10
$GPGGA,022735.60,2234.03512128,N,11431.92535465,E,4,20,0.8,3.3743,M,-1.3415,M,01,0000*7A
$GPRMC,022735.60,A,2234.03512128,N,11431.92535465,E,0.052,286.9,051224,3.4,W,D*20
$GNVTG,336.800,T,340.230,M,0.04810,N,0.08907,K,D*3B
$GNHDT,235.6731,T*1C
$GPGGA,022735.80,2234.03512374,N,11431.92535351,E,4,20,0.8,3.3725,M,-1.3415,M,00,0000*7E
$GPRMC,022735.80,A,2234.03512374,N,11431.92535351,E,0.048,336.8,051224,3.4,W,D*25
$GNVTG,228.135,T,231.565,M,0.03286,N,0.06085,K,D*35
$GNHDT,235.6924,T*16
$GPGGA,022736.00,2234.03512252,N,11431.92535204,E,4,20,0.8,3.3844,M,-1.3415,M,01,0000*78
$GPRMC,022736.00,A,2234.03512252,N,11431.92535204,E,0.033,228.1,051224,3.4,W,D*21
$GNVTG,4.983,T,8.413,M,0.05589,N,0.10350,K,D*36
$GNHDT,235.4832,T*12
$GPGGA,022736.20,2234.03512562,N,11431.92535233,E,4,19,0.9,3.3868,M,-1.3415,M,01,0000*7F
$GPRMC,022736.20,A,2234.03512562,N,11431.92535233,E,0.056,5.0,051224,3.4,W,D*2C
$GNVTG,222.745,T,226.174,M,0.11786,N,0.21828,K,D*30
$GNHDT,235.6477,T*1D
$GPGGA,022736.40,2234.03512080,N,11431.92534753,E,4,19,0.9,3.3873,M,-1.3415,M,01,0000*78
$GPRMC,022736.40,A,2234.03512080,N,11431.92534753,E,0.118,222.7,051224,3.4,W,D*2A
$GNVTG,98.932,T,102.362,M,0.07837,N,0.14515,K,D*0A
$GNHDT,235.9882,T*14
$GPGGA,022736.60,2234.03512012,N,11431.92535218,E,4,19,0.9,3.3828,M,-1.3415,M,00,0000*75
$GPRMC,022736.60,A,2234.03512012,N,11431.92535218,E,0.078,98.9,051224,3.4,W,D*12
$GNVTG,87.565,T,90.995,M,0.06426,N,0.11901,K,D*33
$GNHDT,236.0753,T*1D
$GPGGA,022736.80,2234.03512027,N,11431.92535603,E,4,19,0.9,3.3818,M,-1.3415,M,00,0000*70
$GPRMC,022736.80,A,2234.03512027,N,11431.92535603,E,0.064,87.6,051224,3.4,W,D*18
$GNVTG,46.233,T,49.663,M,0.06029,N,0.11166,K,D*3A
$GNHDT,235.9603,T*13
$GPGGA,022737.00,2234.03512260,N,11431.92535865,E,4,19,0.9,3.3761,M,-1.3415,M,01,0000*76
$GPRMC,022737.00,A,2234.03512260,N,11431.92535865,E,0.060,46.2,051224,3.4,W,D*13
$GNVTG,282.477,T,285.907,M,0.08004,N,0.14823,K,D*35
$GNHDT,235.6977,T*10
$GPGGA,022737.20,2234.03512356,N,11431.92535396,E,4,19,0.9,3.3670,M,-1.3415,M,01,0000*76
$GPRMC,022737.20,A,2234.03512356,N,11431.92535396,E,0.080,282.5,051224,3.4,W,D*21
$GNVTG,160.746,T,164.176,M,0.06411,N,0.11872,K,D*36
$GNHDT,235.9158,T*1A
$GPGGA,022737.40,2234.03512019,N,11431.92535522,E,4,19,0.9,3.3808,M,-1.3415,M,01,0000*70
$GPRMC,022737.40,A,2234.03512019,N,11431.92535522,E,0.064,160.7,051224,3.4,W,D*21
$GNVTG,256.754,T,260.184,M,0.02798,N,0.05182,K,D*3C
$GNHDT,236.0043,T*1B
$GPGGA,022737.60,2234.03511983,N,11431.92535359,E,4,19,0.9,3.3590,M,-1.3415,M,01,0000*7D
$GPRMC,022737.60,A,2234.03511983,N,11431.92535359,E,0.028,256.8,051224,3.4,W,D*21
$GNVTG,52.138,T,55.567,M,0.06356,N,0.11771,K,D*36
$GNHDT,236.2112,T*1C
$GPGGA,022737.80,2234.03512200,N,11431.92535660,E,4,19,0.9,3.3759,M,-1.3415,M,00,0000*79
$GPRMC,022737.80,A,2234.03512200,N,11431.92535660,E,0.064,52.1,051224,3.4,W,D*14
$GNVTG,144.198,T,147.627,M,0.02663,N,0.04931,K,D*36
$GNHDT,236.3076,T*1E
$GPGGA,022738.00,2234.03512080,N,11431.92535754,E,4,19,0.9,3.3630,M,-1.3415,M,01,0000*7D
$GPRMC,022738.00,A,2234.03512080,N,11431.92535754,E,0.027,144.2,051224,3.4,W,D*2D
$GNVTG,319.561,T,322.991,M,0.03153,N,0.05839,K,D*30
$GNHDT,236.2747,T*1A
$GPGGA,022738.20,2234.03512214,N,11431.92535631,E,4,19,0.9,3.3721,M,-1.3415,M,01,0000*73
$GPRMC,022738.20,A,2234.03512214,N,11431.92535631,E,0.032,319.6,051224,3.4,W,D*28
$GNVTG,46.665,T,50.094,M,0.13029,N,0.24130,K,D*3A
$GNHDT,236.5040,T*1D
$GPGGA,022738.40,2234.03512712,N,11431.92536200,E,4,19,0.9,3.3707,M,-1.3415,M,01,0000*77
$GPRMC,022738.40,A,2234.03512712,N,11431.92536200,E,0.130,46.7,051224,3.4,W,D*13
$GNVTG,28.820,T,32.250,M,0.00799,N,0.01480,K,D*34
$GNHDT,236.4700,T*1F
$GPGGA,022738.60,2234.03512751,N,11431.92536223,E,4,19,0.9,3.3777,M,-1.3415,M,01,0000*74
$GPRMC,022738.60,A,2234.03512751,N,11431.92536223,E,0.008,28.8,051224,3.4,W,D*1A
$GNVTG,19.962,T,23.391,M,0.02491,N,0.04614,K,D*3E
$GNHDT,236.6418,T*17
$GPGGA,022738.80,2234.03512882,N,11431.92536274,E,4,19,0.9,3.3757,M,-1.3415,M,00,0000*7A
$GPRMC,022738.80,A,2234.03512882,N,11431.92536274,E,0.025,20.0,051224,3.4,W,D*18
$GNVTG,307.589,T,311.019,M,0.12778,N,0.23665,K,D*3C
$GNHDT,236.0964,T*17
$GPGGA,022739.00,2234.03513316,N,11431.92535666,E,4,19,0.9,3.3716,M,-1.3415,M,01,0000*74
$GPRMC,022739.00,A,2234.03513316,N,11431.92535666,E,0.128,307.6,051224,3.4,W,D*2E
$GNVTG,150.938,T,154.368,M,0.09333,N,0.17285,K,D*30
$GNHDT,236.2303,T*1E
$GPGGA,022739.20,2234.03512862,N,11431.92535938,E,4,20,0.8,3.3802,M,-1.3415,M,01,0000*7A
$GPRMC,022739.20,A,2234.03512862,N,11431.92535938,E,0.093,150.9,051224,3.4,W,D*2F
$GNVTG,273.642,T,277.072,M,0.06846,N,0.12679,K,D*3E
$GNHDT,236.1601,T*1A
$GPGGA,022739.40,2234.03512886,N,11431.92535528,E,4,20,0.8,3.3970,M,-1.3415,M,01,0000*7F
$GPRMC,022739.40,A,2234.03512886,N,11431.92535528,E,0.068,273.6,051224,3.4,W,D*27
$GNVTG,100.763,T,104.192,M,0.04835,N,0.08954,K,D*3E
$GNHDT,236.1941,T*11
$GPGGA,022739.60,2234.03512835,N,11431.92535813,E,4,20,0.8,3.3907,M,-1.3415,M,00,0000*71
$GPRMC,022739.60,A,2234.03512835,N,11431.92535813,E,0.048,100.8,051224,3.4,W,D*23
$GNVTG,112.979,T,116.409,M,0.06105,N,0.11307,K,D*30
$GNHDT,236.4580,T*15
$GPGGA,022739.80,2234.03512703,N,11431.92536151,E,4,20,0.8,3.3965,M,-1.3415,M,00,0000*7D
$GPRMC,022739.80,A,2234.03512703,N,11431.92536151,E,0.061,113.0,051224,3.4,W,D*2A
$GNVTG,300.992,T,304.422,M,0.01343,N,0.02488,K,D*39
$GNHDT,236.1471,T*1F
$GPGGA,022740.00,2234.03512741,N,11431.92536082,E,4,20,0.8,3.3952,M,-1.3415,M,01,0000*77
$GPRMC,022740.00,A,2234.03512741,N,11431.92536082,E,0.013,301.0,051224,3.4,W,D*21
$GNVTG,31.936,T,35.366,M,0.10608,N,0.19646,K,D*30
$GNHDT,236.2715,T*1D
$GPGGA,022740.20,2234.03513243,N,11431.92536418,E,4,20,0.8,3.3542,M,-1.3415,M,01,0000*79
$GPRMC,022740.20,A,2234.03513243,N,11431.92536418,E,0.106,31.9,051224,3.4,W,D*1E
$GNVTG,158.774,T,162.203,M,0.03092,N,0.05727,K,D*3B
$GNHDT,236.4405,T*19
$GPGGA,022740.40,2234.03513082,N,11431.92536486,E,4,20,0.8,3.3489,M,-1.3415,M,01,0000*71
$GPRMC,022740.40,A,2234.03513082,N,11431.92536486,E,0.031,158.8,051224,3.4,W,D*2A
$GNVTG,306.607,T,310.036,M,0.01983,N,0.03673,K,D*39
$GNHDT,236.1483,T*12
$GPGGA,022740.60,2234.03513148,N,11431.92536390,E,4,20,0.8,3.3531,M,-1.3415,M,01,0000*76
$GPRMC,022740.60,A,2234.03513148,N,11431.92536390,E,0.020,306.6,051224,3.4,W,D*28
$GNVTG,261.139,T,264.569,M,0.08139,N,0.15074,K,D*38
$GNHDT,236.1172,T*19
$GPGGA,022740.80,2234.03513078,N,11431.92535907,E,4,20,0.8,3.3704,M,-1.3415,M,01,0000*79
$GPRMC,022740.80,A,2234.03513078,N,11431.92535907,E,0.081,261.1,051224,3.4,W,D*2F
$GNVTG,333.744,T,337.174,M,0.05641,N,0.10448,K,D*36
$GNHDT,236.0326,T*1B
$GPGGA,022741.00,2234.03513360,N,11431.92535757,E,4,20,0.8,3.3740,M,-1.3415,M,02,0000*72
$GPRMC,022741.00,A,2234.03513360,N,11431.92535757,E,0.056,333.7,051224,3.4,W,D*2D
$GNVTG,159.776,T,163.206,M,0.06878,N,0.12739,K,D*3C
$GNHDT,236.4050,T*1D
$GPGGA,022741.20,2234.03513001,N,11431.92535900,E,4,20,0.8,3.3827,M,-1.3415,M,02,0000*76
$GPRMC,022741.20,A,2234.03513001,N,11431.92535900,E,0.069,159.8,051224,3.4,W,D*2A
$GNVTG,282.460,T,285.889,M,0.06458,N,0.11960,K,D*34
$GNHDT,236.2743,T*1E
$GPGGA,022741.40,2234.03513078,N,11431.92535522,E,4,20,0.8,3.3885,M,-1.3415,M,02,0000*7A
$GPRMC,022741.40,A,2234.03513078,N,11431.92535522,E,0.065,282.5,051224,3.4,W,D*2A
$GNVTG,97.057,T,100.487,M,0.05809,N,0.10759,K,D*00
$GNHDT,235.9707,T*16
$GPGGA,022741.60,2234.03513039,N,11431.92535868,E,4,20,0.8,3.3975,M,-1.3415,M,00,0000*72
$GPRMC,022741.60,A,2234.03513039,N,11431.92535868,E,0.058,97.1,051224,3.4,W,D*12
$GNVTG,172.606,T,176.036,M,0.09134,N,0.16916,K,D*3F
$GNHDT,236.4272,T*1F
$GPGGA,022741.80,2234.03512534,N,11431.92535938,E,4,20,0.8,3.3975,M,-1.3415,M,00,0000*71
$GPRMC,022741.80,A,2234.03512534,N,11431.92535938,E,0.091,172.6,051224,3.4,W,D*29
$GNVTG,176.954,T,180.384,M,0.03365,N,0.06232,K,D*30
$GNHDT,236.7983,T*19
$GPGGA,022742.00,2234.03512346,N,11431.92535949,E,4,20,0.8,3.3994,M,-1.3415,M,01,0000*71
$GPRMC,022742.00,A,2234.03512346,N,11431.92535949,E,0.034,177.0,051224,3.4,W,D*2B
$GNVTG,265.914,T,269.344,M,0.05636,N,0.10438,K,D*33
$GNHDT,236.2900,T*17
$GPGGA,022742.20,2234.03512324,N,11431.92535612,E,4,20,0.8,3.3846,M,-1.3415,M,01,0000*78
$GPRMC,022742.20,A,2234.03512324,N,11431.92535612,E,0.056,265.9,051224,3.4,W,D*21
$GNVTG,95.882,T,99.312,M,0.05554,N,0.10287,K,D*3B
$GNHDT,236.3801,T*16
$GPGGA,022742.40,2234.03512292,N,11431.92535943,E,4,20,0.8,3.3529,M,-1.3415,M,01,0000*7D
$GPRMC,022742.40,A,2234.03512292,N,11431.92535943,E,0.056,95.9,051224,3.4,W,D*1D
$GNVTG,288.232,T,291.662,M,0.08656,N,0.16030,K,D*38
$GNHDT,236.1435,T*1F
$GPGGA,022742.60,2234.03512443,N,11431.92535450,E,4,20,0.8,3.3370,M,-1.3415,M,00,0000*71
$GPRMC,022742.60,A,2234.03512443,N,11431.92535450,E,0.087,288.2,051224,3.4,W,D*23
$GNVTG,172.924,T,176.354,M,0.14259,N,0.26408,K,D*32
$GNHDT,236.5328,T*10
$GPGGA,022742.80,2234.03511654,N,11431.92535555,E,4,20,0.8,3.3708,M,-1.3415,M,00,0000*77
$GPRMC,022742.80,A,2234.03511654,N,11431.92535555,E,0.143,172.9,051224,3.4,W,D*2A
$GNVTG,298.044,T,301.474,M,0.06236,N,0.11550,K,D*3F
$GNHDT,236.0067,T*1D
$GPGGA,022743.00,2234.03511818,N,11431.92535225,E,4,20,0.8,3.3603,M,-1.3415,M,01,0000*73
$GPRMC,022743.00,A,2234.03511818,N,11431.92535225,E,0.062,298.0,051224,3.4,W,D*29
$GNVTG,193.597,T,197.027,M,0.09366,N,0.17345,K,D*3C
$GNHDT,236.2699,T*18
$GPGGA,022743.20,2234.03511310,N,11431.92535093,E,4,20,0.8,3.3811,M,-1.3415,M,01,0000*70
$GPRMC,022743.20,A,2234.03511310,N,11431.92535093,E,0.094,193.6,051224,3.4,W,D*20
$GNVTG,125.313,T,128.743,M,0.04294,N,0.07952,K,D*36
$GNHDT,235.9375,T*17
$GPGGA,022743.40,2234.03511172,N,11431.92535303,E,4,20,0.8,3.3902,M,-1.3415,M,01,0000*79
$GPRMC,022743.40,A,2234.03511172,N,11431.92535303,E,0.043,125.3,051224,3.4,W,D*28
$GNVTG,117.148,T,120.577,M,0.03913,N,0.07247,K,D*3A
$GNHDT,236.1634,T*1C
$GPGGA,022743.60,2234.03511072,N,11431.92535512,E,4,19,0.9,3.3816,M,-1.3415,M,01,0000*73
$GPRMC,022743.60,A,2234.03511072,N,11431.92535512,E,0.039,117.1,051224,3.4,W,D*23
$GNVTG,151.928,T,155.358,M,0.06204,N,0.11490,K,D*3C
$GNHDT,235.9603,T*13
$GPGGA,022743.80,2234.03510767,N,11431.92535687,E,4,19,0.9,3.3712,M,-1.3415,M,00,0000*7A
$GPRMC,022743.80,A,2234.03510767,N,11431.92535687,E,0.062,151.9,051224,3.4,W,D*24
$GNVTG,252.276,T,255.706,M,0.07873,N,0.14580,K,D*3E
$GNHDT,236.1892,T*1E
$GPGGA,022744.00,2234.03510634,N,11431.92535237,E,4,19,0.9,3.3727,M,-1.3415,M,01,0000*7A
$GPRMC,022744.00,A,2234.03510634,N,11431.92535237,E,0.079,252.3,051224,3.4,W,D*23
$GNVTG,56.523,T,59.953,M,0.33441,N,0.61932,K,D*32
$GNHDT,229.4455,T*12
$GPGGA,022744.20,2234.03511662,N,11431.92536911,E,4,14,1.0,3.2374,M,-1.3415,M,01,0000*70
$GPRMC,022744.20,A,2234.03511662,N,11431.92536911,E,0.334,56.5,051224,3.4,W,D*15
$GNVTG,144.889,T,148.319,M,0.38362,N,0.71046,K,D*3E
$GNHDT,235.8910,T*1F
$GPGGA,022744.40,2234.03509912,N,11431.92538236,E,4,17,0.9,3.2588,M,-1.3415,M,01,0000*79
$GPRMC,022744.40,A,2234.03509912,N,11431.92538236,E,0.384,144.9,051224,3.4,W,D*27
$GNVTG,260.566,T,263.996,M,0.07980,N,0.14779,K,D*32
$GNHDT,235.6692,T*14
$GPGGA,022744.60,2234.03509840,N,11431.92537763,E,4,18,0.9,3.2795,M,-1.3415,M,00,0000*77
$GPRMC,022744.60,A,2234.03509840,N,11431.92537763,E,0.080,260.6,051224,3.4,W,D*24
$GNVTG,163.240,T,166.670,M,0.08144,N,0.15083,K,D*3C
$GPHDT,,T*1B
$GPGGA,022744.80,2234.03509405,N,11431.92537904,E,4,19,0.8,3.2978,M,-1.3415,M,00,0000*76
$GPRMC,022744.80,A,2234.03509405,N,11431.92537904,E,0.081,163.2,051224,3.4,W,D*2D
$GNVTG,305.703,T,309.133,M,0.01745,N,0.03231,K,D*35
$GPHDT,,T*1B
$GPGGA,022745.00,2234.03509462,N,11431.92537819,E,4,20,0.8,3.2797,M,-1.3415,M,01,0000*77
$GPRMC,022745.00,A,2234.03509462,N,11431.92537819,E,0.017,305.7,051224,3.4,W,D*20
$GNVTG,270.135,T,273.564,M,0.54744,N,1.01386,K,D*30
$GPHDT,,T*1B
$GPGGA,022745.20,2234.03509469,N,11431.92534533,E,4,20,0.8,3.3690,M,-1.3415,M,01,0000*7F
$GPRMC,022745.20,A,2234.03509469,N,11431.92534533,E,0.547,270.1,051224,3.4,W,D*2A
$GNVTG,90.986,T,94.416,M,0.02303,N,0.04266,K,D*3C
$GNHDT,236.6266,T*18
$GPGGA,022745.40,2234.03509466,N,11431.92534671,E,4,20,0.8,3.3722,M,-1.3415,M,01,0000*7B
$GPRMC,022745.40,A,2234.03509466,N,11431.92534671,E,0.023,91.0,051224,3.4,W,D*1D
$GNVTG,195.581,T,199.011,M,0.01887,N,0.03494,K,D*34
$GNHDT,236.8340,T*13
$GPGGA,022745.60,2234.03509365,N,11431.92534641,E,4,20,0.8,3.3656,M,-1.3415,M,00,0000*7D
$GPRMC,022745.60,A,2234.03509365,N,11431.92534641,E,0.019,195.6,051224,3.4,W,D*22
$GNVTG,226.223,T,229.653,M,0.04804,N,0.08897,K,D*32
$GNHDT,235.5983,T*18
$GPGGA,022745.80,2234.03509180,N,11431.92534433,E,4,20,0.8,3.3620,M,-1.3415,M,00,0000*7C
$GPRMC,022745.80,A,2234.03509180,N,11431.92534433,E,0.048,226.2,051224,3.4,W,D*29
$GNVTG,154.412,T,157.842,M,0.06149,N,0.11387,K,D*34
$GNHDT,236.2657,T*1A
$GPGGA,022746.00,2234.03508871,N,11431.92534592,E,4,20,0.8,3.3772,M,-1.3415,M,01,0000*7C
$GPRMC,022746.00,A,2234.03508871,N,11431.92534592,E,0.061,154.4,051224,3.4,W,D*25
$GNVTG,219.663,T,223.093,M,0.06690,N,0.12390,K,D*38
$GNHDT,235.4695,T*11
$GPGGA,022746.20,2234.03508584,N,11431.92534336,E,4,20,0.8,3.3323,M,-1.3415,M,01,0000*71
$GPRMC,022746.20,A,2234.03508584,N,11431.92534336,E,0.067,219.7,051224,3.4,W,D*27
$GNVTG,50.752,T,54.182,M,0.01384,N,0.02563,K,D*3B
$GNHDT,235.5501,T*1E
$GPGGA,022746.40,2234.03508632,N,11431.92534400,E,4,21,0.7,3.3380,M,-1.3415,M,01,0000*7C
$GPRMC,022746.40,A,2234.03508632,N,11431.92534400,E,0.014,50.8,051224,3.4,W,D*19
$GNVTG,170.821,T,174.250,M,0.07107,N,0.13163,K,D*37
$GNHDT,235.3372,T*1A
$GPGGA,022746.60,2234.03508241,N,11431.92534468,E,4,21,0.7,3.3485,M,-1.3415,M,00,0000*73
$GPRMC,022746.60,A,2234.03508241,N,11431.92534468,E,0.071,170.8,051224,3.4,W,D*25
$GNVTG,262.008,T,265.438,M,0.08165,N,0.15122,K,D*37
$GNHDT,235.4513,T*1C
$GPGGA,022746.80,2234.03508178,N,11431.92533983,E,4,21,0.7,3.3712,M,-1.3415,M,00,0000*76
$GPRMC,022746.80,A,2234.03508178,N,11431.92533983,E,0.082,262.0,051224,3.4,W,D*29
$GNVTG,129.440,T,132.870,M,0.04996,N,0.09253,K,D*32
$GNHDT,235.4888,T*13
$GPGGA,022747.00,2234.03508001,N,11431.92534215,E,4,21,0.7,3.3727,M,-1.3415,M,01,0000*74
$GPRMC,022747.00,A,2234.03508001,N,11431.92534215,E,0.050,129.4,051224,3.4,W,D*2B
$GNVTG,326.727,T,330.156,M,0.06835,N,0.12657,K,D*30
$GNHDT,235.4214,T*1C
$GPGGA,022747.20,2234.03508320,N,11431.92533989,E,4,21,0.7,3.3635,M,-1.3415,M,01,0000*7D
$GPRMC,022747.20,A,2234.03508320,N,11431.92533989,E,0.068,326.7,051224,3.4,W,D*25
$GNVTG,275.539,T,278.969,M,0.01231,N,0.02280,K,D*35
$GNHDT,234.9109,T*1F
$GPGGA,022747.40,2234.03508326,N,11431.92533916,E,4,21,0.7,3.3602,M,-1.3415,M,01,0000*7F
$GPRMC,022747.40,A,2234.03508326,N,11431.92533916,E,0.012,275.5,051224,3.4,W,D*2B
$GNVTG,181.076,T,184.506,M,0.02902,N,0.05375,K,D*32
$GNHDT,235.3111,T*1D
$GPGGA,022747.60,2234.03508164,N,11431.92533913,E,4,21,0.7,3.3635,M,-1.3415,M,00,0000*79
$GPRMC,022747.60,A,2234.03508164,N,11431.92533913,E,0.029,181.1,051224,3.4,W,D*2C
$GNVTG,123.505,T,126.935,M,0.05667,N,0.10496,K,D*3A
$GNHDT,235.1384,T*11
$GPGGA,022747.80,2234.03507990,N,11431.92534196,E,4,21,0.7,3.3537,M,-1.3415,M,00,0000*78
$GPRMC,022747.80,A,2234.03507990,N,11431.92534196,E,0.057,123.5,051224,3.4,W,D*29
$GNVTG,257.914,T,261.343,M,0.11803,N,0.21859,K,D*39
$GNHDT,234.9724,T*16
$GPGGA,022748.00,2234.03507852,N,11431.92533504,E,4,21,0.7,3.3619,M,-1.3415,M,01,0000*76
$GPRMC,022748.00,A,2234.03507852,N,11431.92533504,E,0.118,257.9,051224,3.4,W,D*2F
$GNVTG,338.055,T,341.485,M,0.04079,N,0.07554,K,D*36
$GNHDT,234.8273,T*10
$GPGGA,022748.20,2234.03508063,N,11431.92533412,E,4,21,0.7,3.3668,M,-1.3415,M,01,0000*71
$GPRMC,022748.20,A,2234.03508063,N,11431.92533412,E,0.041,338.1,051224,3.4,W,D*23
$GNVTG,47.669,T,51.099,M,0.10172,N,0.18839,K,D*38
$GNHDT,234.9936,T*1B
$GPGGA,022748.40,2234.03508445,N,11431.92533863,E,4,21,0.7,3.3601,M,-1.3415,M,01,0000*72
$GPRMC,022748.40,A,2234.03508445,N,11431.92533863,E,0.102,47.7,051224,3.4,W,D*14
$GNVTG,239.891,T,243.320,M,0.02973,N,0.05506,K,D*3D
$GNHDT,235.0049,T*12
$GPGGA,022748.60,2234.03508362,N,11431.92533709,E,4,21,0.7,3.3666,M,-1.3415,M,00,0000*71
$GPRMC,022748.60,A,2234.03508362,N,11431.92533709,E,0.030,239.9,051224,3.4,W,D*22
$GNVTG,199.309,T,202.739,M,0.06339,N,0.11739,K,D*3C
$GNHDT,234.7597,T*12
$GPGGA,022748.80,2234.03508028,N,11431.92533583,E,4,20,0.8,3.3889,M,-1.3415,M,00,0000*73
$GPRMC,022748.80,A,2234.03508028,N,11431.92533583,E,0.063,199.3,051224,3.4,W,D*24
$GNVTG,247.079,T,250.508,M,0.01689,N,0.03129,K,D*32
$GNHDT,234.8075,T*14
$GPGGA,022749.00,2234.03507992,N,11431.92533490,E,4,20,0.7,3.3914,M,-1.3415,M,01,0000*75
$GPRMC,022749.00,A,2234.03507992,N,11431.92533490,E,0.017,247.1,051224,3.4,W,D*28
$GNVTG,224.900,T,228.330,M,0.03346,N,0.06197,K,D*36
$GNHDT,234.5259,T*15
$GPGGA,022749.20,2234.03507860,N,11431.92533348,E,4,19,0.8,3.3916,M,-1.3415,M,01,0000*7E
$GPRMC,022749.20,A,2234.03507860,N,11431.92533348,E,0.033,224.9,051224,3.4,W,D*2F
$GNVTG,175.257,T,178.686,M,0.01278,N,0.02367,K,D*31
$GNHDT,234.6820,T*12
$GPGGA,022749.40,2234.03507789,N,11431.92533354,E,4,21,0.7,3.3894,M,-1.3415,M,01,0000*72
$GPRMC,022749.40,A,2234.03507789,N,11431.92533354,E,0.013,175.3,051224,3.4,W,D*23
$GNVTG,195.903,T,199.333,M,0.05302,N,0.09820,K,D*3A
$GNHDT,234.5552,T*19
$GPGGA,022749.60,2234.03507504,N,11431.92533267,E,4,21,0.7,3.3897,M,-1.3415,M,00,0000*74
$GPRMC,022749.60,A,2234.03507504,N,11431.92533267,E,0.053,195.9,051224,3.4,W,D*27
$GNVTG,117.888,T,121.317,M,0.00691,N,0.01280,K,D*35
$GNHDT,234.4284,T*14
$GPGGA,022749.80,2234.03507486,N,11431.92533304,E,4,21,0.7,3.3907,M,-1.3415,M,00,0000*7D
$GPRMC,022749.80,A,2234.03507486,N,11431.92533304,E,0.007,117.9,051224,3.4,W,D*2D
$GNVTG,128.108,T,131.538,M,0.06342,N,0.11745,K,D*32
$GNHDT,234.3249,T*12
$GPGGA,022750.00,2234.03507268,N,11431.92533603,E,4,20,0.8,3.3962,M,-1.3415,M,01,0000*75
$GPRMC,022750.00,A,2234.03507268,N,11431.92533603,E,0.063,128.1,051224,3.4,W,D*2F
$GNVTG,240.983,T,244.413,M,0.05916,N,0.10957,K,D*39
$GNHDT,234.4092,T*11
$GPGGA,022750.20,2234.03507108,N,11431.92533293,E,4,19,0.8,3.4002,M,-1.3415,M,01,0000*7D
$GPRMC,022750.20,A,2234.03507108,N,11431.92533293,E,0.059,241.0,051224,3.4,W,D*21
$GNVTG,163.054,T,166.484,M,0.08578,N,0.15886,K,D*34
$GNHDT,234.5267,T*18
$GPGGA,022750.40,2234.03506651,N,11431.92533443,E,4,19,0.8,3.3909,M,-1.3415,M,01,0000*7F
$GPRMC,022750.40,A,2234.03506651,N,11431.92533443,E,0.086,163.1,051224,3.4,W,D*26
$GNVTG,287.286,T,290.716,M,0.09142,N,0.16932,K,D*33
$GNHDT,234.0643,T*1F
$GPGGA,022750.60,2234.03506802,N,11431.92532919,E,4,20,0.8,3.4135,M,-1.3415,M,00,0000*7D
$GPRMC,022750.60,A,2234.03506802,N,11431.92532919,E,0.091,287.3,051224,3.4,W,D*22
$GNVTG,171.655,T,175.085,M,0.02145,N,0.03973,K,D*3B
$GNHDT,234.1737,T*1C
$GPGGA,022750.80,2234.03506684,N,11431.92532938,E,4,20,0.8,3.4004,M,-1.3415,M,00,0000*73
$GPRMC,022750.80,A,2234.03506684,N,11431.92532938,E,0.021,171.7,051224,3.4,W,D*2A
$GNVTG,142.739,T,146.169,M,0.05035,N,0.09325,K,D*31
$GNHDT,234.0330,T*1E
$GPGGA,022751.00,2234.03506460,N,11431.92533121,E,4,20,0.8,3.3846,M,-1.3415,M,01,0000*7B
$GPRMC,022751.00,A,2234.03506460,N,11431.92533121,E,0.050,142.7,051224,3.4,W,D*2C
$GNVTG,262.826,T,266.255,M,0.06958,N,0.12886,K,D*35
$GNHDT,234.1736,T*1D
$GPGGA,022751.20,2234.03506412,N,11431.92532706,E,4,20,0.8,3.4065,M,-1.3415,M,01,0000*70
$GPRMC,022751.20,A,2234.03506412,N,11431.92532706,E,0.070,262.8,051224,3.4,W,D*25
$GNVTG,109.257,T,112.687,M,0.08130,N,0.15057,K,D*37
$GNHDT,233.6136,T*1B
$GPGGA,022751.40,2234.03506263,N,11431.92533167,E,4,20,0.8,3.3850,M,-1.3415,M,01,0000*7F
$GPRMC,022751.40,A,2234.03506263,N,11431.92533167,E,0.081,109.3,051224,3.4,W,D*28
$GNVTG,339.764,T,343.194,M,0.03386,N,0.06271,K,D*30
$GNHDT,233.5885,T*19
$GPGGA,022751.60,2234.03506440,N,11431.92533097,E,4,20,0.8,3.3742,M,-1.3415,M,00,0000*79
$GPRMC,022751.60,A,2234.03506440,N,11431.92533097,E,0.034,339.8,051224,3.4,W,D*27
$GNVTG,278.323,T,281.753,M,0.05693,N,0.10544,K,D*30
$GNHDT,233.1319,T*13
$GPGGA,022751.80,2234.03506486,N,11431.92532758,E,4,21,0.7,3.3897,M,-1.3415,M,00,0000*71
$GPRMC,022751.80,A,2234.03506486,N,11431.92532758,E,0.057,278.3,051224,3.4,W,D*2C
$GNVTG,130.782,T,134.212,M,0.09088,N,0.16831,K,D*34
$GNHDT,233.3315,T*1D
$GPGGA,022752.00,2234.03506155,N,11431.92533172,E,4,21,0.7,3.3908,M,-1.3415,M,01,0000*78
$GPRMC,022752.00,A,2234.03506155,N,11431.92533172,E,0.091,130.8,051224,3.4,W,D*2D
$GNVTG,280.428,T,283.858,M,0.13710,N,0.25390,K,D*39
$GNHDT,233.0084,T*15
$GPGGA,022752.20,2234.03506293,N,11431.92532362,E,4,21,0.7,3.3844,M,-1.3415,M,01,0000*78
$GPRMC,022752.20,A,2234.03506293,N,11431.92532362,E,0.137,280.4,051224,3.4,W,D*2D
$GNVTG,161.070,T,164.500,M,0.04084,N,0.07564,K,D*37
$GNHDT,233.5754,T*1A
$GPGGA,022752.40,2234.03506078,N,11431.92532442,E,4,21,0.7,3.3776,M,-1.3415,M,01,0000*72
$GPRMC,022752.40,A,2234.03506078,N,11431.92532442,E,0.041,161.1,051224,3.4,W,D*20
$GNVTG,306.684,T,310.113,M,0.03594,N,0.06657,K,D*3F
$GNHDT,233.3135,T*1D
$GPGGA,022752.60,2234.03506197,N,11431.92532269,E,4,21,0.7,3.3785,M,-1.3415,M,01,0000*73
$GPRMC,022752.60,A,2234.03506197,N,11431.92532269,E,0.036,306.7,051224,3.4,W,D*28
$GNVTG,245.766,T,249.195,M,0.04971,N,0.09206,K,D*38
$GNHDT,233.3339,T*13
$GPGGA,022752.80,2234.03506084,N,11431.92531997,E,4,21,0.7,3.3747,M,-1.3415,M,00,0000*78
$GPRMC,022752.80,A,2234.03506084,N,11431.92531997,E,0.050,245.8,051224,3.4,W,D*25
$GNVTG,285.407,T,288.837,M,0.05859,N,0.10851,K,D*36
$GNHDT,233.2111,T*1A
$GPGGA,022753.00,2234.03506170,N,11431.92531658,E,4,20,0.8,3.3930,M,-1.3415,M,01,0000*76
$GPRMC,022753.00,A,2234.03506170,N,11431.92531658,E,0.059,285.4,051224,3.4,W,D*23
$GNVTG,324.959,T,328.389,M,0.03885,N,0.07195,K,D*3F
$GNHDT,233.3608,T*14
$GPGGA,022753.20,2234.03506348,N,11431.92531524,E,4,21,0.7,3.3864,M,-1.3415,M,01,0000*7B
$GPRMC,022753.20,A,2234.03506348,N,11431.92531524,E,0.039,325.0,051224,3.4,W,D*29
$GNVTG,128.987,T,132.417,M,0.16234,N,0.30066,K,D*36
$GNHDT,233.7476,T*1B
$GPGGA,022753.40,2234.03505778,N,11431.92532281,E,4,21,0.7,3.3711,M,-1.3415,M,01,0000*7F
$GPRMC,022753.40,A,2234.03505778,N,11431.92532281,E,0.162,129.0,051224,3.4,W,D*21
$GNVTG,326.605,T,330.035,M,0.06943,N,0.12858,K,D*34
$GNHDT,233.1145,T*18
$GPGGA,022753.60,2234.03506101,N,11431.92532052,E,4,22,0.7,3.3749,M,-1.3415,M,00,0000*75
$GPRMC,022753.60,A,2234.03506101,N,11431.92532052,E,0.069,326.6,051224,3.4,W,D*25
$GNVTG,245.815,T,249.245,M,0.06302,N,0.11672,K,D*3F
$GNHDT,233.3099,T*1A
$GPGGA,022753.80,2234.03505957,N,11431.92531707,E,4,22,0.7,3.3800,M,-1.3415,M,00,0000*75
$GPRMC,022753.80,A,2234.03505957,N,11431.92531707,E,0.063,245.8,051224,3.4,W,D*27
$GNVTG,82.184,T,85.614,M,0.07792,N,0.14430,K,D*38
$GNHDT,233.4915,T*10
$GPGGA,022754.00,2234.03506017,N,11431.92532170,E,4,22,0.7,3.3644,M,-1.3415,M,01,0000*7E
$GPRMC,022754.00,A,2234.03506017,N,11431.92532170,E,0.078,82.2,051224,3.4,W,D*1A
$GNVTG,312.640,T,316.070,M,0.08149,N,0.15092,K,D*32
$GNHDT,232.9704,T*12
$GPGGA,022754.20,2234.03506324,N,11431.92531810,E,4,22,0.7,3.3619,M,-1.3415,M,01,0000*7B
$GPRMC,022754.20,A,2234.03506324,N,11431.92531810,E,0.081,312.6,051224,3.4,W,D*2F
$GNVTG,222.529,T,225.959,M,0.10792,N,0.19986,K,D*36
$GNHDT,233.4176,T*1D
$GPGGA,022754.40,2234.03505881,N,11431.92531372,E,4,22,0.7,3.3666,M,-1.3415,M,01,0000*7D
$GPRMC,022754.40,A,2234.03505881,N,11431.92531372,E,0.108,222.5,051224,3.4,W,D*20
$GNVTG,71.484,T,74.914,M,0.04046,N,0.07494,K,D*31
$GNHDT,233.0990,T*19
$GPGGA,022754.60,2234.03505953,N,11431.92531603,E,4,22,0.7,3.3671,M,-1.3415,M,01,0000*74
$GPRMC,022754.60,A,2234.03505953,N,11431.92531603,E,0.040,71.5,051224,3.4,W,D*16
$GNVTG,218.813,T,222.242,M,0.01869,N,0.03462,K,D*3A
$GNHDT,233.1505,T*18
$GPGGA,022754.80,2234.03505871,N,11431.92531532,E,4,22,0.7,3.3709,M,-1.3415,M,00,0000*75
$GPRMC,022754.80,A,2234.03505871,N,11431.92531532,E,0.019,218.8,051224,3.4,W,D*24
$GNVTG,120.863,T,124.293,M,0.04081,N,0.07559,K,D*3A
$GNHDT,233.2325,T*1F
$GPGGA,022755.00,2234.03505755,N,11431.92531743,E,4,22,0.7,3.3882,M,-1.3415,M,01,0000*7C
$GPRMC,022755.00,A,2234.03505755,N,11431.92531743,E,0.041,120.9,051224,3.4,W,D*24
$GNVTG,55.025,T,58.455,M,0.06911,N,0.12799,K,D*3D
$GNHDT,233.1774,T*1C
$GPGGA,022755.20,2234.03505975,N,11431.92532083,E,4,22,0.7,3.3955,M,-1.3415,M,01,0000*71
$GPRMC,022755.20,A,2234.03505975,N,11431.92532083,E,0.069,55.0,051224,3.4,W,D*12
$GNVTG,96.803,T,100.232,M,0.05533,N,0.10248,K,D*01
$GNHDT,233.2523,T*1F
$GPGGA,022755.40,2234.03505939,N,11431.92532412,E,4,22,0.7,3.3784,M,-1.3415,M,01,0000*71
$GPRMC,022755.40,A,2234.03505939,N,11431.92532412,E,0.055,96.8,051224,3.4,W,D*18
$GNVTG,269.962,T,273.392,M,0.02214,N,0.04101,K,D*37
$GNHDT,233.0496,T*12
$GPGGA,022755.60,2234.03505939,N,11431.92532279,E,4,22,0.7,3.3857,M,-1.3415,M,01,0000*79
$GPRMC,022755.60,A,2234.03505939,N,11431.92532279,E,0.022,270.0,051224,3.4,W,D*23
$GNVTG,81.549,T,84.979,M,0.08171,N,0.15132,K,D*39
$GNHDT,233.5103,T*1E
$GPGGA,022755.80,2234.03506006,N,11431.92532765,E,4,22,0.7,3.3626,M,-1.3415,M,00,0000*70
$GPRMC,022755.80,A,2234.03506006,N,11431.92532765,E,0.082,81.5,051224,3.4,W,D*10
$GNVTG,255.918,T,259.347,M,0.09746,N,0.18050,K,D*34
$GNHDT,233.0576,T*1D
$GPGGA,022756.00,2234.03505874,N,11431.92532197,E,4,22,0.7,3.3898,M,-1.3415,M,01,0000*74
$GPRMC,022756.00,A,2234.03505874,N,11431.92532197,E,0.097,255.9,051224,3.4,W,D*2D
$GNVTG,114.871,T,118.301,M,0.05901,N,0.10929,K,D*36
$GNHDT,233.2766,T*1C
$GPGGA,022756.20,2234.03505735,N,11431.92532518,E,4,22,0.7,3.3856,M,-1.3415,M,01,0000*7D
$GPRMC,022756.20,A,2234.03505735,N,11431.92532518,E,0.059,114.9,051224,3.4,W,D*22
$GNVTG,15.189,T,18.619,M,0.02876,N,0.05327,K,D*33
$GNHDT,233.0082,T*13
$GPGGA,022756.40,2234.03505890,N,11431.92532564,E,4,22,0.7,3.3954,M,-1.3415,M,01,0000*73
$GPRMC,022756.40,A,2234.03505890,N,11431.92532564,E,0.029,15.2,051224,3.4,W,D*13
$GNVTG,153.355,T,156.785,M,0.09387,N,0.17386,K,D*3A
$GNHDT,233.1422,T*1C
$GPGGA,022756.60,2234.03505422,N,11431.92532816,E,4,22,0.7,3.4023,M,-1.3415,M,01,0000*72
$GPRMC,022756.60,A,2234.03505422,N,11431.92532816,E,0.094,153.4,051224,3.4,W,D*2F
$GNVTG,121.587,T,125.017,M,0.07761,N,0.14374,K,D*32
$GNHDT,233.4197,T*12
$GPGGA,022756.80,2234.03505196,N,11431.92533213,E,4,22,0.7,3.4040,M,-1.3415,M,00,0000*7C
$GPRMC,022756.80,A,2234.03505196,N,11431.92533213,E,0.078,121.6,051224,3.4,W,D*20
$GNVTG,344.746,T,348.176,M,0.02993,N,0.05543,K,D*37
$GNHDT,233.2795,T*10
$GPGGA,022757.00,2234.03505357,N,11431.92533166,E,4,22,0.7,3.3861,M,-1.3415,M,01,0000*76
$GPRMC,022757.00,A,2234.03505357,N,11431.92533166,E,0.030,344.7,051224,3.4,W,D*2B
$GNVTG,291.517,T,294.947,M,0.07936,N,0.14697,K,D*32
$GNHDT,232.9270,T*14
$GPGGA,022757.20,2234.03505519,N,11431.92532723,E,4,22,0.7,3.4078,M,-1.3415,M,01,0000*79
$GPRMC,022757.20,A,2234.03505519,N,11431.92532723,E,0.079,291.5,051224,3.4,W,D*25
$GNVTG,3.941,T,7.371,M,0.10413,N,0.19285,K,D*35
$GNHDT,233.0529,T*17
$GPGGA,022757.40,2234.03506098,N,11431.92532766,E,4,21,0.7,3.4027,M,-1.3415,M,01,0000*78
$GPRMC,022757.40,A,2234.03506098,N,11431.92532766,E,0.104,3.9,051224,3.4,W,D*23
$GNVTG,219.463,T,222.893,M,0.04352,N,0.08061,K,D*3C
$GNHDT,233.4891,T*1D
$GPGGA,022757.60,2234.03505911,N,11431.92532600,E,4,21,0.7,3.4163,M,-1.3415,M,00,0000*70
$GPRMC,022757.60,A,2234.03505911,N,11431.92532600,E,0.044,219.5,051224,3.4,W,D*2B
$GNVTG,347.012,T,350.441,M,0.04013,N,0.07432,K,D*38
$GNHDT,233.3956,T*10
$GPGGA,022757.80,2234.03506129,N,11431.92532546,E,4,22,0.7,3.4136,M,-1.3415,M,00,0000*7C
$GPRMC,022757.80,A,2234.03506129,N,11431.92532546,E,0.040,347.0,051224,3.4,W,D*2F
$GNVTG,168.297,T,171.726,M,0.08059,N,0.14926,K,D*33
$GNHDT,233.5645,T*1B
$GPGGA,022758.00,2234.03505689,N,11431.92532644,E,4,22,0.7,3.4280,M,-1.3415,M,01,0000*7B
$GPRMC,022758.00,A,2234.03505689,N,11431.92532644,E,0.081,168.3,051224,3.4,W,D*26
$GNVTG,287.723,T,291.152,M,0.04040,N,0.07483,K,D*37
$GNHDT,233.2671,T*1B
$GPGGA,022758.20,2234.03505757,N,11431.92532413,E,4,22,0.7,3.4303,M,-1.3415,M,01,0000*71
$GPRMC,022758.20,A,2234.03505757,N,11431.92532413,E,0.040,287.7,051224,3.4,W,D*2D
$GNVTG,73.914,T,77.344,M,0.06735,N,0.12473,K,D*37
$GNHDT,233.1924,T*17
$GPGGA,022758.40,2234.03505861,N,11431.92532801,E,4,22,0.7,3.4057,M,-1.3415,M,01,0000*70
$GPRMC,022758.40,A,2234.03505861,N,11431.92532801,E,0.067,73.9,051224,3.4,W,D*1C
$GNVTG,221.767,T,225.197,M,0.07321,N,0.13559,K,D*39
$GNHDT,233.1312,T*18
$GPGGA,022758.60,2234.03505557,N,11431.92532508,E,4,23,0.6,3.4114,M,-1.3415,M,01,0000*78
$GPRMC,022758.60,A,2234.03505557,N,11431.92532508,E,0.073,221.8,051224,3.4,W,D*23
$GNVTG,26.353,T,29.783,M,0.08251,N,0.15282,K,D*3C
$GNHDT,233.1850,T*15
$GPGGA,022758.80,2234.03505969,N,11431.92532728,E,4,23,0.6,3.4243,M,-1.3415,M,00,0000*77
$GPRMC,022758.80,A,2234.03505969,N,11431.92532728,E,0.083,26.4,051224,3.4,W,D*1A
$GNVTG,201.884,T,205.314,M,0.07648,N,0.14165,K,D*34
$GNHDT,233.2327,T*1D
$GPGGA,022759.00,2234.03505573,N,11431.92532557,E,4,23,0.6,3.4068,M,-1.3415,M,01,0000*79
$GPRMC,022759.00,A,2234.03505573,N,11431.92532557,E,0.076,201.9,051224,3.4,W,D*2E
$GNVTG,292.580,T,296.009,M,0.03322,N,0.06152,K,D*38
$GNHDT,233.3148,T*17
$GPGGA,022759.20,2234.03505645,N,11431.92532373,E,4,23,0.6,3.4135,M,-1.3415,M,01,0000*74
$GPRMC,022759.20,A,2234.03505645,N,11431.92532373,E,0.033,292.6,051224,3.4,W,D*2E
$GNVTG,135.324,T,138.753,M,0.12956,N,0.23994,K,D*3D
$GNHDT,233.4987,T*1B
$GPGGA,022759.40,2234.03505131,N,11431.92532920,E,4,23,0.6,3.3938,M,-1.3415,M,01,0000*78
$GPRMC,022759.40,A,2234.03505131,N,11431.92532920,E,0.130,135.3,051224,3.4,W,D*29
$GNVTG,347.470,T,350.900,M,0.04499,N,0.08332,K,D*3E
$GNHDT,233.2122,T*1A
$GPGGA,022759.60,2234.03505376,N,11431.92532861,E,4,23,0.6,3.3874,M,-1.3415,M,01,0000*76
$GPRMC,022759.60,A,2234.03505376,N,11431.92532861,E,0.045,347.5,051224,3.4,W,D*2C
$GNVTG,212.722,T,216.151,M,0.07643,N,0.14154,K,D*3D
$GNHDT,233.1736,T*1A
$GPGGA,022759.80,2234.03505017,N,11431.92532613,E,4,23,0.6,3.4048,M,-1.3415,M,00,0000*76
$GPRMC,022759.80,A,2234.03505017,N,11431.92532613,E,0.076,212.7,051224,3.4,W,D*2E
$GNVTG,269.555,T,272.985,M,0.03142,N,0.05820,K,D*38
$GNHDT,233.2851,T*17
$GPGGA,022800.00,2234.03505016,N,11431.92532425,E,4,23,0.6,3.4052,M,-1.3415,M,01,0000*71
$GPRMC,022800.00,A,2234.03505016,N,11431.92532425,E,0.031,269.6,051224,3.4,W,D*2D
$GNVTG,327.756,T,331.186,M,0.10476,N,0.19401,K,D*3D
$GNHDT,232.9737,T*12
$GPGGA,022800.20,2234.03505510,N,11431.92532089,E,4,23,0.6,3.3989,M,-1.3415,M,01,0000*7A
$GPRMC,022800.20,A,2234.03505510,N,11431.92532089,E,0.105,327.8,051224,3.4,W,D*2D
$GNVTG,265.617,T,269.047,M,0.06221,N,0.11521,K,D*36
$GNHDT,232.7171,T*18
$GPGGA,022800.40,2234.03505483,N,11431.92531717,E,4,23,0.6,3.3950,M,-1.3415,M,01,0000*70
$GPRMC,022800.40,A,2234.03505483,N,11431.92531717,E,0.062,265.6,051224,3.4,W,D*2A
$GNVTG,48.905,T,52.335,M,0.07110,N,0.13168,K,D*30
$GNHDT,233.0756,T*1D
$GPGGA,022800.60,2234.03505744,N,11431.92532038,E,4,23,0.6,3.3922,M,-1.3415,M,01,0000*76
$GPRMC,022800.60,A,2234.03505744,N,11431.92532038,E,0.071,48.9,051224,3.4,W,D*19
$GNVTG,290.865,T,294.294,M,0.08162,N,0.15115,K,D*34
$GNHDT,232.7737,T*1C
$GPGGA,022800.80,2234.03505906,N,11431.92531581,E,4,23,0.6,3.3928,M,-1.3415,M,01,0000*7E
$GPRMC,022800.80,A,2234.03505906,N,11431.92531581,E,0.082,290.9,051224,3.4,W,D*20
$GNVTG,108.350,T,111.780,M,0.10041,N,0.18595,K,D*3D
$GNHDT,233.0228,T*11
$GPGGA,022801.00,2234.03505730,N,11431.92532153,E,4,23,0.6,3.3914,M,-1.3415,M,02,0000*78
$GPRMC,022801.00,A,2234.03505730,N,11431.92532153,E,0.100,108.4,051224,3.4,W,D*2E
$GNVTG,295.712,T,299.142,M,0.10692,N,0.19802,K,D*39
$GNHDT,233.1146,T*1B
$GPGGA,022801.20,2234.03505988,N,11431.92531575,E,4,23,0.6,3.4070,M,-1.3415,M,02,0000*78
$GPRMC,022801.20,A,2234.03505988,N,11431.92531575,E,0.107,295.7,051224,3.4,W,D*21
$GNVTG,264.739,T,268.169,M,0.03814,N,0.07064,K,D*3C
$GNHDT,233.2773,T*18
$GPGGA,022801.40,2234.03505969,N,11431.92531347,E,4,22,0.7,3.4283,M,-1.3415,M,02,0000*78
$GPRMC,022801.40,A,2234.03505969,N,11431.92531347,E,0.038,264.7,051224,3.4,W,D*2C
$GNVTG,88.875,T,92.305,M,0.03934,N,0.07286,K,D*39
$GNHDT,233.2007,T*1C
$GPGGA,022801.60,2234.03505973,N,11431.92531583,E,4,22,0.7,3.4306,M,-1.3415,M,02,0000*73
$GPRMC,022801.60,A,2234.03505973,N,11431.92531583,E,0.039,88.9,051224,3.4,W,D*14
$GNVTG,92.422,T,95.852,M,0.00913,N,0.01690,K,D*31
$GNHDT,233.4520,T*1A
$GPGGA,022801.80,2234.03505971,N,11431.92531637,E,4,22,0.7,3.4247,M,-1.3415,M,00,0000*75
$GPRMC,022801.80,A,2234.03505971,N,11431.92531637,E,0.009,92.4,051224,3.4,W,D*11
$GNVTG,14.585,T,18.015,M,0.06182,N,0.11449,K,D*3C
$GNHDT,233.3024,T*1C
$GPGGA,022802.00,2234.03506305,N,11431.92531731,E,4,22,0.7,3.4383,M,-1.3415,M,01,0000*7B
$GPRMC,022802.00,A,2234.03506305,N,11431.92531731,E,0.062,14.6,051224,3.4,W,D*16
$GNVTG,45.116,T,48.546,M,0.09856,N,0.18254,K,D*3C
$GNHDT,233.4291,T*17
$GPGGA,022802.20,2234.03506692,N,11431.92532150,E,4,22,0.7,3.4186,M,-1.3415,M,01,0000*77
$GPRMC,022802.20,A,2234.03506692,N,11431.92532150,E,0.099,45.1,051224,3.4,W,D*1A
$GNVTG,354.516,T,357.946,M,0.02932,N,0.05431,K,D*3B
$GNHDT,233.3258,T*15
$GPGGA,022802.40,2234.03506855,N,11431.92532133,E,4,21,0.7,3.3908,M,-1.3415,M,01,0000*7B
$GPRMC,022802.40,A,2234.03506855,N,11431.92532133,E,0.029,354.5,051224,3.4,W,D*20
$GNVTG,84.368,T,87.798,M,0.04847,N,0.08977,K,D*3E
$GNHDT,233.5323,T*1E
$GPGGA,022802.60,2234.03506882,N,11431.92532423,E,4,21,0.7,3.3965,M,-1.3415,M,01,0000*7C
$GPRMC,022802.60,A,2234.03506882,N,11431.92532423,E,0.048,84.4,051224,3.4,W,D*14
$GNVTG,289.930,T,293.360,M,0.06009,N,0.11129,K,D*39
$GNHDT,233.2260,T*1F
$GPGGA,022802.80,2234.03506996,N,11431.92532084,E,4,21,0.7,3.4036,M,-1.3415,M,00,0000*76
$GPRMC,022802.80,A,2234.03506996,N,11431.92532084,E,0.060,289.9,051224,3.4,W,D*2F
$GNVTG,189.394,T,192.823,M,0.08549,N,0.15832,K,D*38
$GNHDT,233.2810,T*12
$GPGGA,022803.00,2234.03506526,N,11431.92532000,E,4,20,0.7,3.4041,M,-1.3415,M,01,0000*74
$GPRMC,022803.00,A,2234.03506526,N,11431.92532000,E,0.085,189.4,051224,3.4,W,D*28
$GNVTG,36.078,T,39.508,M,0.08054,N,0.14917,K,D*36
$GNHDT,233.1849,T*1D
$GPGGA,022803.20,2234.03506888,N,11431.92532285,E,4,21,0.7,3.3970,M,-1.3415,M,01,0000*7D
$GPRMC,022803.20,A,2234.03506888,N,11431.92532285,E,0.081,36.1,051224,3.4,W,D*18
$GNVTG,67.036,T,70.466,M,0.07679,N,0.14222,K,D*37
$GNHDT,233.4877,T*15
$GPGGA,022803.40,2234.03507055,N,11431.92532709,E,4,21,0.7,3.4076,M,-1.3415,M,01,0000*7B
$GPRMC,022803.40,A,2234.03507055,N,11431.92532709,E,0.077,67.0,051224,3.4,W,D*1A
$GNVTG,354.757,T,358.186,M,0.12613,N,0.23359,K,D*37
$GNHDT,233.3844,T*12
$GPGGA,022803.60,2234.03507756,N,11431.92532640,E,4,21,0.7,3.3846,M,-1.3415,M,00,0000*7C
$GPRMC,022803.60,A,2234.03507756,N,11431.92532640,E,0.126,354.8,051224,3.4,W,D*2E
$GNVTG,36.001,T,39.431,M,0.07281,N,0.13485,K,D*37
$GNHDT,233.3762,T*19
$GPGGA,022803.80,2234.03508084,N,11431.92532897,E,4,21,0.7,3.3830,M,-1.3415,M,00,0000*70
$GPRMC,022803.80,A,2234.03508084,N,11431.92532897,E,0.073,36.0,051224,3.4,W,D*1D
$GNVTG,207.879,T,211.309,M,0.01027,N,0.01903,K,D*3C
$GNHDT,233.6659,T*15
$GPGGA,022804.00,2234.03508033,N,11431.92532868,E,4,21,0.7,3.3951,M,-1.3415,M,01,0000*74
$GPRMC,022804.00,A,2234.03508033,N,11431.92532868,E,0.010,207.9,051224,3.4,W,D*22
$GNVTG,94.779,T,98.209,M,0.03111,N,0.05761,K,D*31
$GNHDT,233.5917,T*13
$GPGGA,022804.20,2234.03508019,N,11431.92533054,E,4,21,0.7,3.3648,M,-1.3415,M,01,0000*7F
$GPRMC,022804.20,A,2234.03508019,N,11431.92533054,E,0.031,94.8,051224,3.4,W,D*14
$GNVTG,237.088,T,240.518,M,0.04396,N,0.08141,K,D*30
$GNHDT,233.4075,T*1F
$GPGGA,022804.40,2234.03507886,N,11431.92532832,E,4,21,0.7,3.3910,M,-1.3415,M,01,0000*73
$GPRMC,022804.40,A,2234.03507886,N,11431.92532832,E,0.044,237.1,051224,3.4,W,D*2A
$GNVTG,313.005,T,316.435,M,0.03258,N,0.06034,K,D*37
$GNHDT,233.6305,T*19
$GPGGA,022804.60,2234.03508010,N,11431.92532689,E,4,21,0.7,3.3940,M,-1.3415,M,01,0000*72
$GPRMC,022804.60,A,2234.03508010,N,11431.92532689,E,0.033,313.0,051224,3.4,W,D*28
$GNVTG,170.228,T,173.657,M,0.03675,N,0.06806,K,D*38
$GNHDT,233.7791,T*11
$GPGGA,022804.80,2234.03507808,N,11431.92532727,E,4,21,0.7,3.4058,M,-1.3415,M,01,0000*70
$GPRMC,022804.80,A,2234.03507808,N,11431.92532727,E,0.037,170.2,051224,3.4,W,D*2C
$GNVTG,11.683,T,15.113,M,0.08036,N,0.14883,K,D*39
$GNHDT,234.0575,T*19
$GPGGA,022805.00,2234.03508246,N,11431.92532824,E,4,22,0.7,3.3915,M,-1.3415,M,02,0000*7D
$GPRMC,022805.00,A,2234.03508246,N,11431.92532824,E,0.080,11.7,051224,3.4,W,D*19
$GNVTG,19.780,T,23.210,M,0.08522,N,0.15784,K,D*3F
$GNHDT,233.8389,T*13
$GPGGA,022805.20,2234.03508694,N,11431.92532998,E,4,23,0.6,3.3895,M,-1.3415,M,02,0000*7B
$GPRMC,022805.20,A,2234.03508694,N,11431.92532998,E,0.085,19.8,051224,3.4,W,D*14
$GNVTG,40.196,T,43.626,M,0.12241,N,0.22670,K,D*32
$GNHDT,233.9527,T*10
$GPGGA,022805.40,2234.03509215,N,11431.92533472,E,4,23,0.6,3.3791,M,-1.3415,M,02,0000*72
$GPRMC,022805.40,A,2234.03509215,N,11431.92533472,E,0.122,40.2,051224,3.4,W,D*1C
$GNVTG,339.414,T,342.844,M,0.06696,N,0.12401,K,D*34
$GNHDT,233.7061,T*19
$GPGGA,022805.60,2234.03509564,N,11431.92533330,E,4,23,0.6,3.3718,M,-1.3415,M,02,0000*71
$GPRMC,022805.60,A,2234.03509564,N,11431.92533330,E,0.067,339.4,051224,3.4,W,D*25
$GNVTG,1.111,T,4.541,M,0.05857,N,0.10847,K,D*39
$GNHDT,233.9360,T*15
$GPGGA,022805.80,2234.03509891,N,11431.92533337,E,4,23,0.6,3.3735,M,-1.3415,M,00,0000*72
$GPRMC,022805.80,A,2234.03509891,N,11431.92533337,E,0.059,1.1,051224,3.4,W,D*2B
$GNVTG,238.872,T,242.302,M,0.02344,N,0.04341,K,D*3A
$GNHDT,233.8558,T*19
$GPGGA,022806.00,2234.03509823,N,11431.92533217,E,4,23,0.6,3.3845,M,-1.3415,M,01,0000*7A
$GPRMC,022806.00,A,2234.03509823,N,11431.92533217,E,0.023,238.9,051224,3.4,W,D*27
$GNVTG,0.879,T,4.309,M,0.06418,N,0.11885,K,D*3E
$GNHDT,233.7491,T*12
$GPGGA,022806.20,2234.03510181,N,11431.92533223,E,4,23,0.6,3.3990,M,-1.3415,M,01,0000*7F
$GPRMC,022806.20,A,2234.03510181,N,11431.92533223,E,0.064,0.9,051224,3.4,W,D*21
$GNVTG,155.134,T,158.563,M,0.11380,N,0.21075,K,D*39
$GNHDT,234.4182,T*11
$GPGGA,022806.40,2234.03509605,N,11431.92533510,E,4,23,0.6,3.3867,M,-1.3415,M,01,0000*74
$GPRMC,022806.40,A,2234.03509605,N,11431.92533510,E,0.114,155.1,051224,3.4,W,D*2C
$GNVTG,4.961,T,8.391,M,0.06489,N,0.12017,K,D*37
$GNHDT,234.0792,T*12
$GPGGA,022806.60,2234.03509966,N,11431.92533544,E,4,23,0.6,3.3931,M,-1.3415,M,00,0000*7E
$GPRMC,022806.60,A,2234.03509966,N,11431.92533544,E,0.065,5.0,051224,3.4,W,D*27
$GNVTG,59.553,T,62.983,M,0.04200,N,0.07778,K,D*38
$GNHDT,234.0227,T*19
$GPGGA,022806.80,2234.03510084,N,11431.92533761,E,4,23,0.6,3.4061,M,-1.3415,M,00,0000*73
$GPRMC,022806.80,A,2234.03510084,N,11431.92533761,E,0.042,59.6,051224,3.4,W,D*1B
$GNVTG,96.290,T,99.720,M,0.07663,N,0.14191,K,D*31
$GNHDT,234.2297,T*10
$GPGGA,022807.00,2234.03510037,N,11431.92534218,E,4,23,0.6,3.3902,M,-1.3415,M,01,0000*74
$GPRMC,022807.00,A,2234.03510037,N,11431.92534218,E,0.077,96.3,051224,3.4,W,D*16
$GNVTG,62.928,T,66.357,M,0.09013,N,0.16692,K,D*3F
$GNHDT,234.1825,T*10
$GPGGA,022807.20,2234.03510266,N,11431.92534700,E,4,23,0.6,3.3807,M,-1.3415,M,01,0000*78
$GPRMC,022807.20,A,2234.03510266,N,11431.92534700,E,0.090,62.9,051224,3.4,W,D*16
$GNVTG,30.781,T,34.211,M,0.06379,N,0.11813,K,D*31
