$GNVTG,260.813,T,264.253,M,0.50411,N,0.93361,K,D*3D
$GNHDT,294.0755,T*13
$GPGGA,040243.80,2234.39439475,N,11431.92686948,E,5,14,2.1,-5.0970,M,-1.3507,M,00,0000*59
$GPRMC,040243.80,A,2234.39439475,N,11431.92686948,E,0.504,260.8,071224,3.4,W,D*26
$GNVTG,263.782,T,267.222,M,0.66210,N,1.22620,K,D*35
$GNHDT,295.5768,T*19
$GPGGA,040244.00,2234.39438098,N,11431.92682721,E,5,14,2.1,-5.1824,M,-1.3507,M,01,0000*55
$GPRMC,040244.00,A,2234.39438098,N,11431.92682721,E,0.662,263.8,071224,3.4,W,D*2A
$GNVTG,282.449,T,285.889,M,0.52905,N,0.97980,K,D*3B
$GNHDT,294.0508,T*19
$GPGGA,040244.20,2234.39438733,N,11431.92679620,E,5,14,2.1,-5.1755,M,-1.3507,M,01,0000*5C
$GPRMC,040244.20,A,2234.39438733,N,11431.92679620,E,0.529,282.4,071224,3.4,W,D*25
$GNVTG,272.084,T,275.524,M,1.24193,N,2.30006,K,D*3B
$GNHDT,295.4818,T*10
$GPGGA,040244.40,2234.39438985,N,11431.92672170,E,5,13,2.2,-4.9352,M,-1.3507,M,01,0000*5E
$GPRMC,040244.40,A,2234.39438985,N,11431.92672170,E,1.242,272.1,071224,3.4,W,D*28
$GNVTG,285.188,T,288.628,M,0.77692,N,1.43886,K,D*35
$GNHDT,289.5260,T*19
$GPGGA,040244.60,2234.39440120,N,11431.92667669,E,5,13,3.1,-4.8759,M,-1.3507,M,01,0000*53
$GPRMC,040244.60,A,2234.39440120,N,11431.92667669,E,0.777,285.2,071224,3.4,W,D*20
$GNVTG,225.325,T,228.765,M,0.52299,N,0.96858,K,D*3A
$GNHDT,298.1184,T*14
$GPGGA,040244.80,2234.39438070,N,11431.92665436,E,5,13,3.1,-4.9757,M,-1.3507,M,01,0000*53
$GPRMC,040244.80,A,2234.39438070,N,11431.92665436,E,0.523,225.3,071224,3.4,W,D*27
$GNVTG,338.308,T,341.748,M,0.66412,N,1.22994,K,D*34
$GNHDT,293.8232,T*18
$GPGGA,040245.00,2234.39441510,N,11431.92663963,E,5,13,3.1,-4.8503,M,-1.3507,M,02,0000*5D
$GPRMC,040245.00,A,2234.39441510,N,11431.92663963,E,0.664,338.3,071224,3.4,W,D*25
$GNVTG,292.639,T,296.079,M,0.77382,N,1.43312,K,D*31
$GNHDT,293.6420,T*13
$GPGGA,040245.20,2234.39443171,N,11431.92659676,E,5,13,3.1,-4.6059,M,-1.3507,M,02,0000*58
$GPRMC,040245.20,A,2234.39443171,N,11431.92659676,E,0.774,292.6,071224,3.4,W,D*20
$GNVTG,232.610,T,236.050,M,0.83857,N,1.55303,K,D*3E
$GNHDT,295.6574,T*15
$GPGGA,040245.40,2234.39440332,N,11431.92655676,E,5,13,3.1,-4.7290,M,-1.3507,M,02,0000*52
$GPRMC,040245.40,A,2234.39440332,N,11431.92655676,E,0.839,232.6,071224,3.4,W,D*20
$GNVTG,263.538,T,266.978,M,0.73876,N,1.36818,K,D*3D
$GNHDT,295.0390,T*1F
$GPGGA,040245.60,2234.39439868,N,11431.92651270,E,5,13,3.1,-4.7134,M,-1.3507,M,02,0000*51
$GPRMC,040245.60,A,2234.39439868,N,11431.92651270,E,0.739,263.5,071224,3.4,W,D*26
$GNVTG,258.868,T,262.308,M,0.73662,N,1.36422,K,D*3A
$GNHDT,296.7605,T*12
$GPGGA,040245.80,2234.39439076,N,11431.92646931,E,5,14,2.1,-4.7359,M,-1.3507,M,02,0000*5F
$GPRMC,040245.80,A,2234.39439076,N,11431.92646931,E,0.737,258.9,071224,3.4,W,D*2D
$GNVTG,277.298,T,280.738,M,0.83553,N,1.54740,K,D*34
$GNHDT,294.0097,T*1A
$GPGGA,040246.00,2234.39439667,N,11431.92641957,E,5,14,2.1,-4.7229,M,-1.3507,M,03,0000*52
$GPRMC,040246.00,A,2234.39439667,N,11431.92641957,E,0.836,277.3,071224,3.4,W,D*2E
$GNVTG,258.372,T,261.812,M,1.88108,N,3.48375,K,D*39
$GNHDT,300.4131,T*1F
$GPGGA,040246.20,2234.39437554,N,11431.92630897,E,5,13,3.1,-4.7532,M,-1.3507,M,03,0000*5D
$GPRMC,040246.20,A,2234.39437554,N,11431.92630897,E,1.881,258.4,071224,3.4,W,D*2D
$GNVTG,248.229,T,251.669,M,0.65950,N,1.22139,K,D*35
$GNHDT,294.6086,T*1C
$GPGGA,040246.40,2234.39436190,N,11431.92627220,E,5,12,3.4,-4.8760,M,-1.3507,M,02,0000*59
$GPRMC,040246.40,A,2234.39436190,N,11431.92627220,E,0.659,248.2,071224,3.4,W,D*2B
$GNVTG,241.308,T,244.748,M,0.44721,N,0.82824,K,D*3D
$GNHDT,297.1602,T*12
$GPGGA,040246.60,2234.39434993,N,11431.92624866,E,5,12,3.4,-4.9812,M,-1.3507,M,02,0000*52
$GPRMC,040246.60,A,2234.39434993,N,11431.92624866,E,0.447,241.3,071224,3.4,W,D*2E
$GPVTG,349.125,T,352.565,M,0.87217,N,1.61527,K,D*21
$GPHDT,291.8268,T*0B
$GPGGA,040246.80,2234.39439768,N,11431.92623878,E,5,07,4.4,-4.7930,M,-1.3507,M,02,0000*5F
$GPRMC,040246.80,A,2234.39439768,N,11431.92623878,E,0.872,349.1,071224,3.4,W,D*2E
$GPVTG,,,,,,,,,N*30
$GPHDT,,T*1B
$GPGGA,040247.00,,,,,0,00,0.0,,,,,,*63
$GPRMC,040247.00,V,,,,,,,071224,0.0,E,N*11
$GPVTG,,,,,,,,,N*30
$GPHDT,,T*1B
$GPGGA,040247.20,,,,,0,00,0.0,,,,,,*61
$GPRMC,040247.20,V,,,,,,,071224,0.0,E,N*13
$GNVTG,272.317,T,275.738,M,0.53049,N,0.98248,K,A*37
$GPHDT,285.6142,T*0B
$GPGGA,040247.40,2234.39595802,N,11431.92421576,E,1,14,1.7,12.7827,M,-1.3508,M,,*45
$GPRMC,040247.40,A,2234.39595802,N,11431.92421576,E,0.530,272.3,071224,3.4,W,A*21
$GNVTG,269.832,T,273.253,M,0.49428,N,0.91541,K,A*30
$GPHDT,284.9302,T*03
$GPGGA,040247.60,2234.39587535,N,11431.92461471,E,2,10,2.2,12.8979,M,-1.3508,M,03,0000*48
$GPRMC,040247.60,A,2234.39587535,N,11431.92461471,E,0.494,269.8,071224,3.4,W,D*20
$GNVTG,270.427,T,273.848,M,0.55251,N,1.02325,K,A*3A
$GPHDT,290.0184,T*03
$GPGGA,040247.80,2234.39589945,N,11431.92485436,E,2,10,2.2,12.7008,M,-1.3508,M,03,0000*4A
$GPRMC,040247.80,A,2234.39589945,N,11431.92485436,E,0.553,270.4,071224,3.4,W,D*2C
$GNVTG,276.870,T,280.291,M,0.63839,N,1.18229,K,A*37
$GPHDT,288.7488,T*04
$GPGGA,040248.00,2234.39603752,N,11431.92485850,E,1,14,1.7,13.1147,M,-1.3508,M,,*47
$GPRMC,040248.00,A,2234.39603752,N,11431.92485850,E,0.638,276.9,071224,3.4,W,A*2E
$GPVTG,,,,,,,,,N*30
$GPHDT,,T*1B
$GPGGA,040248.20,,,,,0,00,0.0,,,,,,*6E
$GPRMC,040248.20,V,,,,,,,071224,0.0,E,N*1C
$GPVTG,,,,,,,,,N*30
$GPHDT,,T*1B
$GPGGA,040248.40,,,,,0,00,0.0,,,,,,*68
$GPRMC,040248.40,V,,,,,,,071224,0.0,E,N*1A
$GNVTG,270.822,T,274.243,M,0.54418,N,1.00782,K,A*34
$GNHDT,294.2302,T*17
$GPGGA,040248.60,2234.39607976,N,11431.92438384,E,1,13,2.5,13.6337,M,-1.3508,M,,*4D
$GPRMC,040248.60,A,2234.39607976,N,11431.92438384,E,0.544,270.8,071224,3.4,W,A*2F
$GPVTG,,,,,,,,,N*30
$GPHDT,,T*1B
$GPGGA,040248.80,,,,,0,00,0.0,,,,,,*64
$GPRMC,040248.80,V,,,,,,,071224,0.0,E,N*16
$GPVTG,,,,,,,,,N*30
$GPHDT,,T*1B
$GPGGA,040249.00,,,,,0,00,0.0,,,,,,*6D
$GPRMC,040249.00,V,,,,,,,071224,0.0,E,N*1F
$GPVTG,,,,,,,,,N*30
$GPHDT,,T*1B
$GPGGA,040249.20,,,,,0,00,0.0,,,,,,*6F
$GPRMC,040249.20,V,,,,,,,071224,0.0,E,N*1D
$GPVTG,,,,,,,,,N*30
$GPHDT,,T*1B
$GPGGA,040249.40,,,,,0,00,0.0,,,,,,*69
$GPRMC,040249.40,V,,,,,,,071224,0.0,E,N*1B
$GPVTG,,,,,,,,,N*30
$GPHDT,,T*1B
$GPGGA,040249.60,,,,,0,00,0.0,,,,,,*6B
$GPRMC,040249.60,V,,,,,,,071224,0.0,E,N*19
$GPVTG,,,,,,,,,N*30
$GPHDT,,T*1B
$GPGGA,040249.80,,,,,0,00,0.0,,,,,,*65
$GPRMC,040249.80,V,,,,,,,071224,0.0,E,N*17
$GPVTG,,,,,,,,,N*30
$GPHDT,,T*1B
$GPGGA,040250.00,,,,,0,00,0.0,,,,,,*65
$GPRMC,040250.00,V,,,,,,,071224,0.0,E,N*17
$GPVTG,,,,,,,,,N*30
$GPHDT,,T*1B
$GPGGA,040250.20,,,,,0,00,0.0,,,,,,*67
$GPRMC,040250.20,V,,,,,,,071224,0.0,E,N*15
$GPVTG,,,,,,,,,N*30
$GPHDT,,T*1B
$GPGGA,040250.40,,,,,0,00,0.0,,,,,,*61
$GPRMC,040250.40,V,,,,,,,071224,0.0,E,N*13
$GPVTG,,,,,,,,,N*30
$GPHDT,,T*1B
$GPGGA,040250.60,,,,,0,00,0.0,,,,,,*63
$GPRMC,040250.60,V,,,,,,,071224,0.0,E,N*11
$GPVTG,,,,,,,,,N*30
$GPHDT,,T*1B
$GPGGA,040250.80,,,,,0,00,0.0,,,,,,*6D
$GPRMC,040250.80,V,,,,,,,071224,0.0,E,N*1F
$GPVTG,,,,,,,,,N*30
$GPHDT,,T*1B
$GPGGA,040251.00,,,,,0,00,0.0,,,,,,*64
$GPRMC,040251.00,V,,,,,,,071224,0.0,E,N*16
$GPVTG,,,,,,,,,N*30
$GPHDT,,T*1B
$GPGGA,040251.20,,,,,0,00,0.0,,,,,,*66
$GPRMC,040251.20,V,,,,,,,071224,0.0,E,N*14
$GNVTG,257.882,T,261.293,M,0.84997,N,1.57415,K,A*3A
$GNHDT,290.6574,T*10
$GPGGA,040251.40,2234.39595027,N,11431.92292106,E,1,12,3.4,22.4260,M,-1.3509,M,,*4F
$GPRMC,040251.40,A,2234.39595027,N,11431.92292106,E,0.850,257.9,071224,3.4,W,A*22
$GNVTG,255.167,T,258.578,M,0.63743,N,1.18052,K,A*30
$GNHDT,292.3477,T*15
$GPGGA,040251.60,2234.39599208,N,11431.92278736,E,1,13,2.5,22.8837,M,-1.3510,M,,*42
$GPRMC,040251.60,A,2234.39599208,N,11431.92278736,E,0.637,255.2,071224,3.4,W,A*24
$GPVTG,,,,,,,,,N*30
$GPHDT,,T*1B
$GPGGA,040251.80,,,,,0,00,0.0,,,,,,*6C
$GPRMC,040251.80,V,,,,,,,071224,0.0,E,N*1E
$GPVTG,,,,,,,,,N*30
$GPHDT,,T*1B
$GPGGA,040252.00,,,,,0,00,0.0,,,,,,*67
$GPRMC,040252.00,V,,,,,,,071224,0.0,E,N*15
$GPVTG,,,,,,,,,N*30
$GPHDT,,T*1B
$GPGGA,040252.20,,,,,0,00,0.0,,,,,,*65
$GPRMC,040252.20,V,,,,,,,071224,0.0,E,N*17
$GPVTG,,,,,,,,,N*30
$GPHDT,,T*1B
$GPGGA,040252.40,,,,,0,00,0.0,,,,,,*63
$GPRMC,040252.40,V,,,,,,,071224,0.0,E,N*11
$GNVTG,247.073,T,250.480,M,0.79556,N,1.47337,K,A*3E
$GNHDT,297.5115,T*17
$GPGGA,040252.60,2234.39639601,N,11431.92257334,E,1,13,2.5,26.1559,M,-1.3510,M,,*46
$GPRMC,040252.60,A,2234.39639601,N,11431.92257334,E,0.796,247.1,071224,3.4,W,A*22
$GPVTG,,,,,,,,,N*30
$GPHDT,,T*1B
$GPGGA,040252.80,,,,,0,00,0.0,,,,,,*6F
$GPRMC,040252.80,V,,,,,,,071224,0.0,E,N*1D
$GPVTG,,,,,,,,,N*30
$GPHDT,,T*1B
$GPGGA,040253.00,,,,,0,00,0.0,,,,,,*66
$GPRMC,040253.00,V,,,,,,,071224,0.0,E,N*14
$GNVTG,254.151,T,257.553,M,0.56360,N,1.04378,K,A*37
$GNHDT,295.6997,T*14
$GPGGA,040253.20,2234.39657747,N,11431.92119435,E,1,13,2.7,30.5692,M,-1.3511,M,,*43
$GPRMC,040253.20,A,2234.39657747,N,11431.92119435,E,0.564,254.2,071224,3.4,W,A*2D
$GNVTG,274.406,T,277.845,M,0.48832,N,0.90437,K,D*3C
$GNHDT,288.6700,T*18
$GPGGA,040253.40,2234.39448879,N,11431.92530426,E,4,15,1.8,-4.2678,M,-1.3508,M,01,0000*59
$GPRMC,040253.40,A,2234.39448879,N,11431.92530426,E,0.488,274.4,071224,3.4,W,D*2A
$GNVTG,273.745,T,277.184,M,0.58084,N,1.07572,K,D*30
$GNHDT,291.8029,T*12
$GPGGA,040253.60,2234.39449090,N,11431.92526947,E,4,15,1.8,-4.2250,M,-1.3508,M,01,0000*56
$GPRMC,040253.60,A,2234.39449090,N,11431.92526947,E,0.581,273.7,071224,3.4,W,D*27
$GNVTG,268.161,T,271.600,M,0.81381,N,1.50718,K,D*39
$GNHDT,283.2849,T*15
$GPGGA,040253.80,2234.39448944,N,11431.92522064,E,4,14,2.2,-4.1835,M,-1.3508,M,00,0000*56
$GPRMC,040253.80,A,2234.39448944,N,11431.92522064,E,0.814,268.2,071224,3.4,W,D*2A
$GNVTG,238.084,T,241.523,M,1.35094,N,2.50194,K,D*3F
$GNHDT,293.5432,T*13
$GPGGA,040254.00,2234.39444963,N,11431.92515181,E,4,14,2.2,-4.2769,M,-1.3508,M,01,0000*5A
$GPRMC,040254.00,A,2234.39444963,N,11431.92515181,E,1.351,238.1,071224,3.4,W,D*2F
$GNVTG,288.789,T,292.228,M,1.06940,N,1.98053,K,D*31
$GNHDT,292.3528,T*1E
$GPGGA,040254.20,2234.39446883,N,11431.92509103,E,4,14,2.2,-4.0537,M,-1.3508,M,01,0000*59
$GPRMC,040254.20,A,2234.39446883,N,11431.92509103,E,1.069,288.8,071224,3.4,W,D*2D
$GNVTG,254.744,T,258.183,M,1.35391,N,2.50744,K,D*35
$GNHDT,293.1336,T*14
$GPGGA,040254.40,2234.39444897,N,11431.92501263,E,4,14,2.2,-4.0306,M,-1.3508,M,01,0000*51
$GPRMC,040254.40,A,2234.39444897,N,11431.92501263,E,1.354,254.7,071224,3.4,W,D*22
$GNVTG,290.022,T,293.461,M,0.95764,N,1.77355,K,D*33
$GNHDT,292.3220,T*11
$GPGGA,040254.60,2234.39446725,N,11431.92495862,E,4,14,2.2,-4.0128,M,-1.3508,M,01,0000*5E
$GPRMC,040254.60,A,2234.39446725,N,11431.92495862,E,0.958,290.0,071224,3.4,W,D*2B
$GNVTG,321.915,T,325.355,M,0.75206,N,1.39282,K,D*37
$GNHDT,292.9882,T*19
$GPGGA,040254.80,2234.39450025,N,11431.92493077,E,4,14,2.2,-4.0424,M,-1.3508,M,01,0000*53
$GPRMC,040254.80,A,2234.39450025,N,11431.92493077,E,0.752,321.9,071224,3.4,W,D*29
$GNVTG,294.816,T,298.255,M,0.77758,N,1.44009,K,D*3B
$GNHDT,290.1506,T*12
$GPGGA,040255.00,2234.39451844,N,11431.92488840,E,4,14,2.2,-4.1273,M,-1.3508,M,02,0000*54
$GPRMC,040255.00,A,2234.39451844,N,11431.92488840,E,0.778,294.8,071224,3.4,W,D*2E
$GNVTG,282.099,T,285.539,M,0.53201,N,0.98528,K,D*3B
$GNHDT,291.6930,T*1D
$GPGGA,040255.20,2234.39452466,N,11431.92485718,E,4,14,2.2,-4.2721,M,-1.3508,M,02,0000*57
$GPRMC,040255.20,A,2234.39452466,N,11431.92485718,E,0.532,282.1,071224,3.4,W,D*2E
$GNVTG,334.030,T,337.469,M,0.65038,N,1.20451,K,D*38
$GNHDT,289.0806,T*16
$GPGGA,040255.40,2234.39455725,N,11431.92484008,E,4,14,2.2,-4.3423,M,-1.3508,M,02,0000*55
$GPRMC,040255.40,A,2234.39455725,N,11431.92484008,E,0.650,334.0,071224,3.4,W,D*26
$GNVTG,286.789,T,290.229,M,0.64809,N,1.20027,K,D*35
$GNHDT,290.0274,T*11
$GPGGA,040255.60,2234.39456769,N,11431.92480284,E,4,15,1.5,-4.3434,M,-1.3508,M,02,0000*5D
$GPRMC,040255.60,A,2234.39456769,N,11431.92480284,E,0.648,286.8,071224,3.4,W,D*24
$GNVTG,316.339,T,319.778,M,0.72995,N,1.35186,K,D*3E
$GNHDT,287.9218,T*14
$GPGGA,040255.80,2234.39459713,N,11431.92477259,E,4,14,2.2,-4.2362,M,-1.3508,M,00,0000*5B
$GPRMC,040255.80,A,2234.39459713,N,11431.92477259,E,0.730,316.3,071224,3.4,W,D*2D
$GNVTG,288.764,T,292.203,M,0.86101,N,1.59459,K,D*3C
$GNHDT,287.6777,T*17
$GPGGA,040256.00,2234.39461257,N,11431.92472365,E,4,14,2.2,-4.1780,M,-1.3508,M,01,0000*5F
$GPRMC,040256.00,A,2234.39461257,N,11431.92472365,E,0.861,288.8,071224,3.4,W,D*25
$GNVTG,230.316,T,233.756,M,0.64667,N,1.19763,K,D*35
$GNHDT,290.4227,T*13
$GPGGA,040256.20,2234.39458955,N,11431.92469377,E,4,14,2.2,-4.1984,M,-1.3508,M,01,0000*5D
$GPRMC,040256.20,A,2234.39458955,N,11431.92469377,E,0.647,230.3,071224,3.4,W,D*2F
$GNVTG,240.354,T,243.793,M,0.60061,N,1.11234,K,D*31
$GNHDT,291.4271,T*11
$GPGGA,040256.40,2234.39457299,N,11431.92466244,E,4,14,2.2,-4.2007,M,-1.3508,M,01,0000*50
$GPRMC,040256.40,A,2234.39457299,N,11431.92466244,E,0.601,240.4,071224,3.4,W,D*21
$GNVTG,258.767,T,262.206,M,0.69424,N,1.28574,K,D*33
$GNHDT,292.9167,T*1B
$GPGGA,040256.60,2234.39456545,N,11431.92462157,E,4,14,2.2,-4.2037,M,-1.3508,M,01,0000*53
$GPRMC,040256.60,A,2234.39456545,N,11431.92462157,E,0.694,258.8,071224,3.4,W,D*28
$GNVTG,241.078,T,244.518,M,0.62513,N,1.15774,K,D*3C
$GNHDT,293.1595,T*1B
$GPGGA,040256.80,2234.39454859,N,11431.92458872,E,4,14,2.2,-4.2302,M,-1.3508,M,01,0000*5D
$GPRMC,040256.80,A,2234.39454859,N,11431.92458872,E,0.625,241.1,071224,3.4,W,D*28
$GNVTG,252.914,T,256.354,M,0.83507,N,1.54654,K,D*3C
$GNHDT,292.6461,T*17
$GPGGA,040257.00,2234.39453492,N,11431.92454081,E,4,14,2.2,-4.2349,M,-1.3508,M,02,0000*5C
$GPRMC,040257.00,A,2234.39453492,N,11431.92454081,E,0.835,252.9,071224,3.4,W,D*20
$GNVTG,254.108,T,257.547,M,0.58642,N,1.08605,K,D*33
$GNHDT,293.8564,T*1C
$GPGGA,040257.20,2234.39452596,N,11431.92450695,E,4,14,2.2,-4.2087,M,-1.3508,M,02,0000*5C
$GPRMC,040257.20,A,2234.39452596,N,11431.92450695,E,0.586,254.1,071224,3.4,W,D*2A
$GNVTG,240.314,T,243.753,M,0.99780,N,1.84793,K,D*33
$GNHDT,293.4158,T*1B
$GPGGA,040257.40,2234.39449842,N,11431.92445492,E,4,14,2.2,-4.2304,M,-1.3508,M,01,0000*5E
$GPRMC,040257.40,A,2234.39449842,N,11431.92445492,E,0.998,240.3,071224,3.4,W,D*27
$GNVTG,275.185,T,278.624,M,0.56038,N,1.03783,K,D*3F
$GNHDT,291.0880,T*11
$GPGGA,040257.60,2234.39450124,N,11431.92442141,E,4,15,1.8,-4.1695,M,-1.3508,M,01,0000*57
$GPRMC,040257.60,A,2234.39450124,N,11431.92442141,E,0.560,275.2,071224,3.4,W,D*24
$GNVTG,250.893,T,254.332,M,0.61886,N,1.14613,K,D*3D
$GNHDT,293.9451,T*1A
$GPGGA,040257.80,2234.39448995,N,11431.92438631,E,4,15,1.8,-4.2039,M,-1.3508,M,00,0000*5D
$GPRMC,040257.80,A,2234.39448995,N,11431.92438631,E,0.619,250.9,071224,3.4,W,D*2D
$GNVTG,233.400,T,236.840,M,0.51939,N,0.96192,K,D*37
$GNHDT,294.1144,T*14
$GPGGA,040258.00,2234.39447268,N,11431.92436128,E,4,15,1.8,-4.2445,M,-1.3508,M,01,0000*53
$GPRMC,040258.00,A,2234.39447268,N,11431.92436128,E,0.519,233.4,071224,3.4,W,D*26
$GNVTG,235.639,T,239.078,M,0.54242,N,1.00455,K,D*37
$GNHDT,295.0273,T*13
$GPGGA,040258.20,2234.39445562,N,11431.92433440,E,4,15,1.8,-4.2784,M,-1.3508,M,01,0000*5E
$GPRMC,040258.20,A,2234.39445562,N,11431.92433440,E,0.542,235.6,071224,3.4,W,D*2F
$GNVTG,228.971,T,232.410,M,0.61548,N,1.13987,K,D*32
$GNHDT,295.1561,T*16
$GPGGA,040258.40,2234.39443309,N,11431.92430653,E,4,15,1.8,-4.2727,M,-1.3508,M,01,0000*5F
$GPRMC,040258.40,A,2234.39443309,N,11431.92430653,E,0.615,229.0,071224,3.4,W,D*2D
$GNVTG,239.085,T,242.524,M,0.70398,N,1.30378,K,D*31
$GNHDT,295.5272,T*17
$GPGGA,040258.60,2234.39441293,N,11431.92427028,E,4,15,1.8,-4.2883,M,-1.3508,M,01,0000*50
$GPRMC,040258.60,A,2234.39441293,N,11431.92427028,E,0.704,239.1,071224,3.4,W,D*22
$GNVTG,292.483,T,295.923,M,0.51143,N,0.94717,K,D*36
$GNHDT,292.8685,T*11
$GPGGA,040258.80,2234.39442383,N,11431.92424191,E,4,15,1.8,-4.1982,M,-1.3508,M,00,0000*5F
$GPRMC,040258.80,A,2234.39442383,N,11431.92424191,E,0.511,292.5,071224,3.4,W,D*2C
$GNVTG,226.061,T,229.501,M,0.79121,N,1.46531,K,D*3C
$GNHDT,294.0424,T*16
$GPGGA,040259.00,2234.39439323,N,11431.92420771,E,4,15,1.8,-4.3113,M,-1.3508,M,01,0000*5F
$GPRMC,040259.00,A,2234.39439323,N,11431.92420771,E,0.791,226.1,071224,3.4,W,D*2E
$GNVTG,284.118,T,287.557,M,0.42771,N,0.79212,K,D*3C
$GNHDT,293.1949,T*16
$GPGGA,040259.20,2234.39439904,N,11431.92418281,E,4,15,1.8,-4.2782,M,-1.3508,M,01,0000*5C
$GPRMC,040259.20,A,2234.39439904,N,11431.92418281,E,0.428,284.1,071224,3.4,W,D*2B
$GNVTG,214.964,T,218.403,M,0.27355,N,0.50662,K,D*39
$GNHDT,293.6570,T*17
$GPGGA,040259.40,2234.39438655,N,11431.92417340,E,4,15,1.8,-4.3217,M,-1.3508,M,01,0000*5B
$GPRMC,040259.40,A,2234.39438655,N,11431.92417340,E,0.274,215.0,071224,3.4,W,D*22
$GNVTG,222.254,T,225.693,M,0.39016,N,0.72258,K,D*37
$GNHDT,296.1061,T*10
$GPGGA,040259.60,2234.39437045,N,11431.92415766,E,4,15,1.8,-4.4073,M,-1.3508,M,01,0000*54
$GPRMC,040259.60,A,2234.39437045,N,11431.92415766,E,0.390,222.3,071224,3.4,W,D*26
$GNVTG,357.752,T,1.191,M,0.17167,N,0.31793,K,D*38
$GNHDT,293.5634,T*17
$GPGGA,040259.80,2234.39438001,N,11431.92415725,E,4,15,1.8,-4.3518,M,-1.3508,M,01,0000*5D
$GPRMC,040259.80,A,2234.39438001,N,11431.92415725,E,0.172,357.8,071224,3.4,W,D*26
$GNVTG,257.821,T,261.261,M,0.56337,N,1.04337,K,D*35
$GNHDT,293.8524,T*18
$GPGGA,040300.00,2234.39437338,N,11431.92412419,E,4,15,1.8,-4.3166,M,-1.3508,M,02,0000*5B
$GPRMC,040300.00,A,2234.39437338,N,11431.92412419,E,0.563,257.8,071224,3.4,W,D*2B
$GNVTG,259.905,T,263.344,M,0.73102,N,1.35385,K,D*30
$GNHDT,295.0870,T*1A
$GPGGA,040300.20,2234.39436624,N,11431.92408099,E,4,15,1.8,-4.2802,M,-1.3508,M,02,0000*5D
$GPRMC,040300.20,A,2234.39436624,N,11431.92408099,E,0.731,259.9,071224,3.4,W,D*2D
$GNVTG,252.876,T,256.315,M,1.04687,N,1.93881,K,D*34
$GNHDT,294.3134,T*11
$GPGGA,040300.40,2234.39434906,N,11431.92402094,E,4,15,1.8,-4.2932,M,-1.3508,M,02,0000*53
$GPRMC,040300.40,A,2234.39434906,N,11431.92402094,E,1.047,252.9,071224,3.4,W,D*2D
$GNVTG,266.636,T,270.075,M,1.20711,N,2.23556,K,D*3F
$GNHDT,293.6136,T*11
$GPGGA,040300.60,2234.39434511,N,11431.92394860,E,4,15,1.8,-4.2612,M,-1.3508,M,02,0000*5D
$GPRMC,040300.60,A,2234.39434511,N,11431.92394860,E,1.207,266.6,071224,3.4,W,D*20
$GNVTG,272.696,T,276.135,M,1.00269,N,1.85699,K,D*34
$GNHDT,291.8639,T*15
$GPGGA,040300.80,2234.39434774,N,11431.92388848,E,4,15,1.8,-4.2422,M,-1.3508,M,02,0000*54
$GPRMC,040300.80,A,2234.39434774,N,11431.92388848,E,1.003,272.7,071224,3.4,W,D*2A
$GNVTG,276.306,T,279.746,M,0.78459,N,1.45306,K,D*35
$GNHDT,291.9575,T*1F
$GPGGA,040301.00,2234.39435254,N,11431.92384167,E,4,15,1.8,-4.3024,M,-1.3508,M,03,0000*51
$GPRMC,040301.00,A,2234.39435254,N,11431.92384167,E,0.785,276.3,071224,3.4,W,D*25
$GNVTG,291.211,T,294.650,M,0.78285,N,1.44984,K,D*38
$GNHDT,291.6763,T*15
$GPGGA,040301.20,2234.39436833,N,11431.92379786,E,4,15,1.8,-4.3521,M,-1.3508,M,03,0000*50
$GPRMC,040301.20,A,2234.39436833,N,11431.92379786,E,0.783,291.2,071224,3.4,W,D*2A
$GNVTG,299.923,T,303.362,M,0.75618,N,1.40044,K,D*3D
$GNHDT,291.2959,T*16
$GPGGA,040301.40,2234.39438936,N,11431.92375852,E,4,15,1.8,-4.3273,M,-1.3508,M,02,0000*57
$GPRMC,040301.40,A,2234.39438936,N,11431.92375852,E,0.756,299.9,071224,3.4,W,D*27
$GNVTG,298.237,T,301.676,M,0.83238,N,1.54156,K,D*38
$GNHDT,290.3735,T*12
$GPGGA,040301.60,2234.39441131,N,11431.92371450,E,4,16,1.3,-4.3443,M,-1.3509,M,02,0000*52
$GPRMC,040301.60,A,2234.39441131,N,11431.92371450,E,0.832,298.2,071224,3.4,W,D*29
$GNVTG,307.424,T,310.864,M,0.50830,N,0.94137,K,D*30
$GNHDT,291.8998,T*11
$GPGGA,040301.80,2234.39442853,N,11431.92369027,E,4,16,1.3,-4.3975,M,-1.3509,M,00,0000*55
$GPRMC,040301.80,A,2234.39442853,N,11431.92369027,E,0.508,307.4,071224,3.4,W,D*21
$GNVTG,326.915,T,330.355,M,0.72500,N,1.34270,K,D*32
$GNHDT,290.6264,T*16
$GPGGA,040302.00,2234.39446240,N,11431.92366651,E,4,16,1.3,-4.3842,M,-1.3509,M,01,0000*5E
$GPRMC,040302.00,A,2234.39446240,N,11431.92366651,E,0.725,326.9,071224,3.4,W,D*2D
$GNVTG,305.053,T,308.493,M,0.72006,N,1.33355,K,D*3C
$GNHDT,291.8383,T*11
$GPGGA,040302.20,2234.39448545,N,11431.92363113,E,4,16,1.3,-4.3717,M,-1.3509,M,01,0000*5B
$GPRMC,040302.20,A,2234.39448545,N,11431.92363113,E,0.720,305.1,071224,3.4,W,D*2B
$GNVTG,288.868,T,292.307,M,0.50884,N,0.94237,K,D*3B
$GNHDT,291.6800,T*1F
$GPGGA,040302.40,2234.39449463,N,11431.92360223,E,4,15,1.5,-4.3804,M,-1.3509,M,01,0000*52
$GPRMC,040302.40,A,2234.39449463,N,11431.92360223,E,0.509,288.9,071224,3.4,W,D*2F
$GNVTG,289.349,T,292.788,M,0.88022,N,1.63017,K,D*39
$GNHDT,293.7836,T*19
$GPGGA,040302.60,2234.39451088,N,11431.92355237,E,4,14,2.2,-4.3032,M,-1.3509,M,01,0000*53
$GPRMC,040302.60,A,2234.39451088,N,11431.92355237,E,0.880,289.3,071224,3.4,W,D*21
$GNVTG,284.960,T,288.399,M,1.25535,N,2.32491,K,D*32
$GNHDT,292.5802,T*1D
$GPGGA,040302.80,2234.39452895,N,11431.92347957,E,4,14,2.2,-4.2253,M,-1.3509,M,01,0000*50
$GPRMC,040302.80,A,2234.39452895,N,11431.92347957,E,1.255,285.0,071224,3.4,W,D*2A
$GNVTG,291.333,T,294.773,M,1.10194,N,2.04079,K,D*39
$GNHDT,292.1727,T*11
$GPGGA,040303.00,2234.39455130,N,11431.92341796,E,4,14,2.2,-4.1627,M,-1.3509,M,02,0000*5A
$GPRMC,040303.00,A,2234.39455130,N,11431.92341796,E,1.102,291.3,071224,3.4,W,D*20
$GNVTG,257.547,T,260.986,M,1.41952,N,2.62895,K,D*35
$GNHDT,291.8268,T*15
$GPGGA,040303.20,2234.39453423,N,11431.92333475,E,4,14,2.2,-4.1845,M,-1.3509,M,02,0000*58
$GPRMC,040303.20,A,2234.39453423,N,11431.92333475,E,1.420,257.5,071224,3.4,W,D*21
$GNVTG,256.518,T,259.957,M,1.21441,N,2.24909,K,D*37
$GNHDT,289.7803,T*14
$GPGGA,040303.40,2234.39451845,N,11431.92326386,E,4,14,2.2,-4.1802,M,-1.3509,M,01,0000*5F
$GPRMC,040303.40,A,2234.39451845,N,11431.92326386,E,1.214,256.5,071224,3.4,W,D*26
$GNVTG,261.900,T,265.339,M,0.86163,N,1.59575,K,D*3C
$GNHDT,290.3704,T*10
$GPGGA,040303.60,2234.39451168,N,11431.92321266,E,4,14,2.2,-4.2358,M,-1.3509,M,01,0000*54
$GPRMC,040303.60,A,2234.39451168,N,11431.92321266,E,0.862,261.9,071224,3.4,W,D*28
$GNVTG,267.944,T,271.384,M,0.57571,N,1.06622,K,D*39
$GNHDT,291.4052,T*12
$GPGGA,040303.80,2234.39451053,N,11431.92317812,E,4,14,2.2,-4.3134,M,-1.3509,M,00,0000*57
$GPRMC,040303.80,A,2234.39451053,N,11431.92317812,E,0.576,267.9,071224,3.4,W,D*2D
$GNVTG,259.944,T,263.383,M,0.46632,N,0.86362,K,D*3C
$GNHDT,290.5946,T*1E
$GPGGA,040304.00,2234.39450599,N,11431.92315056,E,4,14,2.2,-4.3131,M,-1.3509,M,01,0000*54
$GPRMC,040304.00,A,2234.39450599,N,11431.92315056,E,0.466,259.9,071224,3.4,W,D*27
$GNVTG,301.122,T,304.561,M,0.31369,N,0.58095,K,D*31
$GNHDT,291.1221,T*11
$GPGGA,040304.20,2234.39451503,N,11431.92313444,E,4,14,2.2,-4.3090,M,-1.3509,M,01,0000*5F
$GPRMC,040304.20,A,2234.39451503,N,11431.92313444,E,0.314,301.1,071224,3.4,W,D*20
$GNVTG,271.284,T,274.724,M,0.60441,N,1.11937,K,D*39
$GNHDT,291.5261,T*11
$GPGGA,040304.40,2234.39451578,N,11431.92309817,E,4,14,2.2,-4.2856,M,-1.3509,M,01,0000*57
$GPRMC,040304.40,A,2234.39451578,N,11431.92309817,E,0.604,271.3,071224,3.4,W,D*2B
$GNVTG,257.144,T,260.583,M,0.78654,N,1.45667,K,D*3C
$GNHDT,290.2055,T*12
$GPGGA,040304.60,2234.39450603,N,11431.92305214,E,4,14,2.2,-4.2509,M,-1.3509,M,01,0000*59
$GPRMC,040304.60,A,2234.39450603,N,11431.92305214,E,0.787,257.1,071224,3.4,W,D*2E
$GNVTG,287.590,T,291.029,M,0.86982,N,1.61091,K,D*3B
$GNHDT,288.1684,T*12
$GPGGA,040304.80,2234.39452068,N,11431.92300236,E,4,15,1.5,-4.1136,M,-1.3509,M,00,0000*54
$GPRMC,040304.80,A,2234.39452068,N,11431.92300236,E,0.870,287.6,071224,3.4,W,D*21
$GNVTG,269.101,T,272.540,M,0.83797,N,1.55192,K,D*3A
$GNHDT,287.8770,T*1E
$GPGGA,040305.00,2234.39451995,N,11431.92295207,E,4,14,2.2,-4.0706,M,-1.3509,M,01,0000*5A
$GPRMC,040305.00,A,2234.39451995,N,11431.92295207,E,0.838,269.1,071224,3.4,W,D*24
$GNVTG,261.365,T,264.804,M,0.99132,N,1.83593,K,D*34
$GNHDT,289.6687,T*17
$GPGGA,040305.20,2234.39451165,N,11431.92289324,E,4,14,2.2,-4.0733,M,-1.3509,M,01,0000*54
$GPRMC,040305.20,A,2234.39451165,N,11431.92289324,E,0.991,261.4,071224,3.4,W,D*23
$GNVTG,251.574,T,255.013,M,0.99685,N,1.84617,K,D*3E
$GNHDT,289.6223,T*1D
$GPGGA,040305.40,2234.39449409,N,11431.92283647,E,4,14,2.2,-4.1285,M,-1.3509,M,01,0000*57
$GPRMC,040305.40,A,2234.39449409,N,11431.92283647,E,0.997,251.6,071224,3.4,W,D*2E
$GNVTG,259.909,T,263.348,M,0.80293,N,1.48703,K,D*37
$GNHDT,289.4571,T*1F
$GPGGA,040305.60,2234.39448624,N,11431.92278901,E,4,15,1.5,-4.1848,M,-1.3509,M,01,0000*5E
$GPRMC,040305.60,A,2234.39448624,N,11431.92278901,E,0.803,259.9,071224,3.4,W,D*22
$GNVTG,267.152,T,270.591,M,0.59298,N,1.09820,K,D*38
$GNHDT,291.2456,T*14
$GPGGA,040305.80,2234.39448460,N,11431.92275346,E,4,15,1.5,-4.1924,M,-1.3509,M,01,0000*5D
$GPRMC,040305.80,A,2234.39448460,N,11431.92275346,E,0.593,267.2,071224,3.4,W,D*28
$GNVTG,245.691,T,249.130,M,0.86370,N,1.59957,K,D*34
$GNHDT,292.5048,T*1B
$GPGGA,040306.00,2234.39446478,N,11431.92270621,E,4,15,1.5,-4.2689,M,-1.3509,M,02,0000*58
$GPRMC,040306.00,A,2234.39446478,N,11431.92270621,E,0.864,245.7,071224,3.4,W,D*25
$GNVTG,273.726,T,277.165,M,0.15918,N,0.29480,K,D*3E
$GNHDT,292.8593,T*15
$GPGGA,040306.20,2234.39446536,N,11431.92269668,E,4,15,1.5,-4.3081,M,-1.3509,M,02,0000*5B
$GPRMC,040306.20,A,2234.39446536,N,11431.92269668,E,0.159,273.7,071224,3.4,W,D*2B
$GNVTG,240.361,T,243.801,M,0.30895,N,0.57217,K,D*37
$GNHDT,292.5347,T*17
$GPGGA,040306.40,2234.39445684,N,11431.92268056,E,4,15,1.5,-4.3822,M,-1.3509,M,01,0000*5C
$GPRMC,040306.40,A,2234.39445684,N,11431.92268056,E,0.309,240.4,071224,3.4,W,D*2A
$GNVTG,334.543,T,337.983,M,0.41535,N,0.76923,K,D*34
$GNHDT,292.2333,T*13
$GPGGA,040306.60,2234.39447775,N,11431.92266984,E,4,14,2.2,-4.4037,M,-1.3509,M,01,0000*55
$GPRMC,040306.60,A,2234.39447775,N,11431.92266984,E,0.415,334.5,071224,3.4,W,D*24
$GNVTG,302.893,T,306.332,M,0.37924,N,0.70236,K,D*37
$GNHDT,291.4141,T*11
$GPGGA,040306.80,2234.39448923,N,11431.92265073,E,4,14,2.2,-4.3738,M,-1.3509,M,00,0000*55
$GPRMC,040306.80,A,2234.39448923,N,11431.92265073,E,0.379,302.9,071224,3.4,W,D*2E
$GNVTG,295.136,T,298.575,M,0.34369,N,0.63652,K,D*39
$GNHDT,291.6110,T*17
$GPGGA,040307.00,2234.39449737,N,11431.92263205,E,4,14,2.2,-4.3510,M,-1.3509,M,01,0000*5A
$GPRMC,040307.00,A,2234.39449737,N,11431.92263205,E,0.344,295.1,071224,3.4,W,D*21
$GNVTG,259.227,T,262.666,M,0.87071,N,1.61256,K,D*3F
$GNHDT,292.5101,T*17
$GPGGA,040307.20,2234.39448829,N,11431.92258071,E,4,14,2.2,-4.3710,M,-1.3509,M,01,0000*52
$GPRMC,040307.20,A,2234.39448829,N,11431.92258071,E,0.871,259.2,071224,3.4,W,D*25
$GNVTG,288.001,T,291.440,M,1.04284,N,1.93135,K,D*36
$GNHDT,292.3467,T*14
$GPGGA,040307.40,2234.39450626,N,11431.92252117,E,4,14,2.2,-4.2724,M,-1.3509,M,01,0000*51
$GPRMC,040307.40,A,2234.39450626,N,11431.92252117,E,1.043,288.0,071224,3.4,W,D*26
$GNVTG,257.785,T,261.224,M,0.78963,N,1.46239,K,D*3B
$GNHDT,294.5694,T*1A
$GPGGA,040307.60,2234.39449694,N,11431.92247484,E,4,14,2.2,-4.3251,M,-1.3509,M,01,0000*5F
$GPRMC,040307.60,A,2234.39449694,N,11431.92247484,E,0.790,257.8,071224,3.4,W,D*2C
$GNVTG,305.744,T,309.184,M,0.79771,N,1.47736,K,D*31
$GNHDT,290.6552,T*14
$GPGGA,040307.80,2234.39452292,N,11431.92243598,E,4,15,1.8,-4.2129,M,-1.3509,M,01,0000*54
$GPRMC,040307.80,A,2234.39452292,N,11431.92243598,E,0.798,305.7,071224,3.4,W,D*23
$GNVTG,269.592,T,273.031,M,0.50729,N,0.93950,K,D*30
$GNHDT,290.8903,T*12
$GPGGA,040308.00,2234.39452272,N,11431.92240553,E,4,16,1.3,-4.2372,M,-1.3509,M,02,0000*5E
$GPRMC,040308.00,A,2234.39452272,N,11431.92240553,E,0.507,269.6,071224,3.4,W,D*20
$GNVTG,275.776,T,279.215,M,0.41027,N,0.75983,K,D*34
$GNHDT,293.4481,T*1A
$GPGGA,040308.20,2234.39452502,N,11431.92238103,E,4,16,1.3,-4.2400,M,-1.3509,M,02,0000*50
$GPRMC,040308.20,A,2234.39452502,N,11431.92238103,E,0.410,275.8,071224,3.4,W,D*28
$GNVTG,258.247,T,261.687,M,0.60242,N,1.11567,K,D*3D
$GNHDT,294.2390,T*1C
$GPGGA,040308.40,2234.39451818,N,11431.92234562,E,4,15,1.8,-4.3110,M,-1.3509,M,02,0000*51
$GPRMC,040308.40,A,2234.39451818,N,11431.92234562,E,0.602,258.2,071224,3.4,W,D*20
$GNVTG,267.450,T,270.889,M,0.41761,N,0.77341,K,D*35
$GNHDT,292.4614,T*15
$GPGGA,040308.60,2234.39451715,N,11431.92232058,E,4,15,1.8,-4.3187,M,-1.3509,M,02,0000*55
$GPRMC,040308.60,A,2234.39451715,N,11431.92232058,E,0.418,267.5,071224,3.4,W,D*28
$GNVTG,276.941,T,280.380,M,0.45890,N,0.84988,K,D*33
$GNHDT,293.7629,T*19
$GPGGA,040308.80,2234.39452024,N,11431.92229324,E,4,15,1.8,-4.3545,M,-1.3509,M,02,0000*55
$GPRMC,040308.80,A,2234.39452024,N,11431.92229324,E,0.459,276.9,071224,3.4,W,D*2B
$GNVTG,258.126,T,261.566,M,0.46868,N,0.86799,K,D*3F
$GNHDT,295.4951,T*1C
$GPGGA,040309.00,2234.39451486,N,11431.92226570,E,4,15,1.8,-4.4015,M,-1.3509,M,03,0000*5D
$GPRMC,040309.00,A,2234.39451486,N,11431.92226570,E,0.469,258.1,071224,3.4,W,D*22
$GNVTG,276.134,T,279.573,M,0.66223,N,1.22645,K,D*35
$GNHDT,295.0228,T*1D
$GPGGA,040309.20,2234.39451881,N,11431.92222618,E,4,15,1.8,-4.3547,M,-1.3509,M,03,0000*58
$GPRMC,040309.20,A,2234.39451881,N,11431.92222618,E,0.662,276.1,071224,3.4,W,D*27
$GNVTG,316.982,T,320.422,M,0.71787,N,1.32950,K,D*38
$GNHDT,295.5539,T*1F
$GPGGA,040309.40,2234.39454807,N,11431.92219678,E,4,15,1.8,-4.2382,M,-1.3509,M,03,0000*55
$GPRMC,040309.40,A,2234.39454807,N,11431.92219678,E,0.718,317.0,071224,3.4,W,D*2F
$GNVTG,269.664,T,273.104,M,0.82754,N,1.53260,K,D*3D
$GNHDT,295.1048,T*18
$GPGGA,040309.60,2234.39454780,N,11431.92214711,E,4,14,1.9,-4.2209,M,-1.3509,M,03,0000*56
$GPRMC,040309.60,A,2234.39454780,N,11431.92214711,E,0.828,269.7,071224,3.4,W,D*2D
$GNVTG,270.127,T,273.566,M,0.82354,N,1.52520,K,D*33
$GNHDT,296.1661,T*16
$GPGGA,040309.80,2234.39454790,N,11431.92209767,E,4,15,1.8,-4.2156,M,-1.3509,M,03,0000*5D
$GPRMC,040309.80,A,2234.39454790,N,11431.92209767,E,0.824,270.1,071224,3.4,W,D*2D
$GNVTG,286.145,T,289.584,M,0.94488,N,1.74991,K,D*34
$GNHDT,295.8686,T*15
$GPGGA,040310.00,2234.39456254,N,11431.92204319,E,4,15,1.8,-4.1755,M,-1.3509,M,04,0000*53
$GPRMC,040310.00,A,2234.39456254,N,11431.92204319,E,0.945,286.1,071224,3.4,W,D*2D
$GNVTG,266.006,T,269.446,M,1.12329,N,2.08033,K,D*37
$GNHDT,297.7953,T*1F
$GPGGA,040310.20,2234.39455818,N,11431.92197593,E,4,15,1.8,-4.2023,M,-1.3509,M,04,0000*58
$GPRMC,040310.20,A,2234.39455818,N,11431.92197593,E,1.123,266.0,071224,3.4,W,D*25
$GNVTG,278.027,T,281.466,M,0.85239,N,1.57863,K,D*34
$GNHDT,296.9090,T*16
$GPGGA,040310.40,2234.39456482,N,11431.92192526,E,4,15,1.8,-4.1604,M,-1.3509,M,04,0000*59
$GPRMC,040310.40,A,2234.39456482,N,11431.92192526,E,0.852,278.0,071224,3.4,W,D*25
$GNVTG,295.461,T,298.900,M,0.77174,N,1.42926,K,D*37
$GNHDT,293.5170,T*10
$GPGGA,040310.60,2234.39458331,N,11431.92188343,E,4,15,1.8,-4.1421,M,-1.3510,M,04,0000*59
$GPRMC,040310.60,A,2234.39458331,N,11431.92188343,E,0.772,295.5,071224,3.4,W,D*23
$GNVTG,272.568,T,276.007,M,0.72281,N,1.33865,K,D*34
$GNHDT,293.1926,T*1F
$GPGGA,040310.80,2234.39458512,N,11431.92184009,E,4,15,1.8,-4.1808,M,-1.3510,M,04,0000*56
$GPRMC,040310.80,A,2234.39458512,N,11431.92184009,E,0.723,272.6,071224,3.4,W,D*25
$GNVTG,278.120,T,281.559,M,0.72962,N,1.35126,K,D*3E
$GNHDT,292.1027,T*16
$GPGGA,040311.00,2234.39459086,N,11431.92179673,E,4,15,1.8,-4.1811,M,-1.3510,M,05,0000*56
$GPRMC,040311.00,A,2234.39459086,N,11431.92179673,E,0.730,278.1,071224,3.4,W,D*23
$GNVTG,258.532,T,261.971,M,0.60991,N,1.12955,K,D*35
$GNHDT,290.8550,T*18
$GPGGA,040311.20,2234.39458410,N,11431.92176085,E,4,15,1.8,-4.2922,M,-1.3510,M,05,0000*5C
$GPRMC,040311.20,A,2234.39458410,N,11431.92176085,E,0.610,258.5,071224,3.4,W,D*2E
$GNVTG,254.570,T,258.009,M,0.73638,N,1.36378,K,D*3E
$GNHDT,291.8395,T*16
$GPGGA,040311.40,2234.39457318,N,11431.92171824,E,4,15,1.8,-4.3718,M,-1.3510,M,05,0000*58
$GPRMC,040311.40,A,2234.39457318,N,11431.92171824,E,0.736,254.6,071224,3.4,W,D*26
$GNVTG,307.166,T,310.606,M,0.66618,N,1.23376,K,D*32
$GNHDT,289.4571,T*1F
$GPGGA,040311.60,2234.39459562,N,11431.92168637,E,4,15,1.8,-4.2884,M,-1.3510,M,05,0000*50
$GPRMC,040311.60,A,2234.39459562,N,11431.92168637,E,0.666,307.2,071224,3.4,W,D*22
$GNVTG,258.066,T,261.505,M,1.00641,N,1.86388,K,D*3C
$GNHDT,291.1898,T*19
$GPGGA,040311.80,2234.39458402,N,11431.92162727,E,4,15,1.8,-4.3368,M,-1.3510,M,05,0000*5A
$GPRMC,040311.80,A,2234.39458402,N,11431.92162727,E,1.006,258.1,071224,3.4,W,D*29
$GNVTG,287.202,T,290.641,M,0.85660,N,1.58642,K,D*3C
$GNHDT,289.1948,T*1C
$GPGGA,040312.00,2234.39459814,N,11431.92157815,E,4,15,1.8,-4.2529,M,-1.3510,M,06,0000*52
$GPRMC,040312.00,A,2234.39459814,N,11431.92157815,E,0.857,287.2,071224,3.4,W,D*2C
$GNVTG,270.718,T,274.158,M,0.86636,N,1.60450,K,D*35
$GNHDT,289.4920,T*17
$GPGGA,040312.20,2234.39459874,N,11431.92152615,E,4,15,1.8,-4.2310,M,-1.3510,M,06,0000*51
$GPRMC,040312.20,A,2234.39459874,N,11431.92152615,E,0.866,270.7,071224,3.4,W,D*2C
$GNVTG,280.697,T,284.137,M,0.74315,N,1.37631,K,D*34
$GNHDT,289.1313,T*18
$GPGGA,040312.40,2234.39460643,N,11431.92148231,E,4,15,1.8,-4.2086,M,-1.3510,M,06,0000*52
$GPRMC,040312.40,A,2234.39460643,N,11431.92148231,E,0.743,280.7,071224,3.4,W,D*24
$GNVTG,277.104,T,280.543,M,0.64002,N,1.18531,K,D*38
$GNHDT,289.1669,T*10
$GPGGA,040312.60,2234.39461085,N,11431.92144419,E,4,15,1.8,-4.2102,M,-1.3510,M,01,0000*57
$GPRMC,040312.60,A,2234.39461085,N,11431.92144419,E,0.640,277.1,071224,3.4,W,D*27
$GNVTG,276.834,T,280.273,M,0.58039,N,1.07488,K,D*3D
$GNHDT,289.7959,T*1A
$GPGGA,040312.80,2234.39461470,N,11431.92140960,E,4,16,1.4,-4.2138,M,-1.3510,M,00,0000*57
$GPRMC,040312.80,A,2234.39461470,N,11431.92140960,E,0.580,276.8,071224,3.4,W,D*27
$GNVTG,263.782,T,267.221,M,0.79878,N,1.47934,K,D*35
$GNHDT,292.0762,T*11
$GPGGA,040313.00,2234.39460987,N,11431.92136193,E,4,15,1.8,-4.2568,M,-1.3510,M,01,0000*50
$GPRMC,040313.00,A,2234.39460987,N,11431.92136193,E,0.799,263.8,071224,3.4,W,D*21
$GNVTG,280.534,T,283.973,M,0.82051,N,1.51958,K,D*3B
$GNHDT,289.1676,T*1E
$GPGGA,040313.20,2234.39461824,N,11431.92131351,E,4,15,1.8,-4.2139,M,-1.3510,M,01,0000*50
$GPRMC,040313.20,A,2234.39461824,N,11431.92131351,E,0.821,280.5,071224,3.4,W,D*2D
$GNVTG,264.497,T,267.936,M,0.90257,N,1.67156,K,D*36
$GNHDT,290.3618,T*1C
$GPGGA,040313.40,2234.39461341,N,11431.92125958,E,4,15,1.8,-4.2383,M,-1.3510,M,01,0000*5B
$GPRMC,040313.40,A,2234.39461341,N,11431.92125958,E,0.903,264.5,071224,3.4,W,D*2E
$GNVTG,278.432,T,281.872,M,0.72507,N,1.34283,K,D*3E
$GNHDT,290.4475,T*12
$GPGGA,040313.60,2234.39461934,N,11431.92121653,E,4,15,1.8,-4.2352,M,-1.3510,M,01,0000*5D
$GPRMC,040313.60,A,2234.39461934,N,11431.92121653,E,0.725,278.4,071224,3.4,W,D*22
$GNVTG,294.082,T,297.521,M,0.61278,N,1.13486,K,D*34
$GNHDT,290.4700,T*13
$GPGGA,040313.80,2234.39463328,N,11431.92118294,E,4,15,1.8,-4.2385,M,-1.3510,M,00,0000*58
$GPRMC,040313.80,A,2234.39463328,N,11431.92118294,E,0.613,294.1,071224,3.4,W,D*2F
$GNVTG,286.739,T,290.178,M,0.50620,N,0.93747,K,D*33
$GNHDT,292.2184,T*1D
$GPGGA,040314.00,2234.39464140,N,11431.92115385,E,4,15,1.8,-4.2915,M,-1.3510,M,01,0000*52
$GPRMC,040314.00,A,2234.39464140,N,11431.92115385,E,0.506,286.7,071224,3.4,W,D*25
$GNVTG,304.967,T,308.406,M,0.59517,N,1.10226,K,D*37
$GNHDT,292.5072,T*12
$GPGGA,040314.20,2234.39466042,N,11431.92112457,E,4,15,1.8,-4.2599,M,-1.3510,M,01,0000*56
$GPRMC,040314.20,A,2234.39466042,N,11431.92112457,E,0.595,305.0,071224,3.4,W,D*2E
$GNVTG,290.614,T,294.053,M,0.54730,N,1.01360,K,D*39
$GNHDT,293.5475,T*10
$GPGGA,040314.40,2234.39467116,N,11431.92109382,E,4,15,1.8,-4.2443,M,-1.3510,M,01,0000*52
$GPRMC,040314.40,A,2234.39467116,N,11431.92109382,E,0.547,290.6,071224,3.4,W,D*28
$GNVTG,285.112,T,288.551,M,0.70739,N,1.31009,K,D*36
$GNHDT,293.2323,T*13
$GPGGA,040314.60,2234.39468144,N,11431.92105282,E,4,15,1.8,-4.2104,M,-1.3510,M,01,0000*53
$GPRMC,040314.60,A,2234.39468144,N,11431.92105282,E,0.707,285.1,071224,3.4,W,D*2A
$GNVTG,290.188,T,293.627,M,0.68469,N,1.26805,K,D*34
$GNHDT,292.4544,T*13
$GPGGA,040314.80,2234.39469461,N,11431.92101425,E,4,15,1.8,-4.1865,M,-1.3510,M,01,0000*5C
$GPRMC,040314.80,A,2234.39469461,N,11431.92101425,E,0.685,290.2,071224,3.4,W,D*24
$GNVTG,280.303,T,283.742,M,1.02488,N,1.89808,K,D*3D
$GNHDT,292.8157,T*19
$GPGGA,040315.00,2234.39470483,N,11431.92095372,E,4,15,1.8,-4.1496,M,-1.3510,M,02,0000*5B
$GPRMC,040315.00,A,2234.39470483,N,11431.92095372,E,1.025,280.3,071224,3.4,W,D*2D
$GNVTG,275.031,T,278.470,M,0.93714,N,1.73558,K,D*31
$GNHDT,293.0000,T*13
$GPGGA,040315.20,2234.39470941,N,11431.92089768,E,4,15,1.8,-4.2028,M,-1.3510,M,02,0000*5A
$GPRMC,040315.20,A,2234.39470941,N,11431.92089768,E,0.937,275.0,071224,3.4,W,D*2C
$GNVTG,258.449,T,261.889,M,0.88730,N,1.64328,K,D*3C
$GNHDT,294.2004,T*12
$GPGGA,040315.40,2234.39469951,N,11431.92084550,E,4,15,1.8,-4.2871,M,-1.3510,M,02,0000*55
$GPRMC,040315.40,A,2234.39469951,N,11431.92084550,E,0.887,258.4,071224,3.4,W,D*26
$GNVTG,286.080,T,289.520,M,0.88156,N,1.63265,K,D*3F
$GNHDT,293.1696,T*1B
$GPGGA,040315.60,2234.39471312,N,11431.92079465,E,4,15,1.8,-4.2462,M,-1.3510,M,01,0000*5B
$GPRMC,040315.60,A,2234.39471312,N,11431.92079465,E,0.882,286.1,071224,3.4,W,D*26
$GNVTG,271.439,T,274.878,M,0.62354,N,1.15479,K,D*3D
$GNHDT,293.7247,T*15
$GPGGA,040315.80,2234.39471399,N,11431.92075723,E,4,15,1.8,-4.2727,M,-1.3510,M,01,0000*59
$GPRMC,040315.80,A,2234.39471399,N,11431.92075723,E,0.624,271.4,071224,3.4,W,D*29
$GNVTG,294.476,T,297.915,M,0.57072,N,1.05698,K,D*37
$GNHDT,294.3007,T*10
$GPGGA,040316.00,2234.39472718,N,11431.92072605,E,4,15,1.8,-4.3162,M,-1.3510,M,02,0000*5B
$GPRMC,040316.00,A,2234.39472718,N,11431.92072605,E,0.571,294.5,071224,3.4,W,D*27
$GNVTG,319.838,T,323.278,M,0.52069,N,0.96432,K,D*3D
$GNHDT,294.4125,T*16
$GPGGA,040316.20,2234.39474936,N,11431.92070590,E,4,15,1.8,-4.3340,M,-1.3510,M,02,0000*52
$GPRMC,040316.20,A,2234.39474936,N,11431.92070590,E,0.521,319.8,071224,3.4,W,D*20
$GNVTG,332.567,T,336.006,M,0.39812,N,0.73732,K,D*3D
$GNHDT,294.6861,T*1D
$GPGGA,040316.40,2234.39476906,N,11431.92069489,E,4,15,1.8,-4.3189,M,-1.3510,M,02,0000*53
$GPRMC,040316.40,A,2234.39476906,N,11431.92069489,E,0.398,332.6,071224,3.4,W,D*25
$GNVTG,337.282,T,340.721,M,0.48269,N,0.89394,K,D*3A
$GNHDT,294.9175,T*1E
$GPGGA,040316.60,2234.39479388,N,11431.92068370,E,4,15,1.8,-4.3308,M,-1.3510,M,02,0000*59
$GPRMC,040316.60,A,2234.39479388,N,11431.92068370,E,0.483,337.3,071224,3.4,W,D*29
$GNVTG,321.945,T,325.384,M,0.55274,N,1.02368,K,D*34
$GNHDT,294.7762,T*10
$GPGGA,040316.80,2234.39481814,N,11431.92066324,E,4,15,1.8,-4.2910,M,-1.3510,M,02,0000*53
$GPRMC,040316.80,A,2234.39481814,N,11431.92066324,E,0.553,321.9,071224,3.4,W,D*20
$GNVTG,311.027,T,314.466,M,0.71828,N,1.33025,K,D*3E
$GNHDT,294.5824,T*1F
$GPGGA,040317.00,2234.39484443,N,11431.92063072,E,4,15,1.8,-4.2213,M,-1.3510,M,03,0000*5D
$GPRMC,040317.00,A,2234.39484443,N,11431.92063072,E,0.718,311.0,071224,3.4,W,D*20
$GNVTG,292.955,T,296.394,M,1.03829,N,1.92291,K,D*3A
$GNHDT,292.6588,T*11
$GPGGA,040317.20,2234.39486700,N,11431.92057333,E,4,15,1.8,-4.1249,M,-1.3510,M,03,0000*54
$GPRMC,040317.20,A,2234.39486700,N,11431.92057333,E,1.038,293.0,071224,3.4,W,D*2A
$GNVTG,276.257,T,279.696,M,0.95872,N,1.77554,K,D*3A
$GNHDT,295.1522,T*11
$GPGGA,040317.40,2234.39487283,N,11431.92051612,E,4,15,1.8,-4.1434,M,-1.3511,M,03,0000*50
$GPRMC,040317.40,A,2234.39487283,N,11431.92051612,E,0.959,276.3,071224,3.4,W,D*24
$GNVTG,287.680,T,291.119,M,0.94089,N,1.74253,K,D*32
$GNHDT,294.5267,T*12
$GPGGA,040317.60,2234.39488876,N,11431.92046231,E,4,14,1.8,-4.0912,M,-1.3511,M,03,0000*57
$GPRMC,040317.60,A,2234.39488876,N,11431.92046231,E,0.941,287.7,071224,3.4,W,D*29
$GNVTG,266.415,T,269.854,M,0.99279,N,1.83864,K,D*32
$GNHDT,294.9299,T*1F
$GPGGA,040317.80,2234.39488529,N,11431.92040283,E,4,15,1.8,-4.1327,M,-1.3511,M,03,0000*5D
$GPRMC,040317.80,A,2234.39488529,N,11431.92040283,E,0.993,266.4,071224,3.4,W,D*2C
$GNVTG,279.757,T,283.196,M,0.67467,N,1.24949,K,D*31
$GNHDT,293.5551,T*17
$GPGGA,040318.00,2234.39489167,N,11431.92036292,E,4,15,1.8,-4.2199,M,-1.3511,M,04,0000*57
$GPRMC,040318.00,A,2234.39489167,N,11431.92036292,E,0.675,279.8,071224,3.4,W,D*20
$GNVTG,288.305,T,291.745,M,0.59854,N,1.10850,K,D*38
$GNHDT,293.1567,T*16
$GPGGA,040318.20,2234.39490215,N,11431.92032881,E,4,15,1.8,-4.2570,M,-1.3511,M,04,0000*54
$GPRMC,040318.20,A,2234.39490215,N,11431.92032881,E,0.599,288.3,071224,3.4,W,D*24
$GNVTG,282.911,T,286.350,M,0.53993,N,0.99996,K,D*30
$GNHDT,292.6909,T*14
$GPGGA,040318.40,2234.39490887,N,11431.92029721,E,4,15,1.8,-4.3063,M,-1.3511,M,04,0000*5A
$GPRMC,040318.40,A,2234.39490887,N,11431.92029721,E,0.540,282.9,071224,3.4,W,D*28
$GNVTG,276.225,T,279.664,M,0.60878,N,1.12746,K,D*30
$GNHDT,292.9524,T*18
$GPGGA,040318.60,2234.39491255,N,11431.92026089,E,4,15,1.8,-4.3181,M,-1.3511,M,03,0000*5C
$GPRMC,040318.60,A,2234.39491255,N,11431.92026089,E,0.609,276.2,071224,3.4,W,D*2A
$GNVTG,296.780,T,300.219,M,0.67229,N,1.24508,K,D*31
$GNHDT,291.3394,T*1C
$GPGGA,040318.80,2234.39492944,N,11431.92022486,E,4,15,1.8,-4.2926,M,-1.3511,M,00,0000*52
$GPRMC,040318.80,A,2234.39492944,N,11431.92022486,E,0.672,296.8,071224,3.4,W,D*2B
$GNVTG,270.718,T,274.157,M,0.85179,N,1.57751,K,D*33
$GNHDT,293.1610,T*15
$GPGGA,040319.00,2234.39493003,N,11431.92017373,E,4,15,1.8,-4.2960,M,-1.3511,M,01,0000*58
$GPRMC,040319.00,A,2234.39493003,N,11431.92017373,E,0.852,270.7,071224,3.4,W,D*29
$GNVTG,287.443,T,290.883,M,1.00568,N,1.86252,K,D*3E
$GNHDT,292.3163,T*15
$GPGGA,040319.20,2234.39494684,N,11431.92011614,E,4,15,1.8,-4.2301,M,-1.3511,M,01,0000*5B
$GPRMC,040319.20,A,2234.39494684,N,11431.92011614,E,1.006,287.4,071224,3.4,W,D*24
$GNVTG,291.589,T,295.028,M,0.94380,N,1.74792,K,D*3A
$GNHDT,291.2886,T*15
$GPGGA,040319.40,2234.39496620,N,11431.92006346,E,4,15,1.8,-4.1337,M,-1.3511,M,01,0000*53
$GPRMC,040319.40,A,2234.39496620,N,11431.92006346,E,0.944,291.6,071224,3.4,W,D*21
$GNVTG,274.671,T,278.110,M,0.78584,N,1.45538,K,D*3C
$GNHDT,291.2071,T*15
$GPGGA,040319.60,2234.39496977,N,11431.92001645,E,4,15,1.8,-4.1347,M,-1.3511,M,01,0000*5A
$GPRMC,040319.60,A,2234.39496977,N,11431.92001645,E,0.786,274.7,071224,3.4,W,D*25
$GNVTG,265.079,T,268.519,M,0.58791,N,1.08881,K,D*3C
$GNHDT,292.3537,T*10
$GPGGA,040319.80,2234.39496696,N,11431.91998128,E,4,15,1.8,-4.1963,M,-1.3511,M,00,0000*5F
$GPRMC,040319.80,A,2234.39496696,N,11431.91998128,E,0.588,265.1,071224,3.4,W,D*27
$GNVTG,292.648,T,296.087,M,0.52857,N,0.97891,K,D*3A
$GNHDT,291.2837,T*1F
$GPGGA,040320.00,2234.39497830,N,11431.91995200,E,4,15,1.8,-4.1874,M,-1.3511,M,01,0000*5C
$GPRMC,040320.00,A,2234.39497830,N,11431.91995200,E,0.529,292.6,071224,3.4,W,D*26
$GNVTG,277.784,T,281.224,M,0.42653,N,0.78993,K,D*34
$GNHDT,291.0530,T*17
$GPGGA,040320.20,2234.39498152,N,11431.91992663,E,4,15,1.8,-4.2454,M,-1.3511,M,01,0000*57
$GPRMC,040320.20,A,2234.39498152,N,11431.91992663,E,0.427,277.8,071224,3.4,W,D*2A
$GNVTG,258.995,T,262.435,M,0.51013,N,0.94477,K,D*39
$GNHDT,291.1100,T*11
$GPGGA,040320.40,2234.39497609,N,11431.91989658,E,4,15,1.8,-4.2954,M,-1.3511,M,01,0000*58
$GPRMC,040320.40,A,2234.39497609,N,11431.91989658,E,0.510,259.0,071224,3.4,W,D*29
$GNVTG,259.092,T,262.531,M,0.62521,N,1.15789,K,D*3D
$GNHDT,291.6538,T*19
$GPGGA,040320.60,2234.39496950,N,11431.91985972,E,4,16,1.3,-4.3495,M,-1.3511,M,01,0000*5A
$GPRMC,040320.60,A,2234.39496950,N,11431.91985972,E,0.625,259.1,071224,3.4,W,D*26
$GNVTG,287.513,T,290.952,M,0.64682,N,1.19792,K,D*3C
$GNHDT,291.4619,T*1B
$GPGGA,040320.80,2234.39498035,N,11431.91982270,E,4,16,1.3,-4.3237,M,-1.3511,M,00,0000*51
$GPRMC,040320.80,A,2234.39498035,N,11431.91982270,E,0.647,287.5,071224,3.4,W,D*21
$GNVTG,281.933,T,285.372,M,0.65385,N,1.21092,K,D*37
$GNHDT,291.2749,T*19
$GPGGA,040321.00,2234.39498789,N,11431.91978430,E,4,15,1.8,-4.3069,M,-1.3511,M,01,0000*5F
$GPRMC,040321.00,A,2234.39498789,N,11431.91978430,E,0.654,281.9,071224,3.4,W,D*27
$GNVTG,280.196,T,283.635,M,0.59976,N,1.11075,K,D*32
$GNHDT,290.8478,T*13
$GPGGA,040321.20,2234.39499380,N,11431.91974886,E,4,15,1.8,-4.2976,M,-1.3511,M,01,0000*5A
$GPRMC,040321.20,A,2234.39499380,N,11431.91974886,E,0.600,280.2,071224,3.4,W,D*2F
$GNVTG,287.742,T,291.181,M,0.68484,N,1.26832,K,D*3C
$GNHDT,290.6337,T*11
$GPGGA,040321.40,2234.39500544,N,11431.91970971,E,4,15,1.8,-4.2222,M,-1.3511,M,01,0000*54
$GPRMC,040321.40,A,2234.39500544,N,11431.91970971,E,0.685,287.7,071224,3.4,W,D*24
$GNVTG,274.900,T,278.339,M,0.69978,N,1.29599,K,D*32
$GNHDT,292.4145,T*16
$GPGGA,040321.60,2234.39500877,N,11431.91966786,E,4,15,1.8,-4.1618,M,-1.3511,M,01,0000*54
$GPRMC,040321.60,A,2234.39500877,N,11431.91966786,E,0.700,274.9,071224,3.4,W,D*24
$GNVTG,266.508,T,269.947,M,0.59066,N,1.09390,K,D*3E
$GNHDT,293.4610,T*10
$GPGGA,040321.80,2234.39500676,N,11431.91963247,E,4,16,1.3,-4.1784,M,-1.3511,M,00,0000*55
$GPRMC,040321.80,A,2234.39500676,N,11431.91963247,E,0.591,266.5,071224,3.4,W,D*2D
$GNVTG,282.635,T,286.074,M,0.59123,N,1.09496,K,D*30
$GNHDT,293.8511,T*1E
$GPGGA,040322.00,2234.39501397,N,11431.91959784,E,4,16,1.3,-4.1672,M,-1.3511,M,01,0000*5F
$GPRMC,040322.00,A,2234.39501397,N,11431.91959784,E,0.591,282.6,071224,3.4,W,D*27
$GNVTG,269.914,T,273.353,M,0.49185,N,0.91091,K,D*3B
$GNHDT,293.7923,T*1C
$GPGGA,040322.20,2234.39501393,N,11431.91956831,E,4,16,1.3,-4.2132,M,-1.3511,M,01,0000*57
$GPRMC,040322.20,A,2234.39501393,N,11431.91956831,E,0.492,269.9,071224,3.4,W,D*27
$GNVTG,275.152,T,278.591,M,0.39560,N,0.73265,K,D*32
$GNHDT,293.4124,T*10
$GPGGA,040322.40,2234.39501591,N,11431.91954466,E,4,16,1.3,-4.2707,M,-1.3511,M,01,0000*59
$GPRMC,040322.40,A,2234.39501591,N,11431.91954466,E,0.396,275.2,071224,3.4,W,D*2C
$GNVTG,272.765,T,276.204,M,0.52769,N,0.97729,K,D*33
$GNHDT,293.3516,T*12
$GPGGA,040322.60,2234.39501733,N,11431.91951302,E,4,16,1.3,-4.2862,M,-1.3511,M,01,0000*5D
$GPRMC,040322.60,A,2234.39501733,N,11431.91951302,E,0.528,272.8,071224,3.4,W,D*2A
$GNVTG,266.865,T,270.305,M,0.73543,N,1.36201,K,D*33
$GNHDT,293.9990,T*1A
$GPGGA,040322.80,2234.39501509,N,11431.91946894,E,4,15,1.8,-4.3115,M,-1.3511,M,00,0000*5B
$GPRMC,040322.80,A,2234.39501509,N,11431.91946894,E,0.735,266.9,071224,3.4,W,D*27
$GNVTG,286.604,T,290.043,M,0.66189,N,1.22582,K,D*34
$GNHDT,294.0180,T*1D
$GPGGA,040323.00,2234.39502563,N,11431.91943087,E,4,15,1.8,-4.2662,M,-1.3511,M,01,0000*55
$GPRMC,040323.00,A,2234.39502563,N,11431.91943087,E,0.662,286.6,071224,3.4,W,D*2C
$GNVTG,276.134,T,279.573,M,0.81255,N,1.50485,K,D*36
$GNHDT,294.3853,T*19
$GPGGA,040323.20,2234.39503047,N,11431.91938237,E,4,15,1.8,-4.2338,M,-1.3511,M,01,0000*5A
$GPRMC,040323.20,A,2234.39503047,N,11431.91938237,E,0.813,276.1,071224,3.4,W,D*29
$GNVTG,283.248,T,286.687,M,0.67985,N,1.25907,K,D*37
$GNHDT,295.5743,T*10
$GPGGA,040323.40,2234.39503916,N,11431.91934265,E,4,15,1.8,-4.2150,M,-1.3511,M,01,0000*56
$GPRMC,040323.40,A,2234.39503916,N,11431.91934265,E,0.680,283.2,071224,3.4,W,D*24
$GNVTG,302.125,T,305.564,M,0.58742,N,1.08790,K,D*35
$GNHDT,295.8652,T*1C
$GPGGA,040323.60,2234.39505657,N,11431.91931278,E,4,15,1.8,-4.2345,M,-1.3511,M,01,0000*57
$GPRMC,040323.60,A,2234.39505657,N,11431.91931278,E,0.587,302.1,071224,3.4,W,D*2C
$GNVTG,295.729,T,299.168,M,0.55067,N,1.01984,K,D*33
$GNHDT,296.1175,T*14
$GPGGA,040323.80,2234.39506990,N,11431.91928301,E,4,15,1.8,-4.2479,M,-1.3511,M,01,0000*51
$GPRMC,040323.80,A,2234.39506990,N,11431.91928301,E,0.551,295.7,071224,3.4,W,D*20
$GNVTG,314.900,T,318.339,M,0.54852,N,1.01587,K,D*30
$GNHDT,295.4427,T*10
$GPGGA,040324.00,2234.39509148,N,11431.91925968,E,4,15,1.8,-4.2447,M,-1.3511,M,02,0000*5A
$GPRMC,040324.00,A,2234.39509148,N,11431.91925968,E,0.549,314.9,071224,3.4,W,D*2A
$GNVTG,279.735,T,283.174,M,0.44401,N,0.82231,K,D*31
$GNHDT,296.7374,T*11
$GPGGA,040324.20,2234.39509567,N,11431.91923341,E,4,15,1.8,-4.3116,M,-1.3511,M,02,0000*56
$GPRMC,040324.20,A,2234.39509567,N,11431.91923341,E,0.444,279.7,071224,3.4,W,D*2E
$GNVTG,314.025,T,317.464,M,0.65499,N,1.21304,K,D*38
$GNHDT,296.4392,T*1A
$GPGGA,040324.40,2234.39512105,N,11431.91920514,E,4,15,1.8,-4.2215,M,-1.3511,M,02,0000*5E
$GPRMC,040324.40,A,2234.39512105,N,11431.91920514,E,0.655,314.0,071224,3.4,W,D*28
$GNVTG,296.045,T,299.484,M,0.76095,N,1.40928,K,D*35
$GNHDT,296.7128,T*1A
$GPGGA,040324.60,2234.39513967,N,11431.91916410,E,4,15,1.8,-4.2106,M,-1.3512,M,02,0000*53
$GPRMC,040324.60,A,2234.39513967,N,11431.91916410,E,0.761,296.0,071224,3.4,W,D*2A
$GNVTG,288.686,T,292.125,M,0.77918,N,1.44304,K,D*3B
$GNHDT,296.9439,T*11
$GPGGA,040324.80,2234.39515359,N,11431.91911980,E,4,15,1.8,-4.1932,M,-1.3512,M,00,0000*51
$GPRMC,040324.80,A,2234.39515359,N,11431.91911980,E,0.779,288.7,071224,3.4,W,D*27
$GNVTG,296.417,T,299.856,M,0.85555,N,1.58448,K,D*32
$GNHDT,297.4083,T*18
$GPGGA,040325.00,2234.39517481,N,11431.91907380,E,4,15,1.8,-4.1453,M,-1.3512,M,01,0000*5E
$GPRMC,040325.00,A,2234.39517481,N,11431.91907380,E,0.856,296.4,071224,3.4,W,D*2D
$GNVTG,275.000,T,278.439,M,0.86850,N,1.60846,K,D*35
$GNHDT,297.6640,T*13
$GPGGA,040325.20,2234.39517903,N,11431.91902187,E,4,15,1.8,-4.1721,M,-1.3512,M,01,0000*5D
$GPRMC,040325.20,A,2234.39517903,N,11431.91902187,E,0.869,275.0,071224,3.4,W,D*2D
$GNVTG,280.536,T,283.975,M,0.74101,N,1.37236,K,D*31
$GNHDT,298.5426,T*1D
$GPGGA,040325.40,2234.39518658,N,11431.91897814,E,4,15,1.8,-4.2202,M,-1.3512,M,01,0000*5C
$GPRMC,040325.40,A,2234.39518658,N,11431.91897814,E,0.741,280.5,071224,3.4,W,D*21
$GNVTG,292.630,T,296.070,M,0.68090,N,1.26102,K,D*3F
$GNHDT,297.5859,T*16
$GPGGA,040325.60,2234.39520119,N,11431.91894041,E,4,15,1.8,-4.2552,M,-1.3512,M,01,0000*5E
$GPRMC,040325.60,A,2234.39520119,N,11431.91894041,E,0.681,292.6,071224,3.4,W,D*2C
$GNVTG,298.761,T,302.201,M,0.49057,N,0.90854,K,D*36
$GNHDT,297.4856,T*18
$GPGGA,040325.80,2234.39521434,N,11431.91891460,E,4,15,1.8,-4.2686,M,-1.3512,M,00,0000*52
$GPRMC,040325.80,A,2234.39521434,N,11431.91891460,E,0.491,298.8,071224,3.4,W,D*2C
$GNVTG,294.325,T,297.765,M,0.43477,N,0.80519,K,D*3D
$GNHDT,297.3441,T*15
$GPGGA,040326.00,2234.39522433,N,11431.91889082,E,4,15,1.8,-4.2917,M,-1.3512,M,01,0000*5A
$GPRMC,040326.00,A,2234.39522433,N,11431.91889082,E,0.435,294.3,071224,3.4,W,D*2B
$GNVTG,297.714,T,301.153,M,0.54757,N,1.01410,K,D*32
$GNHDT,297.3271,T*10
$GPGGA,040326.20,2234.39523852,N,11431.91886172,E,4,14,1.8,-4.2647,M,-1.3512,M,01,0000*58
$GPRMC,040326.20,A,2234.39523852,N,11431.91886172,E,0.548,297.7,071224,3.4,W,D*2E
$GNVTG,314.159,T,317.598,M,0.51690,N,0.95730,K,D*31
$GNHDT,295.8555,T*18
$GPGGA,040326.40,2234.39525860,N,11431.91883946,E,4,14,1.8,-4.2314,M,-1.3512,M,01,0000*50
$GPRMC,040326.40,A,2234.39525860,N,11431.91883946,E,0.517,314.2,071224,3.4,W,D*20
$GNVTG,276.349,T,279.789,M,0.75918,N,1.40601,K,D*3F
$GNHDT,297.8051,T*1B
$GPGGA,040326.60,2234.39526328,N,11431.91879417,E,4,14,1.8,-4.2203,M,-1.3512,M,01,0000*5D
$GPRMC,040326.60,A,2234.39526328,N,11431.91879417,E,0.759,276.3,071224,3.4,W,D*26
$GNVTG,289.530,T,292.969,M,0.66508,N,1.23174,K,D*3D
$GNHDT,297.6389,T*13
$GPGGA,040326.80,2234.39527567,N,11431.91875654,E,4,14,1.8,-4.1923,M,-1.3512,M,00,0000*5D
$GPRMC,040326.80,A,2234.39527567,N,11431.91875654,E,0.665,289.5,071224,3.4,W,D*25
$GNVTG,290.984,T,294.423,M,0.79239,N,1.46750,K,D*3B
$GNHDT,297.3460,T*16
$GPGGA,040327.00,2234.39529149,N,11431.91871213,E,4,14,1.8,-4.1699,M,-1.3512,M,01,0000*5E
$GPRMC,040327.00,A,2234.39529149,N,11431.91871213,E,0.792,291.0,071224,3.4,W,D*2C
$GNVTG,280.727,T,284.166,M,0.67686,N,1.25354,K,D*32
$GNHDT,298.4430,T*1B
$GPGGA,040327.20,2234.39529852,N,11431.91867221,E,4,14,1.8,-4.2279,M,-1.3512,M,01,0000*50
$GPRMC,040327.20,A,2234.39529852,N,11431.91867221,E,0.677,280.7,071224,3.4,W,D*26
$GNVTG,309.162,T,312.601,M,0.58497,N,1.08337,K,D*39
$GNHDT,297.3289,T*17
$GPGGA,040327.40,2234.39531911,N,11431.91864498,E,4,14,1.8,-4.2424,M,-1.3512,M,01,0000*50
$GPRMC,040327.40,A,2234.39531911,N,11431.91864498,E,0.585,309.2,071224,3.4,W,D*23
$GNVTG,316.528,T,319.967,M,0.55559,N,1.02896,K,D*3D
$GNHDT,295.6661,T*12
$GPGGA,040327.60,2234.39534159,N,11431.91862204,E,4,14,1.8,-4.2062,M,-1.3512,M,01,0000*50
$GPRMC,040327.60,A,2234.39534159,N,11431.91862204,E,0.556,316.5,071224,3.4,W,D*22
$GNVTG,297.995,T,301.434,M,0.59413,N,1.10033,K,D*3A
$GNHDT,295.7236,T*15
$GPGGA,040327.80,2234.39535713,N,11431.91859055,E,4,16,1.4,-4.1601,M,-1.3512,M,00,0000*56
$GPRMC,040327.80,A,2234.39535713,N,11431.91859055,E,0.594,298.0,071224,3.4,W,D*27
$GNVTG,266.786,T,270.225,M,0.70334,N,1.30259,K,D*3C
$GNHDT,296.6140,T*15
$GPGGA,040328.00,2234.39535494,N,11431.91854839,E,4,16,1.4,-4.1985,M,-1.3512,M,01,0000*50
$GPRMC,040328.00,A,2234.39535494,N,11431.91854839,E,0.703,266.8,071224,3.4,W,D*26
$GNVTG,279.676,T,283.115,M,0.93980,N,1.74051,K,D*32
$GNHDT,296.5214,T*14
$GPGGA,040328.20,2234.39536374,N,11431.91849278,E,4,16,1.4,-4.1757,M,-1.3512,M,01,0000*5A
$GPRMC,040328.20,A,2234.39536374,N,11431.91849278,E,0.940,279.7,071224,3.4,W,D*25
$GNVTG,292.219,T,295.659,M,1.05088,N,1.94624,K,D*37
$GNHDT,297.2756,T*11
$GPGGA,040328.40,2234.39537086,N,11431.91843108,E,4,15,1.8,-4.1503,M,-1.3512,M,01,0000*51
$GPRMC,040328.40,A,2234.39537086,N,11431.91843108,E,1.051,292.2,071224,3.4,W,D*2A
$GNVTG,293.035,T,296.474,M,0.82705,N,1.53170,K,D*35
$GNHDT,298.2279,T*16
$GPGGA,040328.60,2234.39538728,N,11431.91838137,E,4,15,1.8,-4.1382,M,-1.3512,M,01,0000*50
$GPRMC,040328.60,A,2234.39538728,N,11431.91838137,E,0.827,293.0,071224,3.4,W,D*2F
$GNVTG,311.512,T,314.951,M,0.58196,N,1.07780,K,D*3C
$GNHDT,297.8340,T*18
$GPGGA,040328.80,2234.39539887,N,11431.91834464,E,4,15,1.8,-4.1670,M,-1.3512,M,00,0000*53
$GPRMC,040328.80,A,2234.39539887,N,11431.91834464,E,0.582,311.5,071224,3.4,W,D*29
$GNVTG,325.373,T,328.812,M,0.34135,N,0.63218,K,D*37
$GNHDT,296.4443,T*11
$GPGGA,040329.00,2234.39541742,N,11431.91832737,E,4,15,1.8,-4.1612,M,-1.3512,M,01,0000*55
$GPRMC,040329.00,A,2234.39541742,N,11431.91832737,E,0.341,325.4,071224,3.4,W,D*25
$GNVTG,297.958,T,301.397,M,0.34408,N,0.63724,K,D*30
$GNHDT,296.2874,T*1F
$GPGGA,040329.20,2234.39542642,N,11431.91830719,E,4,15,1.8,-4.2156,M,-1.3512,M,01,0000*5F
$GPRMC,040329.20,A,2234.39542642,N,11431.91830719,E,0.344,298.0,071224,3.4,W,D*2D
$GNVTG,292.493,T,295.932,M,0.54201,N,1.00380,K,D*31
$GNHDT,295.7662,T*10
$GPGGA,040329.40,2234.39544764,N,11431.91828018,E,4,15,1.8,-4.2087,M,-1.3512,M,01,0000*58
$GPRMC,040329.40,A,2234.39544764,N,11431.91828018,E,0.542,292.5,071224,3.4,W,D*28
$GNVTG,295.275,T,298.714,M,0.59456,N,1.10112,K,D*3E
$GNHDT,296.2010,T*15
$GPGGA,040329.60,2234.39546179,N,11431.91824791,E,4,16,1.4,-4.2218,M,-1.3512,M,01,0000*53
$GPRMC,040329.60,A,2234.39546179,N,11431.91824791,E,0.595,295.3,071224,3.4,W,D*23
$GNVTG,288.183,T,291.622,M,0.76183,N,1.41090,K,D*3A
$GNHDT,296.6233,T*12
$GPGGA,040329.80,2234.39547504,N,11431.91820446,E,4,16,1.4,-4.2058,M,-1.3512,M,01,0000*59
$GPRMC,040329.80,A,2234.39547504,N,11431.91820446,E,0.762,288.2,071224,3.4,W,D*28
$GNVTG,301.081,T,304.520,M,0.82888,N,1.53508,K,D*3B
$GNHDT,295.6990,T*13
$GPGGA,040330.00,2234.39549890,N,11431.91816185,E,4,15,1.8,-4.1506,M,-1.3512,M,02,0000*59
$GPRMC,040330.00,A,2234.39549890,N,11431.91816185,E,0.829,301.1,071224,3.4,W,D*2A
$GNVTG,280.199,T,283.638,M,0.78764,N,1.45871,K,D*33
$GNHDT,297.2973,T*18
$GPGGA,040330.20,2234.39550667,N,11431.91811532,E,4,15,1.8,-4.1518,M,-1.3512,M,02,0000*55
$GPRMC,040330.20,A,2234.39550667,N,11431.91811532,E,0.788,280.2,071224,3.4,W,D*26
$GNVTG,290.363,T,293.802,M,0.74117,N,1.37265,K,D*37
$GNHDT,295.9082,T*16
$GPGGA,040330.40,2234.39552105,N,11431.91807361,E,4,15,1.8,-4.0889,M,-1.3512,M,01,0000*52
$GPRMC,040330.40,A,2234.39552105,N,11431.91807361,E,0.741,290.4,071224,3.4,W,D*24
$GNVTG,276.005,T,279.444,M,0.66316,N,1.22818,K,D*32
$GNHDT,296.0190,T*1E
$GPGGA,040330.60,2234.39552492,N,11431.91803402,E,4,15,1.8,-4.0922,M,-1.3512,M,01,0000*5D
$GPRMC,040330.60,A,2234.39552492,N,11431.91803402,E,0.663,276.0,071224,3.4,W,D*26
$GNVTG,276.873,T,280.312,M,0.74787,N,1.38505,K,D*3C
$GNHDT,296.4854,T*1B
$GPGGA,040330.80,2234.39552991,N,11431.91798945,E,4,15,1.8,-4.0997,M,-1.3512,M,00,0000*51
$GPRMC,040330.80,A,2234.39552991,N,11431.91798945,E,0.748,276.9,071224,3.4,W,D*24
$GNVTG,267.940,T,271.379,M,0.84661,N,1.56793,K,D*3D
$GNHDT,296.9542,T*1C
$GPGGA,040331.00,2234.39552821,N,11431.91793866,E,4,15,1.8,-4.1560,M,-1.3512,M,01,0000*5D
$GPRMC,040331.00,A,2234.39552821,N,11431.91793866,E,0.847,267.9,071224,3.4,W,D*2C
$GNVTG,283.561,T,287.001,M,0.69531,N,1.28771,K,D*3D
$GNHDT,295.5714,T*12
$GPGGA,040331.20,2234.39553730,N,11431.91789809,E,4,15,1.8,-4.1640,M,-1.3512,M,01,0000*52
$GPRMC,040331.20,A,2234.39553730,N,11431.91789809,E,0.695,283.6,071224,3.4,W,D*26
$GNVTG,270.862,T,274.301,M,0.78165,N,1.44761,K,D*3E
$GNHDT,295.8735,T*1C
$GPGGA,040331.40,2234.39553795,N,11431.91785117,E,4,15,1.8,-4.2308,M,-1.3512,M,01,0000*5B
$GPRMC,040331.40,A,2234.39553795,N,11431.91785117,E,0.782,270.9,071224,3.4,W,D*21
$GNVTG,288.054,T,291.494,M,0.70784,N,1.31091,K,D*3F
$GNHDT,294.9192,T*17
$GPGGA,040331.60,2234.39555018,N,11431.91781077,E,4,16,1.4,-4.2252,M,-1.3512,M,01,0000*5F
$GPRMC,040331.60,A,2234.39555018,N,11431.91781077,E,0.708,288.1,071224,3.4,W,D*29
$GNVTG,298.267,T,301.706,M,0.68462,N,1.26791,K,D*3F
$GNHDT,294.6202,T*12
$GPGGA,040331.80,2234.39556826,N,11431.91777458,E,4,16,1.4,-4.2651,M,-1.3512,M,00,0000*51
$GPRMC,040331.80,A,2234.39556826,N,11431.91777458,E,0.685,298.3,071224,3.4,W,D*26
$GNVTG,319.229,T,322.668,M,0.70835,N,1.31187,K,D*35
$GNHDT,294.8123,T*1C
$GPGGA,040332.00,2234.39559816,N,11431.91774681,E,4,15,1.8,-4.2589,M,-1.3512,M,01,0000*5B
$GPRMC,040332.00,A,2234.39559816,N,11431.91774681,E,0.708,319.2,071224,3.4,W,D*29
$GNVTG,325.990,T,329.429,M,0.61276,N,1.13482,K,D*32
$GNHDT,295.0509,T*19
$GPGGA,040332.20,2234.39562648,N,11431.91772624,E,4,15,1.8,-4.2600,M,-1.3512,M,01,0000*5F
$GPRMC,040332.20,A,2234.39562648,N,11431.91772624,E,0.613,326.0,071224,3.4,W,D*2A
$GNVTG,335.754,T,339.194,M,0.66856,N,1.23817,K,D*3B
$GNHDT,295.5235,T*14
$GPGGA,040332.40,2234.39566046,N,11431.91770976,E,4,15,1.8,-4.2342,M,-1.3512,M,01,0000*5C
$GPRMC,040332.40,A,2234.39566046,N,11431.91770976,E,0.669,335.8,071224,3.4,W,D*2D
$GNVTG,321.967,T,325.406,M,0.44217,N,0.81890,K,D*3A
$GNHDT,297.0827,T*1A
$GPGGA,040332.60,2234.39567988,N,11431.91769340,E,4,16,1.4,-4.3014,M,-1.3513,M,01,0000*5C
$GPRMC,040332.60,A,2234.39567988,N,11431.91769340,E,0.442,322.0,071224,3.4,W,D*27
$GNVTG,334.157,T,337.596,M,0.60747,N,1.12504,K,D*33
$GNHDT,296.2101,T*14
$GPGGA,040332.80,2234.39571036,N,11431.91767751,E,4,16,1.4,-4.2898,M,-1.3513,M,00,0000*5F
$GPRMC,040332.80,A,2234.39571036,N,11431.91767751,E,0.607,334.2,071224,3.4,W,D*2E
$GNVTG,326.566,T,330.005,M,0.77380,N,1.43308,K,D*39
$GNHDT,296.4649,T*19
$GPGGA,040333.00,2234.39574636,N,11431.91765192,E,4,15,1.8,-4.2047,M,-1.3513,M,01,0000*5A
$GPRMC,040333.00,A,2234.39574636,N,11431.91765192,E,0.774,326.6,071224,3.4,W,D*2D
$GNVTG,297.851,T,301.290,M,0.52150,N,0.96582,K,D*32
$GNHDT,295.7948,T*17
$GPGGA,040333.20,2234.39575994,N,11431.91762424,E,4,15,1.8,-4.1931,M,-1.3513,M,01,0000*5A
$GPRMC,040333.20,A,2234.39575994,N,11431.91762424,E,0.521,297.9,071224,3.4,W,D*20
$GNVTG,268.066,T,271.506,M,0.50111,N,0.92806,K,D*32
$GNHDT,297.6965,T*1B
$GPGGA,040333.40,2234.39575899,N,11431.91759417,E,4,15,1.8,-4.1781,M,-1.3513,M,01,0000*5D
$GPRMC,040333.40,A,2234.39575899,N,11431.91759417,E,0.501,268.1,071224,3.4,W,D*28
$GNVTG,291.970,T,295.409,M,0.56554,N,1.04738,K,D*31
$GNHDT,298.7243,T*1A
$GPGGA,040333.60,2234.39577079,N,11431.91756269,E,4,15,1.8,-4.1674,M,-1.3513,M,01,0000*50
$GPRMC,040333.60,A,2234.39577079,N,11431.91756269,E,0.566,292.0,071224,3.4,W,D*2B
$GNVTG,290.689,T,294.128,M,0.61884,N,1.14610,K,D*30
$GNHDT,297.5392,T*1A
$GPGGA,040333.80,2234.39578298,N,11431.91752794,E,4,16,1.4,-4.1103,M,-1.3513,M,00,0000*56
$GPRMC,040333.80,A,2234.39578298,N,11431.91752794,E,0.619,290.7,071224,3.4,W,D*2A
$GNVTG,257.918,T,261.357,M,0.60437,N,1.11929,K,D*39
$GNHDT,298.4914,T*10
$GPGGA,040334.00,2234.39577593,N,11431.91749247,E,4,16,1.4,-4.1503,M,-1.3513,M,01,0000*5E
$GPRMC,040334.00,A,2234.39577593,N,11431.91749247,E,0.604,257.9,071224,3.4,W,D*2E
$GNVTG,259.404,T,262.843,M,0.75409,N,1.39657,K,D*3F
$GNHDT,298.5746,T*18
$GPGGA,040334.20,2234.39576820,N,11431.91744797,E,4,16,1.4,-4.1966,M,-1.3513,M,01,0000*52
$GPRMC,040334.20,A,2234.39576820,N,11431.91744797,E,0.754,259.4,071224,3.4,W,D*2A
