7.0,071224,3.4,W,D*2B
$GNVTG,308.677,T,312.116,M,0.61904,N,1.14646,K,D*39
$GNHDT,334.0730,T*1B
$GPGGA,045244.80,2234.57656767,N,11431.51334975,E,4,17,1.1,-3.9693,M,-1.3801,M,03,0000*51
$GPRMC,045244.80,A,2234.57656767,N,11431.51334975,E,0.619,308.7,071224,3.4,W,D*25
$GNVTG,319.607,T,323.045,M,0.58134,N,1.07664,K,D*38
$GNHDT,333.8253,T*14
$GPGGA,045245.00,2234.57659235,N,11431.51332714,E,4,17,1.1,-3.9941,M,-1.3801,M,04,0000*5D
$GPRMC,045245.00,A,2234.57659235,N,11431.51332714,E,0.581,319.6,071224,3.4,W,D*2D
$GNVTG,318.694,T,322.132,M,0.52677,N,0.97558,K,D*3D
$GNHDT,333.4115,T*19
$GPGGA,045245.20,2234.57661441,N,11431.51330626,E,4,17,1.1,-4.0078,M,-1.3801,M,04,0000*5E
$GPRMC,045245.20,A,2234.57661441,N,11431.51330626,E,0.527,318.7,071224,3.4,W,D*2F
$GNVTG,349.107,T,352.545,M,0.35945,N,0.66571,K,D*3D
$GNHDT,332.6934,T*11
$GPGGA,045245.40,2234.57663409,N,11431.51330219,E,4,16,1.1,-4.0268,M,-1.3801,M,04,0000*5C
$GPRMC,045245.40,A,2234.57663409,N,11431.51330219,E,0.359,349.1,071224,3.4,W,D*22
$GNVTG,296.160,T,299.598,M,0.42899,N,0.79449,K,D*3D
$GNHDT,333.5327,T*1B
$GPGGA,045245.60,2234.57664464,N,11431.51327907,E,4,16,1.1,-4.0329,M,-1.3801,M,04,0000*54
$GPRMC,045245.60,A,2234.57664464,N,11431.51327907,E,0.429,296.2,071224,3.4,W,D*2E
$GNVTG,326.562,T,330.001,M,0.63139,N,1.16933,K,D*3E
$GNHDT,333.5883,T*1E
$GPGGA,045245.80,2234.57667401,N,11431.51325819,E,4,16,1.1,-4.0686,M,-1.3801,M,04,0000*56
$GPRMC,045245.80,A,2234.57667401,N,11431.51325819,E,0.631,326.6,071224,3.4,W,D*29
$GNVTG,306.369,T,309.808,M,0.56064,N,1.03831,K,D*32
$GNHDT,332.0711,T*1E
$GPGGA,045246.00,2234.57669254,N,11431.51323109,E,4,15,1.1,-4.0817,M,-1.3801,M,05,0000*5F
$GPRMC,045246.00,A,2234.57669254,N,11431.51323109,E,0.561,306.4,071224,3.4,W,D*22
$GNVTG,321.083,T,324.521,M,0.60680,N,1.12380,K,D*31
$GNHDT,334.8136,T*13
$GPGGA,045246.20,2234.57671886,N,11431.51320821,E,4,15,1.1,-4.0546,M,-1.3801,M,05,0000*58
$GPRMC,045246.20,A,2234.57671886,N,11431.51320821,E,0.607,321.1,071224,3.4,W,D*2F
$GNVTG,315.686,T,319.124,M,0.54011,N,1.00029,K,D*30
$GNHDT,335.4709,T*14
$GPGGA,045246.40,2234.57674041,N,11431.51318556,E,4,15,1.1,-4.0684,M,-1.3801,M,04,0000*52
$GPRMC,045246.40,A,2234.57674041,N,11431.51318556,E,0.540,315.7,071224,3.4,W,D*28
$GNVTG,330.884,T,334.322,M,0.59108,N,1.09468,K,D*3C
$GNHDT,334.5311,T*19
$GPGGA,045246.60,2234.57676919,N,11431.51316829,E,4,16,1.1,-4.0720,M,-1.3801,M,00,0000*55
$GPRMC,045246.60,A,2234.57676919,N,11431.51316829,E,0.591,330.9,071224,3.4,W,D*22
$GNVTG,324.846,T,328.284,M,0.57146,N,1.05834,K,D*3A
$GNHDT,334.6097,T*17
$GPGGA,045246.80,2234.57679524,N,11431.51314854,E,4,17,1.1,-4.0934,M,-1.3801,M,00,0000*54
$GPRMC,045246.80,A,2234.57679524,N,11431.51314854,E,0.571,324.8,071224,3.4,W,D*23
$GNVTG,309.778,T,313.217,M,0.73284,N,1.35722,K,D*35
$GNHDT,335.6052,T*1F
$GPGGA,045247.00,2234.57682138,N,11431.51311473,E,4,17,1.1,-4.0441,M,-1.3801,M,01,0000*52
$GPRMC,045247.00,A,2234.57682138,N,11431.51311473,E,0.733,309.8,071224,3.4,W,D*20
$GNVTG,353.491,T,356.930,M,0.53229,N,0.98580,K,D*38
$GNHDT,334.5832,T*13
$GPGGA,045247.20,2234.57685086,N,11431.51311111,E,4,17,1.1,-4.0966,M,-1.3801,M,01,0000*5A
$GPRMC,045247.20,A,2234.57685086,N,11431.51311111,E,0.532,353.5,071224,3.4,W,D*21
$GNVTG,321.154,T,324.592,M,0.53366,N,0.98834,K,D*38
$GNHDT,334.4301,T*19
$GPGGA,045247.40,2234.57687403,N,11431.51309102,E,4,16,1.1,-4.0759,M,-1.3801,M,01,0000*5F
$GPRMC,045247.40,A,2234.57687403,N,11431.51309102,E,0.534,321.2,071224,3.4,W,D*23
$GNVTG,341.446,T,344.884,M,0.44246,N,0.81943,K,D*38
$GNHDT,334.5547,T*1C
$GPGGA,045247.60,2234.57689741,N,11431.51308257,E,4,18,1.0,-4.1133,M,-1.3801,M,01,0000*50
$GPRMC,045247.60,A,2234.57689741,N,11431.51308257,E,0.442,341.4,071224,3.4,W,D*28
$GNVTG,325.355,T,328.794,M,0.34969,N,0.64763,K,D*3D
$GNHDT,335.6091,T*10
$GPGGA,045247.80,2234.57691345,N,11431.51307063,E,4,18,1.0,-4.1312,M,-1.3801,M,01,0000*5C
$GPRMC,045247.80,A,2234.57691345,N,11431.51307063,E,0.350,325.4,071224,3.4,W,D*23
$GNVTG,329.355,T,332.793,M,0.41699,N,0.77226,K,D*39
$GNHDT,335.6713,T*1D
$GPGGA,045248.00,2234.57693345,N,11431.51305787,E,4,18,1.0,-4.1181,M,-1.3801,M,02,0000*5D
$GPRMC,045248.00,A,2234.57693345,N,11431.51305787,E,0.417,329.4,071224,3.4,W,D*21
$GNVTG,357.011,T,0.449,M,0.36691,N,0.67951,K,D*37
$GNHDT,335.8322,T*15
$GPGGA,045248.20,2234.57695388,N,11431.51305672,E,4,18,1.0,-4.1087,M,-1.3801,M,02,0000*54
$GPRMC,045248.20,A,2234.57695388,N,11431.51305672,E,0.367,357.0,071224,3.4,W,D*22
$GNVTG,333.593,T,337.031,M,0.46624,N,0.86348,K,D*32
$GNHDT,336.2185,T*13
$GPGGA,045248.40,2234.57697716,N,11431.51304428,E,4,18,1.0,-4.0926,M,-1.3801,M,02,0000*5C
$GPRMC,045248.40,A,2234.57697716,N,11431.51304428,E,0.466,333.6,071224,3.4,W,D*2B
$GNVTG,328.541,T,331.980,M,0.48291,N,0.89434,K,D*35
$GNHDT,335.9099,T*17
$GPGGA,045248.60,2234.57700012,N,11431.51302915,E,4,19,1.0,-4.0388,M,-1.3801,M,02,0000*58
$GPRMC,045248.60,A,2234.57700012,N,11431.51302915,E,0.483,328.5,071224,3.4,W,D*22
$GNVTG,332.639,T,336.077,M,0.47851,N,0.88621,K,D*3A
$GNHDT,336.6158,T*17
$GPGGA,045248.80,2234.57702381,N,11431.51301595,E,4,19,1.0,-4.0015,M,-1.3801,M,02,0000*5D
$GPRMC,045248.80,A,2234.57702381,N,11431.51301595,E,0.479,332.6,071224,3.4,W,D*2D
$GNVTG,343.221,T,346.660,M,0.47615,N,0.88183,K,D*37
$GNHDT,335.9801,T*1E
$GPGGA,045249.00,2234.57704923,N,11431.51300770,E,4,19,1.0,-3.9998,M,-1.3801,M,03,0000*5B
$GPRMC,045249.00,A,2234.57704923,N,11431.51300770,E,0.476,343.2,071224,3.4,W,D*25
$GNVTG,302.850,T,306.289,M,0.66892,N,1.23885,K,D*34
$GNHDT,336.0560,T*1E
$GPGGA,045249.20,2234.57706945,N,11431.51297396,E,4,20,0.8,-3.9288,M,-1.3801,M,03,0000*51
$GPRMC,045249.20,A,2234.57706945,N,11431.51297396,E,0.669,302.9,071224,3.4,W,D*24
$GNVTG,309.689,T,313.127,M,0.79019,N,1.46343,K,D*31
$GNHDT,336.2098,T*1E
$GPGGA,045249.40,2234.57709759,N,11431.51293746,E,4,20,0.8,-3.9113,M,-1.3801,M,03,0000*57
$GPRMC,045249.40,A,2234.57709759,N,11431.51293746,E,0.790,309.7,071224,3.4,W,D*21
$GNVTG,309.331,T,312.769,M,0.68581,N,1.27011,K,D*3D
$GNHDT,335.5334,T*1F
$GPGGA,045249.60,2234.57712182,N,11431.51290562,E,4,20,0.8,-3.8957,M,-1.3801,M,03,0000*51
$GPRMC,045249.60,A,2234.57712182,N,11431.51290562,E,0.686,309.3,071224,3.4,W,D*2C
$GNVTG,298.302,T,301.740,M,0.85054,N,1.57519,K,D*39
$GNHDT,336.0318,T*17
$GPGGA,045249.80,2234.57714430,N,11431.51286066,E,4,20,0.8,-3.8509,M,-1.3801,M,03,0000*54
$GPRMC,045249.80,A,2234.57714430,N,11431.51286066,E,0.851,298.3,071224,3.4,W,D*23
$GNVTG,308.381,T,311.819,M,0.71326,N,1.32095,K,D*37
$GNHDT,335.2911,T*15
$GPGGA,045250.00,2234.57716899,N,11431.51282710,E,4,20,0.8,-3.8855,M,-1.3801,M,04,0000*58
$GPRMC,045250.00,A,2234.57716899,N,11431.51282710,E,0.713,308.4,071224,3.4,W,D*2A
$GNVTG,300.009,T,303.447,M,0.70517,N,1.30598,K,D*37
$GNHDT,335.3604,T*1F
$GPGGA,045250.20,2234.57718865,N,11431.51279044,E,4,17,0.9,-3.9673,M,-1.3801,M,04,0000*5B
$GPRMC,045250.20,A,2234.57718865,N,11431.51279044,E,0.705,300.0,071224,3.4,W,D*2C
$GNVTG,300.555,T,303.993,M,0.87214,N,1.61520,K,D*34
$GNHDT,335.4849,T*1F
$GPGGA,045250.40,2234.57721336,N,11431.51274536,E,4,17,0.9,-3.9846,M,-1.3801,M,04,0000*5F
$GPRMC,045250.40,A,2234.57721336,N,11431.51274536,E,0.872,300.6,071224,3.4,W,D*29
$GNVTG,310.377,T,313.815,M,0.69308,N,1.28358,K,D*35
$GNHDT,335.7670,T*18
$GPGGA,045250.60,2234.57723839,N,11431.51271367,E,4,17,0.9,-4.0163,M,-1.3801,M,04,0000*5C
$GPRMC,045250.60,A,2234.57723839,N,11431.51271367,E,0.693,310.4,071224,3.4,W,D*28
$GNVTG,306.232,T,309.671,M,0.54287,N,1.00540,K,D*38
$GNHDT,335.5232,T*18
$GPGGA,045250.80,2234.57725628,N,11431.51268738,E,4,17,0.9,-4.0214,M,-1.3801,M,04,0000*5F
$GPRMC,045250.80,A,2234.57725628,N,11431.51268738,E,0.543,306.2,071224,3.4,W,D*27
$GNVTG,323.956,T,327.395,M,0.45678,N,0.84595,K,D*34
$GNHDT,335.2143,T*1A
$GPGGA,045251.00,2234.57727687,N,11431.51267125,E,4,17,0.9,-4.0427,M,-1.3801,M,05,0000*53
$GPRMC,045251.00,A,2234.57727687,N,11431.51267125,E,0.457,324.0,071224,3.4,W,D*2A
$GNVTG,312.813,T,316.251,M,0.50694,N,0.93886,K,D*32
$GNHDT,335.4957,T*11
$GPGGA,045251.20,2234.57729608,N,11431.51264892,E,4,17,0.9,-3.9845,M,-1.3801,M,05,0000*58
$GPRMC,045251.20,A,2234.57729608,N,11431.51264892,E,0.507,312.8,071224,3.4,W,D*2E
$GNVTG,312.702,T,316.140,M,0.61839,N,1.14526,K,D*3C
$GNHDT,335.3983,T*1F
$GPGGA,045251.40,2234.57731946,N,11431.51262164,E,4,16,0.9,-3.9402,M,-1.3801,M,05,0000*5A
$GPRMC,045251.40,A,2234.57731946,N,11431.51262164,E,0.618,312.7,071224,3.4,W,D*20
$GNVTG,315.387,T,318.825,M,0.64080,N,1.18677,K,D*32
$GNHDT,334.9157,T*15
$GPGGA,045251.60,2234.57734489,N,11431.51259463,E,4,17,0.9,-3.8675,M,-1.3801,M,05,0000*5B
$GPRMC,045251.60,A,2234.57734489,N,11431.51259463,E,0.641,315.4,071224,3.4,W,D*2B
$GNVTG,307.434,T,310.872,M,0.70035,N,1.29705,K,D*39
$GNHDT,335.1183,T*15
$GPGGA,045251.80,2234.57736862,N,11431.51256124,E,4,19,0.8,-3.8431,M,-1.3801,M,00,0000*5F
$GPRMC,045251.80,A,2234.57736862,N,11431.51256124,E,0.700,307.4,071224,3.4,W,D*20
$GNVTG,310.103,T,313.541,M,0.69334,N,1.28407,K,D*3A
$GNHDT,334.2406,T*1F
$GPGGA,045252.00,2234.57739352,N,11431.51252941,E,4,19,0.8,-3.8556,M,-1.3801,M,01,0000*5D
$GPRMC,045252.00,A,2234.57739352,N,11431.51252941,E,0.693,310.1,071224,3.4,W,D*2B
$GNVTG,297.753,T,301.191,M,0.70311,N,1.30216,K,D*3D
$GNHDT,333.6632,T*19
$GPGGA,045252.20,2234.57741177,N,11431.51249206,E,4,18,0.9,-3.9315,M,-1.3802,M,01,0000*54
$GPRMC,045252.20,A,2234.57741177,N,11431.51249206,E,0.703,297.8,071224,3.4,W,D*2E
$GNVTG,297.702,T,301.140,M,0.89550,N,1.65847,K,D*3E
$GNHDT,334.4055,T*1B
$GPGGA,045252.40,2234.57743497,N,11431.51244446,E,4,18,0.9,-3.9980,M,-1.3802,M,01,0000*52
$GPRMC,045252.40,A,2234.57743497,N,11431.51244446,E,0.896,297.7,071224,3.4,W,D*22
$GNVTG,294.706,T,298.144,M,0.62086,N,1.14983,K,D*38
$GNHDT,334.5726,T*19
$GPGGA,045252.60,2234.57744944,N,11431.51241060,E,4,18,0.9,-4.0531,M,-1.3802,M,01,0000*59
$GPRMC,045252.60,A,2234.57744944,N,11431.51241060,E,0.621,294.7,071224,3.4,W,D*20
$GNVTG,300.094,T,303.533,M,0.59235,N,1.09704,K,D*30
$GNHDT,334.9933,T*1F
$GPGGA,045252.80,2234.57746600,N,11431.51237984,E,4,19,0.8,-4.1159,M,-1.3802,M,01,0000*53
$GPRMC,045252.80,A,2234.57746600,N,11431.51237984,E,0.592,300.1,071224,3.4,W,D*20
$GNVTG,295.411,T,298.849,M,0.43503,N,0.80567,K,D*39
$GNHDT,335.4856,T*11
$GPGGA,045253.00,2234.57747641,N,11431.51235625,E,4,19,0.8,-4.1172,M,-1.3802,M,02,0000*52
$GPRMC,045253.00,A,2234.57747641,N,11431.51235625,E,0.435,295.4,071224,3.4,W,D*2F
$GNVTG,306.931,T,310.369,M,0.44197,N,0.81852,K,D*31
$GNHDT,336.5418,T*15
$GPGGA,045253.20,2234.57749121,N,11431.51233504,E,4,19,0.8,-4.1142,M,-1.3802,M,02,0000*5A
$GPRMC,045253.20,A,2234.57749121,N,11431.51233504,E,0.442,306.9,071224,3.4,W,D*22
$GNVTG,325.690,T,329.128,M,0.35064,N,0.64939,K,D*35
$GNHDT,336.6155,T*1A
$GPGGA,045253.40,2234.57750735,N,11431.51232318,E,4,19,0.8,-4.0946,M,-1.3802,M,02,0000*50
$GPRMC,045253.40,A,2234.57750735,N,11431.51232318,E,0.351,325.7,071224,3.4,W,D*2F
$GNVTG,328.816,T,332.254,M,0.34165,N,0.63274,K,D*3E
$GNHDT,336.6536,T*1B
$GPGGA,045253.60,2234.57752365,N,11431.51231256,E,4,19,0.8,-4.0895,M,-1.3802,M,02,0000*56
$GPRMC,045253.60,A,2234.57752365,N,11431.51231256,E,0.342,328.8,071224,3.4,W,D*26
$GNVTG,345.228,T,348.666,M,0.41697,N,0.77224,K,D*32
$GNHDT,336.3653,T*1E
$GPGGA,045253.80,2234.57754613,N,11431.51230618,E,4,19,0.8,-4.0685,M,-1.3802,M,00,0000*58
$GPRMC,045253.80,A,2234.57754613,N,11431.51230618,E,0.417,345.2,071224,3.4,W,D*23
$GNVTG,344.644,T,348.082,M,0.38264,N,0.70865,K,D*3F
$GNHDT,336.4558,T*11
$GPGGA,045254.00,2234.57756670,N,11431.51230010,E,4,19,0.8,-4.0590,M,-1.3802,M,01,0000*58
$GPRMC,045254.00,A,2234.57756670,N,11431.51230010,E,0.383,344.6,071224,3.4,W,D*2A
$GNVTG,328.309,T,331.748,M,0.47313,N,0.87624,K,D*3C
$GNHDT,336.6553,T*18
$GPGGA,045254.20,2234.57758914,N,11431.51228518,E,4,20,0.8,-4.0568,M,-1.3802,M,01,0000*50
$GPRMC,045254.20,A,2234.57758914,N,11431.51228518,E,0.473,328.3,071224,3.4,W,D*28
$GNVTG,336.129,T,339.567,M,0.41845,N,0.77497,K,D*3F
$GNHDT,336.5255,T*1A
$GPGGA,045254.40,2234.57761047,N,11431.51227501,E,4,20,0.8,-4.1047,M,-1.3802,M,01,0000*5D
$GPRMC,045254.40,A,2234.57761047,N,11431.51227501,E,0.418,336.1,071224,3.4,W,D*2C
$GNVTG,309.845,T,313.283,M,0.43206,N,0.80017,K,D*3E
$GNHDT,337.1046,T*1F
$GPGGA,045254.60,2234.57762590,N,11431.51225510,E,4,20,0.8,-4.0553,M,-1.3802,M,01,0000*50
$GPRMC,045254.60,A,2234.57762590,N,11431.51225510,E,0.432,309.8,071224,3.4,W,D*2D
$GNVTG,319.943,T,323.382,M,0.49143,N,0.91013,K,D*37
$GNHDT,337.0959,T*19
$GPGGA,045254.80,2234.57764687,N,11431.51223611,E,4,20,0.8,-4.0734,M,-1.3802,M,01,0000*5A
$GPRMC,045254.80,A,2234.57764687,N,11431.51223611,E,0.491,319.9,071224,3.4,W,D*2D
$GNVTG,323.825,T,327.263,M,0.36055,N,0.66774,K,D*35
$GNHDT,336.7136,T*1E
$GPGGA,045255.00,2234.57766310,N,11431.51222334,E,4,20,0.8,-4.0471,M,-1.3802,M,02,0000*58
$GPRMC,045255.00,A,2234.57766310,N,11431.51222334,E,0.361,323.8,071224,3.4,W,D*2E
$GNVTG,310.755,T,314.193,M,0.38052,N,0.70472,K,D*3A
$GNHDT,336.9897,T*12
$GPGGA,045255.20,2234.57767694,N,11431.51220603,E,4,20,0.8,-4.0318,M,-1.3802,M,02,0000*59
$GPRMC,045255.20,A,2234.57767694,N,11431.51220603,E,0.381,310.8,071224,3.4,W,D*29
$GNVTG,304.591,T,308.029,M,0.48096,N,0.89075,K,D*32
$GNHDT,337.3669,T*16
$GPGGA,045255.40,2234.57769217,N,11431.51218227,E,4,19,0.8,-3.9761,M,-1.3802,M,02,0000*59
$GPRMC,045255.40,A,2234.57769217,N,11431.51218227,E,0.481,304.6,071224,3.4,W,D*2B
$GNVTG,317.262,T,320.700,M,0.57077,N,1.05707,K,D*3B
$GNHDT,337.1309,T*17
$GPGGA,045255.60,2234.57771554,N,11431.51215901,E,4,18,0.9,-3.9587,M,-1.3802,M,02,0000*5A
$GPRMC,045255.60,A,2234.57771554,N,11431.51215901,E,0.571,317.3,071224,3.4,W,D*2B
$GNVTG,310.809,T,314.248,M,0.61642,N,1.14160,K,D*37
$GNHDT,337.5359,T*16
$GPGGA,045255.80,2234.57773799,N,11431.51213101,E,4,18,0.9,-3.9499,M,-1.3802,M,01,0000*56
$GPRMC,045255.80,A,2234.57773799,N,11431.51213101,E,0.616,310.8,071224,3.4,W,D*24
$GNVTG,322.852,T,326.290,M,0.66171,N,1.22549,K,D*36
$GNHDT,337.0117,T*1B
$GPGGA,045256.00,2234.57776740,N,11431.51210702,E,4,18,0.9,-3.9788,M,-1.3802,M,02,0000*5A
$GPRMC,045256.00,A,2234.57776740,N,11431.51210702,E,0.662,322.9,071224,3.4,W,D*2B
$GNVTG,320.824,T,324.262,M,0.67869,N,1.25693,K,D*38
$GNHDT,336.6848,T*1F
$GPGGA,045256.20,2234.57779673,N,11431.51208128,E,4,18,0.9,-3.9806,M,-1.3802,M,02,0000*58
$GPRMC,045256.20,A,2234.57779673,N,11431.51208128,E,0.679,320.8,071224,3.4,W,D*29
$GNVTG,318.015,T,321.453,M,0.63609,N,1.17803,K,D*32
$GNHDT,337.2357,T*1F
$GPGGA,045256.40,2234.57782309,N,11431.51205574,E,4,18,0.9,-3.9611,M,-1.3802,M,01,0000*59
$GPRMC,045256.40,A,2234.57782309,N,11431.51205574,E,0.636,318.0,071224,3.4,W,D*2B
$GNVTG,322.008,T,325.446,M,0.37986,N,0.70350,K,D*33
$GNHDT,336.6202,T*1B
$GPGGA,045256.60,2234.57783977,N,11431.51204171,E,4,20,0.8,-3.9429,M,-1.3802,M,01,0000*5A
$GPRMC,045256.60,A,2234.57783977,N,11431.51204171,E,0.380,322.0,071224,3.4,W,D*2A
$GNVTG,309.180,T,312.619,M,0.61664,N,1.14202,K,D*32
$GNHDT,337.3115,T*1A
$GPGGA,045256.80,2234.57786149,N,11431.51201301,E,4,20,0.8,-3.9357,M,-1.3802,M,00,0000*5B
$GPRMC,045256.80,A,2234.57786149,N,11431.51201301,E,0.617,309.2,071224,3.4,W,D*24
$GNVTG,326.973,T,330.411,M,0.60348,N,1.11764,K,D*3B
$GNHDT,336.1357,T*1D
$GPGGA,045257.00,2234.57788970,N,11431.51199327,E,4,20,0.8,-3.9348,M,-1.3802,M,01,0000*57
$GPRMC,045257.00,A,2234.57788970,N,11431.51199327,E,0.603,327.0,071224,3.4,W,D*2C
$GNVTG,300.813,T,304.251,M,0.66689,N,1.23507,K,D*35
$GNHDT,336.3792,T*12
$GPGGA,045257.20,2234.57790874,N,11431.51195889,E,4,20,0.8,-3.9067,M,-1.3802,M,01,0000*54
$GPRMC,045257.20,A,2234.57790874,N,11431.51195889,E,0.667,300.8,071224,3.4,W,D*2E
$GNVTG,308.119,T,311.557,M,0.68151,N,1.26215,K,D*36
$GNHDT,336.3304,T*19
$GPGGA,045257.40,2234.57793219,N,11431.51192670,E,4,20,0.8,-3.8981,M,-1.3802,M,01,0000*5F
$GPRMC,045257.40,A,2234.57793219,N,11431.51192670,E,0.682,308.1,071224,3.4,W,D*2F
$GNVTG,303.608,T,307.046,M,0.71662,N,1.32719,K,D*3B
$GNHDT,336.0641,T*1E
$GPGGA,045257.60,2234.57795431,N,11431.51189087,E,4,20,0.8,-3.8723,M,-1.3802,M,01,0000*55
$GPRMC,045257.60,A,2234.57795431,N,11431.51189087,E,0.717,303.6,071224,3.4,W,D*22
$GNVTG,290.339,T,293.777,M,0.51194,N,0.94811,K,D*38
$GNHDT,336.8893,T*17
$GPGGA,045257.80,2234.57796423,N,11431.51186206,E,4,20,0.8,-3.8915,M,-1.3802,M,01,0000*54
$GPRMC,045257.80,A,2234.57796423,N,11431.51186206,E,0.512,290.3,071224,3.4,W,D*21
$GNVTG,303.570,T,307.009,M,0.48358,N,0.89560,K,D*37
$GNHDT,336.9609,T*1B
$GPGGA,045258.00,2234.57797913,N,11431.51183787,E,4,20,0.8,-3.9345,M,-1.3802,M,02,0000*58
$GPRMC,045258.00,A,2234.57797913,N,11431.51183787,E,0.484,303.6,071224,3.4,W,D*20
$GNVTG,294.396,T,297.834,M,0.51601,N,0.95566,K,D*32
$GNHDT,337.5833,T*11
$GPGGA,045258.20,2234.57799101,N,11431.51180966,E,4,20,0.8,-3.9105,M,-1.3802,M,02,0000*5B
$GPRMC,045258.20,A,2234.57799101,N,11431.51180966,E,0.516,294.4,071224,3.4,W,D*22
$GNVTG,312.261,T,315.700,M,0.67071,N,1.24215,K,D*3B
$GNHDT,337.6830,T*11
$GPGGA,045258.40,2234.57801616,N,11431.51177986,E,4,20,0.8,-3.9290,M,-1.3802,M,02,0000*5B
$GPRMC,045258.40,A,2234.57801616,N,11431.51177986,E,0.671,312.3,071224,3.4,W,D*27
$GNVTG,311.883,T,315.321,M,0.54945,N,1.01758,K,D*3C
$GNHDT,337.5276,T*1A
$GPGGA,045258.60,2234.57803661,N,11431.51175531,E,4,20,0.8,-3.9423,M,-1.3802,M,01,0000*54
$GPRMC,045258.60,A,2234.57803661,N,11431.51175531,E,0.549,311.9,071224,3.4,W,D*24
$GNVTG,305.898,T,309.336,M,0.57375,N,1.06258,K,D*30
$GNHDT,337.9379,T*18
$GPGGA,045258.80,2234.57805536,N,11431.51172741,E,4,19,0.9,-3.9392,M,-1.3802,M,00,0000*58
$GPRMC,045258.80,A,2234.57805536,N,11431.51172741,E,0.574,305.9,071224,3.4,W,D*24
$GNVTG,321.010,T,324.448,M,0.73863,N,1.36794,K,D*33
$GNHDT,337.7012,T*18
$GPGGA,045259.00,2234.57808737,N,11431.51169951,E,4,19,0.9,-3.9351,M,-1.3802,M,01,0000*54
$GPRMC,045259.00,A,2234.57808737,N,11431.51169951,E,0.739,321.0,071224,3.4,W,D*22
$GNVTG,327.103,T,330.541,M,0.51106,N,0.94649,K,D*39
$GNHDT,337.8142,T*13
$GPGGA,045259.20,2234.57811129,N,11431.51168285,E,4,19,0.9,-3.9443,M,-1.3802,M,01,0000*50
$GPRMC,045259.20,A,2234.57811129,N,11431.51168285,E,0.511,327.1,071224,3.4,W,D*2D
$GNVTG,337.287,T,340.725,M,0.43368,N,0.80318,K,D*3D
$GNHDT,336.7469,T*11
$GPGGA,045259.40,2234.57813359,N,11431.51167280,E,4,19,0.9,-3.9761,M,-1.3802,M,01,0000*58
$GPRMC,045259.40,A,2234.57813359,N,11431.51167280,E,0.434,337.3,071224,3.4,W,D*23
$GNVTG,313.335,T,316.773,M,0.55760,N,1.03267,K,D*3B
$GNHDT,337.0040,T*18
$GPGGA,045259.60,2234.57815492,N,11431.51164845,E,4,19,0.9,-4.0123,M,-1.3802,M,01,0000*52
$GPRMC,045259.60,A,2234.57815492,N,11431.51164845,E,0.558,313.3,071224,3.4,W,D*2A
$GNVTG,299.059,T,302.497,M,0.44328,N,0.82095,K,D*32
$GNHDT,337.5792,T*15
$GPGGA,045259.80,2234.57816693,N,11431.51162519,E,4,20,0.8,-4.0097,M,-1.3802,M,00,0000*5A
$GPRMC,045259.80,A,2234.57816693,N,11431.51162519,E,0.443,299.1,071224,3.4,W,D*2C
$GNVTG,307.548,T,310.986,M,0.38622,N,0.71528,K,D*34
$GNHDT,337.4432,T*1D
$GPGGA,045300.00,2234.57818005,N,11431.51160681,E,4,20,0.8,-4.0180,M,-1.3802,M,01,0000*5E
$GPRMC,045300.00,A,2234.57818005,N,11431.51160681,E,0.386,307.5,071224,3.4,W,D*22
$GNVTG,332.735,T,336.173,M,0.38867,N,0.71981,K,D*3C
$GNHDT,337.3540,T*1E
$GPGGA,045300.20,2234.57819931,N,11431.51159612,E,4,20,0.8,-4.0612,M,-1.3802,M,01,0000*5F
$GPRMC,045300.20,A,2234.57819931,N,11431.51159612,E,0.389,332.7,071224,3.4,W,D*24
$GNVTG,330.224,T,333.662,M,0.48784,N,0.90348,K,D*3C
$GNHDT,337.0880,T*1C
$GPGGA,045300.40,2234.57822291,N,11431.51158158,E,4,20,0.8,-4.0715,M,-1.3802,M,01,0000*5E
$GPRMC,045300.40,A,2234.57822291,N,11431.51158158,E,0.488,330.2,071224,3.4,W,D*22
$GNVTG,321.252,T,324.690,M,0.65968,N,1.22174,K,D*30
$GNHDT,337.3433,T*1B
$GPGGA,045300.60,2234.57825159,N,11431.51155679,E,4,20,0.8,-4.0433,M,-1.3802,M,01,0000*52
$GPRMC,045300.60,A,2234.57825159,N,11431.51155679,E,0.660,321.3,071224,3.4,W,D*2C
$GNVTG,324.993,T,328.431,M,0.69618,N,1.28932,K,D*32
$GNHDT,337.1973,T*10
$GPGGA,045300.80,2234.57828338,N,11431.51153282,E,4,20,0.8,-4.0380,M,-1.3802,M,01,0000*5D
$GPRMC,045300.80,A,2234.57828338,N,11431.51153282,E,0.696,325.0,071224,3.4,W,D*22
$GNVTG,321.808,T,325.246,M,0.68031,N,1.25994,K,D*32
$GNHDT,336.6765,T*1F
$GPGGA,045301.00,2234.57831319,N,11431.51150757,E,4,20,0.8,-3.9815,M,-1.3802,M,02,0000*5B
$GPRMC,045301.00,A,2234.57831319,N,11431.51150757,E,0.680,321.8,071224,3.4,W,D*25
$GNVTG,319.969,T,323.407,M,0.60706,N,1.12427,K,D*30
$GNHDT,337.1068,T*13
$GPGGA,045301.20,2234.57833910,N,11431.51148413,E,4,20,0.8,-3.9591,M,-1.3802,M,02,0000*53
$GPRMC,045301.20,A,2234.57833910,N,11431.51148413,E,0.607,320.0,071224,3.4,W,D*2A
$GNVTG,312.853,T,316.291,M,0.65170,N,1.20695,K,D*34
$GNHDT,337.4721,T*1C
$GPGGA,045301.40,2234.57836381,N,11431.51145545,E,4,20,0.8,-3.9630,M,-1.3802,M,02,0000*55
$GPRMC,045301.40,A,2234.57836381,N,11431.51145545,E,0.652,312.9,071224,3.4,W,D*2C
$GNVTG,307.681,T,311.119,M,0.39750,N,0.73616,K,D*34
$GNHDT,338.3311,T*13
$GPGGA,045301.60,2234.57837735,N,11431.51143657,E,4,20,0.8,-3.9618,M,-1.3802,M,02,0000*51
$GPRMC,045301.60,A,2234.57837735,N,11431.51143657,E,0.397,307.7,071224,3.4,W,D*24
$GNVTG,315.715,T,319.153,M,0.39630,N,0.73395,K,D*34
$GNHDT,338.1712,T*16
$GPGGA,045301.80,2234.57839317,N,11431.51141996,E,4,20,0.8,-3.9756,M,-1.3802,M,00,0000*5C
$GPRMC,045301.80,A,2234.57839317,N,11431.51141996,E,0.396,315.7,071224,3.4,W,D*22
$GNVTG,311.872,T,315.311,M,0.40532,N,0.75066,K,D*30
$GNHDT,338.4410,T*12
$GPGGA,045302.00,2234.57840825,N,11431.51140184,E,4,20,0.8,-4.0194,M,-1.3802,M,01,0000*5E
$GPRMC,045302.00,A,2234.57840825,N,11431.51140184,E,0.405,311.9,071224,3.4,W,D*20
$GNVTG,308.328,T,311.766,M,0.54635,N,1.01184,K,D*32
$GNHDT,338.3480,T*1C
$GPGGA,045302.20,2234.57842714,N,11431.51137611,E,4,20,0.8,-4.0162,M,-1.3802,M,01,0000*51
$GPRMC,045302.20,A,2234.57842714,N,11431.51137611,E,0.546,308.3,071224,3.4,W,D*22
$GNVTG,306.521,T,309.959,M,0.58036,N,1.07482,K,D*34
$GNHDT,337.7895,T*1F
$GPGGA,045302.40,2234.57844640,N,11431.51134811,E,4,20,0.8,-3.9613,M,-1.3802,M,01,0000*53
$GPRMC,045302.40,A,2234.57844640,N,11431.51134811,E,0.580,306.5,071224,3.4,W,D*2D
$GNVTG,314.830,T,318.268,M,0.60230,N,1.11546,K,D*32
$GNHDT,337.2840,T*12
$GPGGA,045302.60,2234.57847007,N,11431.51132247,E,4,19,0.8,-3.9625,M,-1.3802,M,01,0000*57
$GPRMC,045302.60,A,2234.57847007,N,11431.51132247,E,0.602,314.8,071224,3.4,W,D*21
$GNVTG,315.825,T,319.263,M,0.62246,N,1.15279,K,D*31
$GNHDT,337.1356,T*1D
$GPGGA,045302.80,2234.57849495,N,11431.51129643,E,4,19,0.8,-3.9410,M,-1.3803,M,00,0000*56
$GPRMC,045302.80,A,2234.57849495,N,11431.51129643,E,0.622,315.8,071224,3.4,W,D*27
$GNVTG,314.667,T,318.105,M,0.67423,N,1.24867,K,D*3D
$GNHDT,336.9007,T*13
$GPGGA,045303.00,2234.57852138,N,11431.51126765,E,4,19,0.8,-3.9339,M,-1.3803,M,01,0000*50
$GPRMC,045303.00,A,2234.57852138,N,11431.51126765,E,0.674,314.7,071224,3.4,W,D*21
$GNVTG,308.162,T,311.600,M,0.44527,N,0.82465,K,D*3E
$GNHDT,337.8243,T*11
$GPGGA,045303.20,2234.57853671,N,11431.51124663,E,4,20,0.8,-3.9488,M,-1.3803,M,01,0000*5B
$GPRMC,045303.20,A,2234.57853671,N,11431.51124663,E,0.445,308.2,071224,3.4,W,D*25
$GNVTG,334.838,T,338.276,M,0.36319,N,0.67264,K,D*3B
$GNHDT,337.2639,T*12
$GPGGA,045303.40,2234.57855504,N,11431.51123736,E,4,19,0.8,-4.0085,M,-1.3803,M,01,0000*51
$GPRMC,045303.40,A,2234.57855504,N,11431.51123736,E,0.363,334.8,071224,3.4,W,D*24
$GNVTG,297.768,T,301.207,M,0.28546,N,0.52867,K,D*39
$GNHDT,338.6241,T*12
$GPGGA,045303.60,2234.57856245,N,11431.51122220,E,4,19,0.8,-4.0376,M,-1.3803,M,01,0000*5E
$GPRMC,045303.60,A,2234.57856245,N,11431.51122220,E,0.285,297.8,071224,3.4,W,D*25
$GNVTG,339.487,T,342.925,M,0.32117,N,0.59482,K,D*35
$GNHDT,338.8461,T*18
$GPGGA,045303.80,2234.57857922,N,11431.51121544,E,4,19,0.8,-4.0597,M,-1.3803,M,00,0000*55
$GPRMC,045303.80,A,2234.57857922,N,11431.51121544,E,0.321,339.5,071224,3.4,W,D*21
$GNVTG,325.092,T,328.531,M,0.38539,N,0.71374,K,D*3B
$GNHDT,338.9761,T*1A
$GPGGA,045304.00,2234.57859684,N,11431.51120221,E,4,18,0.9,-4.0941,M,-1.3803,M,01,0000*54
$GPRMC,045304.00,A,2234.57859684,N,11431.51120221,E,0.385,325.1,071224,3.4,W,D*21
$GNVTG,308.905,T,312.344,M,0.68288,N,1.26469,K,D*3E
$GNHDT,339.7205,T*12
$GPGGA,045304.20,2234.57862075,N,11431.51117031,E,4,18,0.9,-4.0340,M,-1.3803,M,01,0000*5A
$GPRMC,045304.20,A,2234.57862075,N,11431.51117031,E,0.683,308.9,071224,3.4,W,D*20
$GNVTG,315.828,T,319.266,M,0.77442,N,1.43422,K,D*34
$GNHDT,339.6623,T*13
$GPGGA,045304.40,2234.57865172,N,11431.51113791,E,4,18,0.9,-3.9740,M,-1.3803,M,01,0000*5E
$GPRMC,045304.40,A,2234.57865172,N,11431.51113791,E,0.774,315.8,071224,3.4,W,D*2A
$GNVTG,323.660,T,327.098,M,0.67338,N,1.24709,K,D*3D
$GNHDT,338.5498,T*13
$GPGGA,045304.60,2234.57868195,N,11431.51111396,E,4,18,0.9,-3.9096,M,-1.3803,M,01,0000*55
$GPRMC,045304.60,A,2234.57868195,N,11431.51111396,E,0.673,323.7,071224,3.4,W,D*21
$GNVTG,313.255,T,316.693,M,0.66478,N,1.23117,K,D*3F
$GNHDT,339.0030,T*11
$GPGGA,045304.80,2234.57870735,N,11431.51108490,E,4,18,0.9,-3.9206,M,-1.3803,M,00,0000*5D
$GPRMC,045304.80,A,2234.57870735,N,11431.51108490,E,0.665,313.3,071224,3.4,W,D*23
$GNVTG,318.760,T,322.198,M,0.50082,N,0.92752,K,D*34
$GNHDT,338.2174,T*13
$GPGGA,045305.00,2234.57872834,N,11431.51106508,E,4,18,0.9,-3.9451,M,-1.3803,M,01,0000*53
$GPRMC,045305.00,A,2234.57872834,N,11431.51106508,E,0.501,318.8,071224,3.4,W,D*29
$GNVTG,303.976,T,307.415,M,0.34285,N,0.63496,K,D*32
$GNHDT,338.3373,T*17
$GPGGA,045305.20,2234.57873902,N,11431.51104801,E,4,18,0.9,-3.9837,M,-1.3803,M,01,0000*5E
$GPRMC,045305.20,A,2234.57873902,N,11431.51104801,E,0.343,304.0,071224,3.4,W,D*2D
$GNVTG,305.154,T,308.593,M,0.40672,N,0.75324,K,D*3A
$GNHDT,338.7931,T*1F
$GPGGA,045305.40,2234.57875208,N,11431.51102805,E,4,18,0.9,-4.0167,M,-1.3803,M,01,0000*5F
$GPRMC,045305.40,A,2234.57875208,N,11431.51102805,E,0.407,305.2,071224,3.4,W,D*2A
$GNVTG,300.280,T,303.718,M,0.35066,N,0.64942,K,D*34
$GNHDT,338.8687,T*12
$GPGGA,045305.60,2234.57876194,N,11431.51100987,E,4,19,0.8,-4.0256,M,-1.3803,M,01,0000*50
$GPRMC,045305.60,A,2234.57876194,N,11431.51100987,E,0.351,300.3,071224,3.4,W,D*24
$GNVTG,323.009,T,326.447,M,0.56756,N,1.05112,K,D*32
$GNHDT,339.1091,T*1B
$GPGGA,045305.80,2234.57878721,N,11431.51098937,E,4,19,0.8,-4.0235,M,-1.3803,M,00,0000*57
$GPRMC,045305.80,A,2234.57878721,N,11431.51098937,E,0.568,323.0,071224,3.4,W,D*29
$GNVTG,318.198,T,321.636,M,0.67450,N,1.24918,K,D*36
$GNHDT,339.1140,T*16
$GPGGA,045306.00,2234.57881524,N,11431.51096238,E,4,19,0.8,-4.0294,M,-1.3803,M,01,0000*5D
$GPRMC,045306.00,A,2234.57881524,N,11431.51096238,E,0.675,318.2,071224,3.4,W,D*2C
$GNVTG,322.934,T,326.373,M,0.75153,N,1.39183,K,D*31
$GNHDT,339.0606,T*12
$GPGGA,045306.20,2234.57884867,N,11431.51093519,E,4,19,0.8,-3.9859,M,-1.3803,M,01,0000*54
$GPRMC,045306.20,A,2234.57884867,N,11431.51093519,E,0.752,322.9,071224,3.4,W,D*26
$GNVTG,323.800,T,327.238,M,0.63222,N,1.17087,K,D*32
$GNHDT,338.5230,T*17
$GPGGA,045306.40,2234.57887711,N,11431.51091278,E,4,19,0.8,-3.9442,M,-1.3803,M,01,0000*5B
$GPRMC,045306.40,A,2234.57887711,N,11431.51091278,E,0.632,323.8,071224,3.4,W,D*28
$GNVTG,325.222,T,328.660,M,0.49855,N,0.92332,K,D*3B
$GNHDT,338.5338,T*1E
$GPGGA,045306.60,2234.57889994,N,11431.51089571,E,4,19,0.8,-3.9531,M,-1.3803,M,00,0000*57
$GPRMC,045306.60,A,2234.57889994,N,11431.51089571,E,0.499,325.2,071224,3.4,W,D*2F
$GNVTG,327.199,T,330.637,M,0.75860,N,1.40492,K,D*3B
$GNHDT,337.2734,T*1E
$GPGGA,045306.80,2234.57893548,N,11431.51087104,E,4,19,0.8,-3.9132,M,-1.3803,M,00,0000*50
$GPRMC,045306.80,A,2234.57893548,N,11431.51087104,E,0.759,327.2,071224,3.4,W,D*22
$GNVTG,321.648,T,325.086,M,0.64749,N,1.19915,K,D*34
$GNHDT,336.9579,T*1F
$GPGGA,045307.00,2234.57896379,N,11431.51084692,E,4,19,0.8,-3.9227,M,-1.3803,M,01,0000*55
$GPRMC,045307.00,A,2234.57896379,N,11431.51084692,E,0.647,321.6,071224,3.4,W,D*2D
$GNVTG,315.137,T,318.575,M,0.85853,N,1.59000,K,D*39
$GNHDT,336.6505,T*1B
$GPGGA,045307.20,2234.57899771,N,11431.51081057,E,4,19,0.8,-3.9491,M,-1.3803,M,01,0000*55
$GPRMC,045307.20,A,2234.57899771,N,11431.51081057,E,0.859,315.1,071224,3.4,W,D*27
$GNVTG,304.734,T,308.172,M,0.77596,N,1.43709,K,D*32
$GNHDT,336.0844,T*15
$GPGGA,045307.40,2234.57902236,N,11431.51077229,E,4,19,0.8,-3.9065,M,-1.3803,M,01,0000*5B
$GPRMC,045307.40,A,2234.57902236,N,11431.51077229,E,0.776,304.7,071224,3.4,W,D*22
$GNVTG,311.505,T,314.943,M,0.94864,N,1.75688,K,D*31
$GNHDT,335.1669,T*16
$GPGGA,045307.60,2234.57905740,N,11431.51072964,E,4,19,0.8,-3.9633,M,-1.3803,M,01,0000*58
$GPRMC,045307.60,A,2234.57905740,N,11431.51072964,E,0.949,311.5,071224,3.4,W,D*20
$GNVTG,307.105,T,310.543,M,0.80017,N,1.48191,K,D*32
$GNHDT,335.5441,T*1A
$GPGGA,045307.80,2234.57908432,N,11431.51069133,E,4,18,0.9,-3.9863,M,-1.3803,M,00,0000*57
$GPRMC,045307.80,A,2234.57908432,N,11431.51069133,E,0.800,307.1,071224,3.4,W,D*2A
$GNVTG,317.316,T,320.755,M,0.76138,N,1.41008,K,D*38
$GNHDT,334.6057,T*1B
$GPGGA,045308.00,2234.57911552,N,11431.51066035,E,4,18,0.9,-4.0689,M,-1.3803,M,01,0000*52
$GPRMC,045308.00,A,2234.57911552,N,11431.51066035,E,0.761,317.3,071224,3.4,W,D*21
$GNVTG,326.654,T,330.093,M,0.64432,N,1.19328,K,D*35
$GNHDT,334.4570,T*19
$GPGGA,045308.20,2234.57914552,N,11431.51063909,E,4,18,0.9,-4.1209,M,-1.3803,M,01,0000*5B
$GPRMC,045308.20,A,2234.57914552,N,11431.51063909,E,0.644,326.7,071224,3.4,W,D*25
$GNVTG,343.599,T,347.037,M,0.66908,N,1.23913,K,D*37
$GNHDT,333.4500,T*19
$GPGGA,045308.40,2234.57918130,N,11431.51062774,E,4,18,0.9,-4.1299,M,-1.3803,M,01,0000*5D
$GPRMC,045308.40,A,2234.57918130,N,11431.51062774,E,0.669,343.6,071224,3.4,W,D*27
$GNVTG,336.532,T,339.970,M,0.68583,N,1.27015,K,D*3D
$GNHDT,332.8907,T*1F
$GPGGA,045308.60,2234.57921637,N,11431.51061135,E,4,19,0.8,-4.1084,M,-1.3803,M,01,0000*5B
$GPRMC,045308.60,A,2234.57921637,N,11431.51061135,E,0.686,336.5,071224,3.4,W,D*2F
$GNVTG,338.251,T,341.689,M,0.73871,N,1.36809,K,D*38
$GNHDT,331.9769,T*1B
$GPGGA,045308.80,2234.57925462,N,11431.51059492,E,4,19,0.8,-4.0349,M,-1.3803,M,01,0000*53
$GPRMC,045308.80,A,2234.57925462,N,11431.51059492,E,0.739,338.3,071224,3.4,W,D*29
$GNVTG,330.756,T,334.194,M,0.98658,N,1.82714,K,D*37
$GNHDT,331.2231,T*18
$GPGGA,045309.00,2234.57930261,N,11431.51056599,E,4,19,0.8,-3.9623,M,-1.3803,M,02,0000*5A
$GPRMC,045309.00,A,2234.57930261,N,11431.51056599,E,0.987,330.8,071224,3.4,W,D*2C
$GNVTG,321.728,T,325.166,M,0.93526,N,1.73209,K,D*35
$GNHDT,329.9413,T*1C
$GPGGA,045309.20,2234.57934355,N,11431.51053121,E,4,19,0.8,-3.8841,M,-1.3803,M,02,0000*53
$GPRMC,045309.20,A,2234.57934355,N,11431.51053121,E,0.935,321.7,071224,3.4,W,D*28
$GNVTG,319.335,T,322.773,M,1.10801,N,2.05204,K,D*3E
$GNHDT,329.1151,T*17
$GPGGA,045309.40,2234.57939040,N,11431.51048787,E,4,19,0.8,-3.8523,M,-1.3803,M,02,0000*56
$GPRMC,045309.40,A,2234.57939040,N,11431.51048787,E,1.108,319.3,071224,3.4,W,D*2C
$GNVTG,322.441,T,325.879,M,0.93365,N,1.72911,K,D*3F
$GNHDT,328.1564,T*14
$GPGGA,045309.60,2234.57943166,N,11431.51045371,E,4,19,0.8,-3.8873,M,-1.3803,M,02,0000*54
$GPRMC,045309.60,A,2234.57943166,N,11431.51045371,E,0.934,322.4,071224,3.4,W,D*2F
$GNVTG,316.200,T,319.638,M,0.85027,N,1.57471,K,D*31
$GNHDT,328.1884,T*17
$GPGGA,045309.80,2234.57946587,N,11431.51041838,E,4,19,0.8,-3.9127,M,-1.3803,M,00,0000*5D
$GPRMC,045309.80,A,2234.57946587,N,11431.51041838,E,0.850,316.2,071224,3.4,W,D*2F
$GNVTG,340.909,T,344.348,M,0.75028,N,1.38952,K,D*3F
$GNHDT,327.5950,T*14
$GPGGA,045310.00,2234.57950540,N,11431.51040365,E,4,19,0.8,-4.0202,M,-1.3803,M,01,0000*58
$GPRMC,045310.00,A,2234.57950540,N,11431.51040365,E,0.750,340.9,071224,3.4,W,D*26
$GNVTG,344.207,T,347.645,M,0.68237,N,1.26375,K,D*35
$GNHDT,327.2048,T*13
$GPGGA,045310.20,2234.57954200,N,11431.51039250,E,4,18,0.9,-4.0796,M,-1.3803,M,01,0000*5C
$GPRMC,045310.20,A,2234.57954200,N,11431.51039250,E,0.682,344.2,071224,3.4,W,D*2B
$GNVTG,355.629,T,359.067,M,0.79030,N,1.46363,K,D*30
$GNHDT,326.4703,T*1C
$GPGGA,045310.40,2234.57958593,N,11431.51038888,E,4,18,0.9,-4.0911,M,-1.3803,M,01,0000*54
$GPRMC,045310.40,A,2234.57958593,N,11431.51038888,E,0.790,355.6,071224,3.4,W,D*24
$GNVTG,356.108,T,359.546,M,0.70202,N,1.30014,K,D*39
$GNHDT,325.6873,T*15
$GPGGA,045310.60,2234.57962497,N,11431.51038602,E,4,18,0.9,-4.1098,M,-1.3803,M,01,0000*5F
$GPRMC,045310.60,A,2234.57962497,N,11431.51038602,E,0.702,356.1,071224,3.4,W,D*29
$GNVTG,354.962,T,358.400,M,0.85986,N,1.59247,K,D*3B
$GNHDT,326.3971,T*10
$GPGGA,045310.80,2234.57967272,N,11431.51038149,E,4,18,0.9,-4.0469,M,-1.3803,M,00,0000*5B
$GPRMC,045310.80,A,2234.57967272,N,11431.51038149,E,0.860,355.0,071224,3.4,W,D*2E
$GNVTG,349.538,T,352.976,M,1.05466,N,1.95324,K,D*3C
$GNHDT,325.7034,T*1F
$GPGGA,045311.00,2234.57973054,N,11431.51036999,E,4,18,0.9,-3.9836,M,-1.3803,M,01,0000*53
$GPRMC,045311.00,A,2234.57973054,N,11431.51036999,E,1.055,349.5,071224,3.4,W,D*28
$GNVTG,338.850,T,342.289,M,0.93994,N,1.74077,K,D*37
$GNHDT,325.6358,T*17
$GPGGA,045311.20,2234.57977941,N,11431.51034964,E,4,18,0.9,-3.9193,M,-1.3803,M,01,0000*5E
$GPRMC,045311.20,A,2234.57977941,N,11431.51034964,E,0.940,338.9,071224,3.4,W,D*25
$GNVTG,330.827,T,334.266,M,1.05941,N,1.96203,K,D*34
$GNHDT,325.5627,T*19
$GPGGA,045311.40,2234.57983098,N,11431.51031864,E,4,18,0.9,-3.8739,M,-1.3803,M,01,0000*5D
$GPRMC,045311.40,A,2234.57983098,N,11431.51031864,E,1.059,330.8,071224,3.4,W,D*28
$GNVTG,335.735,T,339.173,M,1.11951,N,2.07333,K,D*3A
$GNHDT,324.5404,T*1B
$GPGGA,045311.60,2234.57988787,N,11431.51029102,E,4,19,0.8,-3.8285,M,-1.3803,M,01,0000*5F
$GPRMC,045311.60,A,2234.57988787,N,11431.51029102,E,1.120,335.7,071224,3.4,W,D*2D
$GNVTG,344.100,T,347.539,M,1.04129,N,1.92846,K,D*3A
$GNHDT,324.0939,T*1D
$GPGGA,045311.80,2234.57994370,N,11431.51027390,E,4,19,0.8,-3.8585,M,-1.3803,M,00,0000*51
$GPRMC,045311.80,A,2234.57994370,N,11431.51027390,E,1.041,344.1,071224,3.4,W,D*23
$GNVTG,344.318,T,347.756,M,0.75858,N,1.40489,K,D*32
$GNHDT,324.3626,T*1F
$GPGGA,045312.00,2234.57998442,N,11431.51026159,E,4,19,0.8,-3.9086,M,-1.3803,M,01,0000*50
$GPRMC,045312.00,A,2234.57998442,N,11431.51026159,E,0.759,344.3,071224,3.4,W,D*29
$GNVTG,350.245,T,353.683,M,0.76250,N,1.41215,K,D*31
$GNHDT,324.4731,T*1F
$GPGGA,045312.20,2234.58002631,N,11431.51025383,E,4,19,0.8,-3.9866,M,-1.3803,M,01,0000*51
$GPRMC,045312.20,A,2234.58002631,N,11431.51025383,E,0.763,350.2,071224,3.4,W,D*23
$GNVTG,352.462,T,355.901,M,0.88866,N,1.64580,K,D*31
$GNHDT,323.9453,T*12
$GPGGA,045312.40,2234.58007542,N,11431.51024683,E,4,19,0.8,-4.0538,M,-1.3803,M,01,0000*59
$GPRMC,045312.40,A,2234.58007542,N,11431.51024683,E,0.889,352.5,071224,3.4,W,D*2D
$GNVTG,350.965,T,354.403,M,0.87262,N,1.61608,K,D*30
$GNHDT,324.9251,T*11
$GPGGA,045312.60,2234.58012346,N,11431.51023861,E,4,19,0.8,-4.1062,M,-1.3803,M,01,0000*53
$GPRMC,045312.60,A,2234.58012346,N,11431.51023861,E,0.873,351.0,071224,3.4,W,D*2F
$GNVTG,3.938,T,7.377,M,1.00985,N,1.87023,K,D*37
$GNHDT,324.0127,T*1A
$GPGGA,045312.80,2234.58017963,N,11431.51024277,E,4,19,0.8,-4.0710,M,-1.3804,M,01,0000*5B
$GPRMC,045312.80,A,2234.58017963,N,11431.51024277,E,1.010,3.9,071224,3.4,W,D*22
$GNVTG,0.575,T,4.014,M,1.09831,N,2.03407,K,D*3E
$GNHDT,324.3138,T*17
$GPGGA,045313.00,2234.58024085,N,11431.51024343,E,4,18,0.9,-4.0579,M,-1.3804,M,02,0000*5B
$GPRMC,045313.00,A,2234.58024085,N,11431.51024343,E,1.098,0.6,071224,3.4,W,D*20
$GNVTG,4.762,T,8.201,M,1.02746,N,1.90285,K,D*35
$GNHDT,324.0459,T*16
$GPGGA,045313.20,2234.58029793,N,11431.51024855,E,4,18,0.9,-4.0387,M,-1.3804,M,02,0000*5F
$GPRMC,045313.20,A,2234.58029793,N,11431.51024855,E,1.027,4.8,071224,3.4,W,D*2D
$GNVTG,4.457,T,7.895,M,0.97725,N,1.80987,K,D*38
$GNHDT,323.7502,T*19
$GPGGA,045313.40,2234.58035225,N,11431.51025311,E,4,18,0.9,-4.0029,M,-1.3804,M,02,0000*51
$GPRMC,045313.40,A,2234.58035225,N,11431.51025311,E,0.977,4.5,071224,3.4,W,D*24
$GNVTG,4.919,T,8.357,M,0.86158,N,1.59564,K,D*3C
$GNHDT,324.1109,T*17
$GPGGA,045313.60,2234.58040010,N,11431.51025755,E,4,18,0.9,-3.9581,M,-1.3804,M,02,0000*58
$GPRMC,045313.60,A,2234.58040010,N,11431.51025755,E,0.862,4.9,071224,3.4,W,D*2D
$GNVTG,11.723,T,15.161,M,0.86526,N,1.60246,K,D*34
$GNHDT,324.6240,T*1E
$GPGGA,045313.80,2234.58044733,N,11431.51026810,E,4,18,0.9,-3.9856,M,-1.3804,M,02,0000*5E
$GPRMC,045313.80,A,2234.58044733,N,11431.51026810,E,0.865,11.7,071224,3.4,W,D*11
$GNVTG,12.356,T,15.794,M,0.99730,N,1.84701,K,D*3A
$GNHDT,324.6307,T*1C
$GPGGA,045314.00,2234.58050164,N,11431.51028091,E,4,19,0.8,-3.9995,M,-1.3804,M,03,0000*50
$GPRMC,045314.00,A,2234.58050164,N,11431.51028091,E,0.997,12.4,071224,3.4,W,D*1C
$GNVTG,5.404,T,8.842,M,1.01574,N,1.88115,K,D*39
$GNHDT,325.2125,T*1B
$GPGGA,045314.20,2234.58055801,N,11431.51028665,E,4,18,0.9,-4.0691,M,-1.3804,M,03,0000*55
$GPRMC,045314.20,A,2234.58055801,N,11431.51028665,E,1.016,5.4,071224,3.4,W,D*2B
$GNVTG,13.527,T,16.965,M,0.84936,N,1.57302,K,D*35
$GNHDT,325.2440,T*1D
$GPGGA,045314.40,2234.58060405,N,11431.51029858,E,4,18,0.9,-4.0795,M,-1.3804,M,03,0000*59
$GPRMC,045314.40,A,2234.58060405,N,11431.51029858,E,0.849,13.5,071224,3.4,W,D*17
$GNVTG,2.550,T,5.989,M,0.98627,N,1.82657,K,D*3A
$GNHDT,325.6394,T*17
$GPGGA,045314.60,2234.58065897,N,11431.51030121,E,4,18,0.9,-4.0770,M,-1.3804,M,03,0000*5D
$GPRMC,045314.60,A,2234.58065897,N,11431.51030121,E,0.986,2.6,071224,3.4,W,D*29
$GNVTG,1.861,T,5.299,M,0.99073,N,1.83483,K,D*30
$GNHDT,325.0655,T*19
$GPGGA,045314.80,2234.58071418,N,11431.51030314,E,4,18,0.9,-4.0353,M,-1.3804,M,03,0000*5C
$GPRMC,045314.80,A,2234.58071418,N,11431.51030314,E,0.991,1.9,071224,3.4,W,D*27
$GNVTG,4.973,T,8.411,M,1.02790,N,1.90366,K,D*3B
$GNHDT,326.3576,T*1B
$GPGGA,045315.00,2234.58077126,N,11431.51030849,E,4,18,0.9,-3.9963,M,-1.3804,M,04,0000*58
$GPRMC,045315.00,A,2234.58077126,N,11431.51030849,E,1.028,5.0,071224,3.4,W,D*24
$GNVTG,12.189,T,15.627,M,1.07903,N,1.99836,K,D*3C
$GNHDT,326.1470,T*1E
$GPGGA,045315.20,2234.58083006,N,11431.51032217,E,4,19,0.8,-3.9942,M,-1.3804,M,04,0000*52
$GPRMC,045315.20,A,2234.58083006,N,11431.51032217,E,1.079,12.2,071224,3.4,W,D*1D
$GNVTG,9.410,T,12.848,M,1.20298,N,2.22792,K,D*0D
$GNHDT,326.3553,T*1C
$GPGGA,045315.40,2234.58089622,N,11431.51033398,E,4,19,0.8,-3.9594,M,-1.3804,M,04,0000*5E
$GPRMC,045315.40,A,2234.58089622,N,11431.51033398,E,1.203,9.4,071224,3.4,W,D*25
$GNVTG,9.579,T,13.018,M,1.01580,N,1.88125,K,D*0B
$GNHDT,327.3021,T*1D
$GPGGA,045315.60,2234.58095206,N,11431.51034412,E,4,19,0.8,-3.9392,M,-1.3804,M,00,0000*55
$GPRMC,045315.60,A,2234.58095206,N,11431.51034412,E,1.016,9.6,071224,3.4,W,D*2E
$GNVTG,5.724,T,9.162,M,1.01335,N,1.87673,K,D*39
$GNHDT,327.8283,T*1C
$GPGGA,045315.80,2234.58100827,N,11431.51035019,E,4,19,0.8,-3.9139,M,-1.3804,M,00,0000*52
$GPRMC,045315.80,A,2234.58100827,N,11431.51035019,E,1.013,5.7,071224,3.4,W,D*22
$GNVTG,358.980,T,2.418,M,1.03500,N,1.91682,K,D*3A
$GNHDT,328.1553,T*10
$GPGGA,045316.00,2234.58106596,N,11431.51034908,E,4,19,0.8,-3.8684,M,-1.3804,M,01,0000*51
$GPRMC,045316.00,A,2234.58106596,N,11431.51034908,E,1.035,359.0,071224,3.4,W,D*29
$GNVTG,358.311,T,1.749,M,1.08198,N,2.00382,K,D*3C
$GNHDT,327.4370,T*1D
$GPGGA,045316.20,2234.58112625,N,11431.51034717,E,4,19,0.8,-3.8590,M,-1.3804,M,01,0000*5B
$GPRMC,045316.20,A,2234.58112625,N,11431.51034717,E,1.082,358.3,071224,3.4,W,D*2B
$GNVTG,350.695,T,354.133,M,1.23196,N,2.28159,K,D*3C
$GNHDT,328.4968,T*11
$GPGGA,045316.40,2234.58119402,N,11431.51033521,E,4,19,0.8,-3.8419,M,-1.3804,M,01,0000*51
$GPRMC,045316.40,A,2234.58119402,N,11431.51033521,E,1.232,350.7,071224,3.4,W,D*24
$GNVTG,0.410,T,3.848,M,1.22069,N,2.26072,K,D*37
$GNHDT,327.8817,T*1B
$GPGGA,045316.60,2234.58126207,N,11431.51033574,E,4,19,0.8,-3.8693,M,-1.3804,M,01,0000*5C
$GPRMC,045316.60,A,2234.58126207,N,11431.51033574,E,1.221,0.4,071224,3.4,W,D*2E
$GNVTG,3.214,T,6.652,M,1.16073,N,2.14968,K,D*39
$GNHDT,328.7618,T*1A
$GPGGA,045316.80,2234.58132668,N,11431.51033964,E,4,19,0.8,-3.8720,M,-1.3804,M,00,0000*5F
$GPRMC,045316.80,A,2234.58132668,N,11431.51033964,E,1.161,3.2,071224,3.4,W,D*27
$GNVTG,10.400,T,13.838,M,1.40413,N,2.60046,K,D*39
$GNHDT,329.2043,T*16
$GPGGA,045317.00,2234.58140367,N,11431.51035486,E,4,19,0.8,-3.9221,M,-1.3804,M,01,0000*5A
$GPRMC,045317.00,A,2234.58140367,N,11431.51035486,E,1.404,10.4,071224,3.4,W,D*14
$GNVTG,14.874,T,18.313,M,1.47405,N,2.72994,K,D*3E
$GNHDT,329.9454,T*1F
$GPGGA,045317.20,2234.58148309,N,11431.51037757,E,4,19,0.8,-3.9217,M,-1.3804,M,01,0000*50
$GPRMC,045317.20,A,2234.58148309,N,11431.51037757,E,1.474,14.9,071224,3.4,W,D*15
$GNVTG,14.635,T,18.074,M,1.44774,N,2.68122,K,D*3F
$GNHDT,330.8393,T*1A
$GPGGA,045317.40,2234.58156118,N,11431.51039953,E,4,19,0.8,-3.9485,M,-1.3804,M,01,0000*52
$GPRMC,045317.40,A,2234.58156118,N,11431.51039953,E,1.448,14.6,071224,3.4,W,D*1A
$GNVTG,14.769,T,18.207,M,1.57805,N,2.92254,K,D*3D
$GNHDT,331.8854,T*1B
$GPGGA,045317.60,2234.58164624,N,11431.51042368,E,4,20,0.8,-3.9395,M,-1.3804,M,01,0000*5B
$GPRMC,045317.60,A,2234.58164624,N,11431.51042368,E,1.578,14.8,071224,3.4,W,D*13
$GNVTG,21.096,T,24.534,M,1.56263,N,2.89398,K,D*34
$GNHDT,332.7264,T*1E
$GPGGA,045317.80,2234.58172751,N,11431.51045744,E,4,20,0.8,-3.9445,M,-1.3804,M,00,0000*57
$GPRMC,045317.80,A,2234.58172751,N,11431.51045744,E,1.563,21.1,071224,3.4,W,D*11
$GNVTG,20.780,T,24.218,M,1.62296,N,3.00571,K,D*30
$GNHDT,333.7720,T*1A
$GPGGA,045318.00,2234.58181210,N,11431.51049201,E,4,19,0.8,-3.9278,M,-1.3804,M,01,0000*57
$GPRMC,045318.00,A,2234.58181210,N,11431.51049201,E,1.623,20.8,071224,3.4,W,D*1D
$GNVTG,19.977,T,23.415,M,1.53632,N,2.84527,K,D*36
$GNHDT,333.9062,T*15
$GPGGA,045318.20,2234.58189260,N,11431.51052352,E,4,19,0.8,-3.9065,M,-1.3804,M,01,0000*59
$GPRMC,045318.20,A,2234.58189260,N,11431.51052352,E,1.536,20.0,071224,3.4,W,D*12
$GNVTG,25.473,T,28.911,M,1.64317,N,3.04315,K,D*3A
$GNHDT,334.6475,T*1F
$GPGGA,045318.40,2234.58197529,N,11431.51056594,E,4,19,0.8,-3.9358,M,-1.3804,M,01,0000*5F
$GPRMC,045318.40,A,2234.58197529,N,11431.51056594,E,1.643,25.5,071224,3.4,W,D*18
$GNVTG,25.742,T,29.180,M,1.60323,N,2.96918,K,D*34
$GNHDT,335.2410,T*19
$GPGGA,045318.60,2234.58205580,N,11431.51060774,E,4,19,0.8,-3.9353,M,-1.3804,M,01,0000*54
$GPRMC,045318.60,A,2234.58205580,N,11431.51060774,E,1.603,25.7,071224,3.4,W,D*1E
$GNVTG,32.128,T,35.566,M,1.74590,N,3.23341,K,D*3B
$GNHDT,336.1186,T*13
$GPGGA,045318.80,2234.58213822,N,11431.51066347,E,4,19,0.8,-3.9943,M,-1.3804,M,00,0000*50
$GPRMC,045318.80,A,2234.58213822,N,11431.51066347,E,1.746,32.1,071224,3.4,W,D*10
$GNVTG,31.977,T,35.416,M,1.73384,N,3.21108,K,D*35
$GNHDT,337.6036,T*1F
$GPGGA,045319.00,2234.58222021,N,11431.51071859,E,4,19,0.8,-4.0702,M,-1.3804,M,01,0000*56
$GPRMC,045319.00,A,2234.58222021,N,11431.51071859,E,1.734,32.0,071224,3.4,W,D*16
$GNVTG,33.386,T,36.824,M,1.84578,N,3.41839,K,D*3D
$GNHDT,338.2686,T*19
$GPGGA,045319.20,2234.58230613,N,11431.51077956,E,4,19,0.8,-4.1193,M,-1.3804,M,01,0000*57
$GPRMC,045319.20,A,2234.58230613,N,11431.51077956,E,1.846,33.4,071224,3.4,W,D*17
$GNVTG,36.347,T,39.785,M,1.94489,N,3.60194,K,D*3D
$GNHDT,339.6505,T*14
$GPGGA,045319.40,2234.58239346,N,11431.51084876,E,4,19,0.8,-4.0354,M,-1.3804,M,01,0000*5A
$GPRMC,045319.40,A,2234.58239346,N,11431.51084876,E,1.945,36.3,071224,3.4,W,D*12
$GNVTG,40.334,T,43.772,M,1.85199,N,3.42989,K,D*3D
$GNHDT,341.1683,T*11
$GPGGA,045319.60,2234.58247216,N,11431.51092071,E,4,19,0.8,-4.0707,M,-1.3804,M,01,0000*5F
$GPRMC,045319.60,A,2234.58247216,N,11431.51092071,E,1.852,40.3,071224,3.4,W,D*13
$GNVTG,39.803,T,43.241,M,2.07774,N,3.84797,K,D*3E
$GNHDT,342.1493,T*11
$GPGGA,045319.80,2234.58256115,N,11431.51100055,E,4,19,0.8,-4.0490,M,-1.3804,M,00,0000*51
$GPRMC,045319.80,A,2234.58256115,N,11431.51100055,E,2.078,39.8,071224,3.4,W,D*17
$GNVTG,44.595,T,48.033,M,1.89226,N,3.50446,K,D*3B
$GNHDT,344.0808,T*18
$GPGGA,045320.00,2234.58263626,N,11431.51108030,E,4,18,0.9,-4.0177,M,-1.3804,M,01,0000*54
$GPRMC,045320.00,A,2234.58263626,N,11431.51108030,E,1.892,44.6,071224,3.4,W,D*14
$GNVTG,46.102,T,49.541,M,2.09645,N,3.88262,K,D*3D
$GNHDT,344.5112,T*1F
$GPGGA,045320.20,2234.58271730,N,11431.51117099,E,4,18,0.9,-4.0090,M,-1.3804,M,01,0000*56
$GPRMC,045320.20,A,2234.58271730,N,11431.51117099,E,2.096,46.1,071224,3.4,W,D*14
$GNVTG,45.344,T,48.783,M,2.06611,N,3.82643,K,D*30
$GNHDT,345.6461,T*1C
$GPGGA,045320.40,2234.58279825,N,11431.51125921,E,4,18,0.9,-4.0902,M,-1.3804,M,01,0000*5A
$GPRMC,045320.40,A,2234.58279825,N,11431.51125921,E,2.066,45.3,071224,3.4,W,D*14
$GNVTG,43.480,T,46.918,M,2.10177,N,3.89248,K,D*3F
$GNHDT,346.4411,T*1A
$GPGGA,045320.60,2234.58288327,N,11431.51134603,E,4,18,0.9,-4.0261,M,-1.3803,M,01,0000*59
$GPRMC,045320.60,A,2234.58288327,N,11431.51134603,E,2.102,43.5,071224,3.4,W,D*1D
$GNVTG,41.453,T,44.891,M,1.97450,N,3.65678,K,D*38
$GNHDT,348.4489,T*15
$GPGGA,045320.80,2234.58296577,N,11431.51142449,E,4,18,0.9,-4.0223,M,-1.3803,M,00,0000*51
$GPRMC,045320.80,A,2234.58296577,N,11431.51142449,E,1.975,41.5,071224,3.4,W,D*1B
$GNVTG,44.293,T,47.732,M,2.15721,N,3.99515,K,D*35
$GNHDT,349.0515,T*14
$GPGGA,045321.00,2234.58305185,N,11431.51151492,E,4,18,0.9,-4.0411,M,-1.3803,M,01,0000*58
$GPRMC,045321.00,A,2234.58305185,N,11431.51151492,E,2.157,44.3,071224,3.4,W,D*1C
$GNVTG,49.331,T,52.769,M,2.04938,N,3.79546,K,D*35
$GNHDT,349.8921,T*17
$GPGGA,045321.20,2234.58312630,N,11431.51160823,E,4,19,0.8,-4.0593,M,-1.3803,M,01,0000*5A
$GPRMC,045321.20,A,2234.58312630,N,11431.51160823,E,2.049,49.3,071224,3.4,W,D*16
$GNVTG,45.472,T,48.911,M,2.00705,N,3.71705,K,D*3A
$GNHDT,351.2089,T*1F
$GPGGA,045321.40,2234.58320476,N,11431.51169412,E,4,19,0.8,-4.0800,M,-1.3803,M,01,0000*5D
$GPRMC,045321.40,A,2234.58320476,N,11431.51169412,E,2.007,45.5,071224,3.4,W,D*16
$GNVTG,46.146,T,49.585,M,2.02606,N,3.75226,K,D*3B
$GNHDT,352.3792,T*10
$GPGGA,045321.60,2234.58328302,N,11431.51178183,E,4,18,0.9,-4.0428,M,-1.3803,M,01,0000*58
$GPRMC,045321.60,A,2234.58328302,N,11431.51178183,E,2.026,46.1,071224,3.4,W,D*11
$GNVTG,45.163,T,48.601,M,1.92970,N,3.57381,K,D*39
$GNHDT,353.5712,T*1F
$GPGGA,045321.80,2234.58335887,N,11431.51186397,E,4,18,0.9,-3.9826,M,-1.3803,M,01,0000*56
$GPRMC,045321.80,A,2234.58335887,N,11431.51186397,E,1.930,45.2,071224,3.4,W,D*1E
$GNVTG,44.007,T,47.445,M,1.77721,N,3.29139,K,D*3F
$GNHDT,354.7814,T*13
$GPGGA,045322.00,2234.58343013,N,11431.51193809,E,4,18,0.9,-3.9144,M,-1.3803,M,02,0000*5F
$GPRMC,045322.00,A,2234.58343013,N,11431.51193809,E,1.777,44.0,071224,3.4,W,D*17
$GNVTG,45.883,T,49.321,M,1.96058,N,3.63100,K,D*33
$GNHDT,355.8516,T*12
$GPGGA,045322.20,2234.58350621,N,11431.51202258,E,4,18,0.9,-3.8940,M,-1.3803,M,02,0000*50
$GPRMC,045322.20,A,2234.58350621,N,11431.51202258,E,1.961,45.9,071224,3.4,W,D*14
$GNVTG,45.870,T,49.308,M,1.95639,N,3.62323,K,D*34
$GNHDT,357.7782,T*10
$GPGGA,045322.40,2234.58358215,N,11431.51210687,E,4,18,0.9,-3.9265,M,-1.3803,M,02,0000*55
$GPRMC,045322.40,A,2234.58358215,N,11431.51210687,E,1.956,45.9,071224,3.4,W,D*18
$GNVTG,59.859,T,63.297,M,1.77819,N,3.29320,K,D*31
$GNHDT,359.2657,T*12
$GPGGA,045322.60,2234.58363193,N,11431.51219918,E,4,18,0.9,-3.9843,M,-1.3803,M,01,0000*5F
$GPRMC,045322.60,A,2234.58363193,N,11431.51219918,E,1.778,59.9,071224,3.4,W,D*10
$GNVTG,50.841,T,54.279,M,1.93371,N,3.58123,K,D*3D
$GNHDT,0.5279,T*12
$GPGGA,045322.80,2234.58370000,N,11431.51228919,E,4,18,0.9,-3.9803,M,-1.3803,M,00,0000*5E
$GPRMC,045322.80,A,2234.58370000,N,11431.51228919,E,1.934,50.8,071224,3.4,W,D*1A
$GNVTG,50.068,T,53.506,M,1.86470,N,3.45342,K,D*3D
$GNHDT,1.2262,T*1E
$GPGGA,045323.00,2234.58376672,N,11431.51237502,E,4,18,0.9,-3.9405,M,-1.3803,M,01,0000*51
$GPRMC,045323.00,A,2234.58376672,N,11431.51237502,E,1.865,50.1,071224,3.4,W,D*12
$GNVTG,46.975,T,50.413,M,1.79390,N,3.32230,K,D*34
$GNHDT,2.5966,T*15
$GPGGA,045323.20,2234.58383496,N,11431.51245375,E,4,18,0.9,-3.8765,M,-1.3803,M,01,0000*56
$GPRMC,045323.20,A,2234.58383496,N,11431.51245375,E,1.794,47.0,071224,3.4,W,D*17
$GNVTG,56.091,T,59.529,M,1.77312,N,3.28381,K,D*33
$GNHDT,3.5533,T*18
$GPGGA,045323.40,2234.58389010,N,11431.51254208,E,4,18,0.9,-3.7947,M,-1.3803,M,01,0000*5A
$GPRMC,045323.40,A,2234.58389010,N,11431.51254208,E,1.773,56.1,071224,3.4,W,D*12
$GNVTG,54.769,T,58.207,M,1.81657,N,3.36430,K,D*34
$GNHDT,4.7774,T*1C
$GPGGA,045323.60,2234.58394852,N,11431.51263116,E,4,18,0.9,-3.8141,M,-1.3803,M,01,0000*53
$GPRMC,045323.60,A,2234.58394852,N,11431.51263116,E,1.817,54.8,071224,3.4,W,D*1C
$GNVTG,55.039,T,58.477,M,1.96174,N,3.63314,K,D*37
$GNHDT,5.2971,T*13
$GPGGA,045323.80,2234.58401119,N,11431.51272766,E,4,18,0.9,-3.8967,M,-1.3803,M,01,0000*5D
$GPRMC,045323.80,A,2234.58401119,N,11431.51272766,E,1.962,55.0,071224,3.4,W,D*14
$GNVTG,60.648,T,64.086,M,1.75047,N,3.24188,K,D*3C
$GNHDT,6.9265,T*15
$GPGGA,045324.00,2234.58405902,N,11431.51281925,E,4,18,0.9,-3.9292,M,-1.3803,M,02,0000*52
$GPRMC,045324.00,A,2234.58405902,N,11431.51281925,E,1.750,60.6,071224,3.4,W,D*17
$GNVTG,56.924,T,60.362,M,1.93463,N,3.58293,K,D*39
$GNHDT,8.6752,T*15
$GPGGA,045324.20,2234.58411788,N,11431.51291657,E,4,18,0.9,-4.0025,M,-1.3803,M,02,0000*52
$GPRMC,045324.20,A,2234.58411788,N,11431.51291657,E,1.935,56.9,071224,3.4,W,D*10
$GNVTG,62.149,T,65.588,M,1.84214,N,3.41165,K,D*38
$GNHDT,9.6660,T*14
$GPGGA,045324.40,2234.58416585,N,11431.51301434,E,4,18,0.9,-4.0454,M,-1.3803,M,02,0000*51
$GPRMC,045324.40,A,2234.58416585,N,11431.51301434,E,1.842,62.1,071224,3.4,W,D*1F
$GNVTG,62.568,T,66.007,M,1.95781,N,3.62586,K,D*3F
$GNHDT,11.0492,T*24
$GPGGA,045324.60,2234.58421614,N,11431.51311865,E,4,18,0.9,-4.0263,M,-1.3803,M,02,0000*57
$GPRMC,045324.60,A,2234.58421614,N,11431.51311865,E,1.958,62.6,071224,3.4,W,D*16
$GNVTG,64.974,T,68.412,M,1.80826,N,3.34890,K,D*39
$GNHDT,12.4216,T*29
$GPGGA,045324.80,2234.58425878,N,11431.51321701,E,4,18,0.9,-4.0035,M,-1.3803,M,02,0000*56
$GPRMC,045324.80,A,2234.58425878,N,11431.51321701,E,1.808,65.0,071224,3.4,W,D*13
$GNVTG,68.494,T,71.932,M,1.68525,N,3.12108,K,D*35
$GNHDT,13.3623,T*2D
$GPGGA,045325.00,2234.58429322,N,11431.51331113,E,4,18,0.9,-3.9244,M,-1.3803,M,03,0000*58
$GPRMC,045325.00,A,2234.58429322,N,11431.51331113,E,1.685,68.5,071224,3.4,W,D*15
$GNVTG,71.441,T,74.880,M,1.72059,N,3.18654,K,D*39
$GNHDT,14.9367,T*25
$GPGGA,045325.20,2234.58432375,N,11431.51340904,E,4,17,0.9,-3.9201,M,-1.3803,M,03,0000*54
$GPRMC,045325.20,A,2234.58432375,N,11431.51340904,E,1.721,71.4,071224,3.4,W,D*11
$GNVTG,69.273,T,72.711,M,1.94873,N,3.60905,K,D*3A
$GNHDT,15.6930,T*23
$GPGGA,045325.40,2234.58436220,N,11431.51351845,E,4,17,0.9,-3.9161,M,-1.3803,M,03,0000*56
$GPRMC,045325.40,A,2234.58436220,N,11431.51351845,E,1.949,69.3,071224,3.4,W,D*18
$GNVTG,73.860,T,77.298,M,1.91382,N,3.54440,K,D*33
$GNHDT,17.5513,T*2F
$GPGGA,045325.60,2234.58439186,N,11431.51362881,E,4,18,0.8,-3.9884,M,-1.3802,M,03,0000*51
$GPRMC,045325.60,A,2234.58439186,N,11431.51362881,E,1.914,73.9,071224,3.4,W,D*1B
$GNVTG,81.364,T,84.802,M,1.99756,N,3.69949,K,D*3B
$GNHDT,18.5049,T*2A
$GPGGA,045325.80,2234.58440858,N,11431.51374736,E,4,17,0.9,-4.0394,M,-1.3802,M,03,0000*55
$GPRMC,045325.80,A,2234.58440858,N,11431.51374736,E,1.998,81.4,071224,3.4,W,D*11
$GNVTG,73.384,T,76.822,M,1.86483,N,3.45367,K,D*3A
$GNHDT,20.8392,T*29
$GPGGA,045326.00,2234.58443831,N,11431.51385463,E,4,17,0.9,-4.0401,M,-1.3802,M,04,0000*53
$GPRMC,045326.00,A,2234.58443831,N,11431.51385463,E,1.865,73.4,071224,3.4,W,D*15
$GNVTG,76.489,T,79.927,M,1.82558,N,3.38098,K,D*34
$GNHDT,22.9294,T*2D
$GPGGA,045326.20,2234.58446208,N,11431.51396118,E,4,17,0.9,-4.0364,M,-1.3802,M,04,0000*5B
$GPRMC,045326.20,A,2234.58446208,N,11431.51396118,E,1.826,76.5,071224,3.4,W,D*1A
$GNVTG,82.946,T,86.384,M,1.79367,N,3.32187,K,D*39
$GNHDT,23.7774,T*29
$GPGGA,045326.40,2234.58447436,N,11431.51406804,E,4,17,0.9,-3.9819,M,-1.3802,M,04,0000*52
$GPRMC,045326.40,A,2234.58447436,N,11431.51406804,E,1.794,82.9,071224,3.4,W,D*1D
$GNVTG,77.418,T,80.856,M,1.82924,N,3.38776,K,D*3C
$GNHDT,24.5606,T*28
$GPGGA,045326.60,2234.58449658,N,11431.51417521,E,4,18,0.8,-3.9609,M,-1.3802,M,04,0000*5F
$GPRMC,045326.60,A,2234.58449658,N,11431.51417521,E,1.829,77.4,071224,3.4,W,D*1F
$GNVTG,77.163,T,80.601,M,1.74498,N,3.23171,K,D*31
$GNHDT,25.3258,T*20
$GPGGA,045326.80,2234.58451819,N,11431.51427734,E,4,18,0.8,-3.9346,M,-1.3802,M,04,0000*58
$GPRMC,045326.80,A,2234.58451819,N,11431.51427734,E,1.745,77.2,071224,3.4,W,D*15
$GNVTG,82.890,T,86.328,M,1.89314,N,3.50610,K,D*33
$GNHDT,25.7407,T*28
$GPGGA,045327.00,2234.58453126,N,11431.51439011,E,4,18,0.8,-3.9703,M,-1.3802,M,05,0000*5D
$GPRMC,045327.00,A,2234.58453126,N,11431.51439011,E,1.893,82.9,071224,3.4,W,D*11
$GNVTG,82.706,T,86.145,M,1.62287,N,3.00556,K,D*30
$GNHDT,27.7620,T*2D
$GPGGA,045327.20,2234.58454274,N,11431.51448674,E,4,18,0.8,-4.0515,M,-1.3802,M,05,0000*54
$GPRMC,045327.20,A,2234.58454274,N,11431.51448674,E,1.623,82.7,071224,3.4,W,D*18
$GNVTG,88.177,T,91.616,M,1.59715,N,2.95793,K,D*3D
$GNHDT,29.4957,T*2F
$GPGGA,045327.40,2234.58454557,N,11431.51458256,E,4,17,0.9,-4.0307,M,-1.3802,M,05,0000*5A
$GPRMC,045327.40,A,2234.58454557,N,11431.51458256,E,1.597,88.2,071224,3.4,W,D*1E
$GNVTG,83.203,T,86.642,M,1.87995,N,3.48167,K,D*38
$GNHDT,31.0683,T*24
$GPGGA,045327.60,2234.58455798,N,11431.51469462,E,4,17,0.9,-4.0566,M,-1.3802,M,01,0000*5E
$GPRMC,045327.60,A,2234.58455798,N,11431.51469462,E,1.880,83.2,071224,3.4,W,D*1F
$GNVTG,89.565,T,93.004,M,1.82111,N,3.37270,K,D*39
$GNHDT,32.5614,T*2C
$GPGGA,045327.80,2234.58455875,N,11431.51480394,E,4,17,0.9,-3.9932,M,-1.3802,M,00,0000*57
$GPRMC,045327.80,A,2234.58455875,N,11431.51480394,E,1.821,89.6,071224,3.4,W,D*11
$GNVTG,87.870,T,91.308,M,1.78985,N,3.31481,K,D*3D
$GNHDT,33.7439,T*22
$GPGGA,045328.00,2234.58456245,N,11431.51491131,E,4,17,0.9,-3.9637,M,-1.3802,M,01,0000*5C
$GPRMC,045328.00,A,2234.58456245,N,11431.51491131,E,1.790,87.9,071224,3.4,W,D*15
$GNVTG,91.733,T,95.171,M,1.80370,N,3.34046,K,D*37
$GNHDT,34.5437,T*29
$GPGGA,045328.20,2234.58455941,N,11431.51501953,E,4,17,0.9,-3.9144,M,-1.3802,M,01,0000*55
$GPRMC,045328.20,A,2234.58455941,N,11431.51501953,E,1.804,91.7,071224,3.4,W,D*14
$GNVTG,89.394,T,92.832,M,1.54219,N,2.85614,K,D*33
$GNHDT,35.4621,T*2C
$GPGGA,045328.40,2234.58456032,N,11431.51511210,E,4,17,0.9,-3.9696,M,-1.3802,M,01,0000*58
$GPRMC,045328.40,A,2234.58456032,N,11431.51511210,E,1.542,89.4,071224,3.4,W,D*14
$GNVTG,95.019,T,98.458,M,1.62605,N,3.01144,K,D*31
$GNHDT,36.9980,T*26
$GPGGA,045328.60,2234.58455239,N,11431.51520934,E,4,17,0.9,-3.9440,M,-1.3802,M,01,0000*56
$GPRMC,045328.60,A,2234.58455239,N,11431.51520934,E,1.626,95.0,071224,3.4,W,D*1B
$GNVTG,96.089,T,99.527,M,1.69496,N,3.13906,K,D*3D
$GNHDT,38.5029,T*2E
$GPGGA,045328.80,2234.58454237,N,11431.51531051,E,4,17,0.9,-3.9235,M,-1.3802,M,01,0000*59
$GPRMC,045328.80,A,2234.58454237,N,11431.51531051,E,1.695,96.1,071224,3.4,W,D*1A
$GNVTG,95.840,T,99.278,M,1.84848,N,3.42339,K,D*30
$GNHDT,39.2808,T*23
$GPGGA,045329.00,2234.58453188,N,11431.51542090,E,4,19,0.8,-3.9064,M,-1.3802,M,02,0000*53
$GPRMC,045329.00,A,2234.58453188,N,11431.51542090,E,1.848,95.8,071224,3.4,W,D*1E
$GNVTG,98.233,T,101.671,M,1.73762,N,3.21807,K,D*02
$GNHDT,40.8652,T*26
$GPGGA,045329.20,2234.58451801,N,11431.51552413,E,4,18,0.8,-3.9296,M,-1.3801,M,02,0000*58
$GPRMC,045329.20,A,2234.58451801,N,11431.51552413,E,1.738,98.2,071224,3.4,W,D*17
$GNVTG,94.606,T,98.044,M,1.85186,N,3.42964,K,D*39
$GNHDT,42.3487,T*25
$GPGGA,045329.40,2234.58450972,N,11431.51563493,E,4,17,0.9,-3.9871,M,-1.3801,M,02,0000*5D
$GPRMC,045329.40,A,2234.58450972,N,11431.51563493,E,1.852,94.6,071224,3.4,W,D*14
$GNVTG,102.623,T,106.061,M,1.65236,N,3.06017,K,D*3A
$GNHDT,44.1343,T*2E
$GPGGA,045329.60,2234.58448959,N,11431.51573173,E,4,18,0.9,-4.0058,M,-1.3801,M,02,0000*57
$GPRMC,045329.60,A,2234.58448959,N,11431.51573173,E,1.652,102.6,071224,3.4,W,D*2C
$GNVTG,103.664,T,107.103,M,1.70002,N,3.14844,K,D*30
$GNHDT,45.9657,T*27
$GPGGA,045329.80,2234.58446721,N,11431.51583089,E,4,18,0.9,-3.9847,M,-1.3801,M,00,0000*57
$GPRMC,045329.80,A,2234.58446721,N,11431.51583089,E,1.700,103.7,071224,3.4,W,D*20
$GNVTG,103.506,T,106.944,M,1.76125,N,3.26183,K,D*3C
$GNHDT,47.0668,T*20
$GPGGA,045330.00,2234.58444428,N,11431.51593369,E,4,17,0.9,-4.0150,M,-1.3801,M,01,0000*5C
$GPRMC,045330.00,A,2234.58444428,N,11431.51593369,E,1.761,103.5,071224,3.4,W,D*21
$GNVTG,103.033,T,106.471,M,1.80637,N,3.34540,K,D*31
$GNHDT,47.7510,T*2B
$GPGGA,045330.20,2234.58442157,N,11431.51603933,E,4,17,0.9,-4.0052,M,-1.3801,M,01,0000*59
$GPRMC,045330.20,A,2234.58442157,N,11431.51603933,E,1.806,103.0,071224,3.4,W,D*2C
$GNVTG,109.112,T,112.551,M,1.63752,N,3.03269,K,D*38
$GNHDT,49.3540,T*24
$GPGGA,045330.40,2234.58439168,N,11431.51613221,E,4,17,0.9,-4.0010,M,-1.3801,M,01,0000*50
$GPRMC,045330.40,A,2234.58439168,N,11431.51613221,E,1.638,109.1,071224,3.4,W,D*2B
$GNVTG,107.597,T,111.036,M,1.72769,N,3.19969,K,D*30
$GNHDT,50.5624,T*2B
$GPGGA,045330.60,2234.58436256,N,11431.51623107,E,4,17,0.9,-3.9705,M,-1.3801,M,01,0000*5A
$GPRMC,045330.60,A,2234.58436256,N,11431.51623107,E,1.728,107.6,071224,3.4,W,D*25
$GNVTG,111.556,T,114.994,M,1.81899,N,3.36877,K,D*31
$GNHDT,51.8071,T*21
$GPGGA,045330.80,2234.58432530,N,11431.51633262,E,4,17,0.9,-3.9918,M,-1.3801,M,01,0000*54
$GPRMC,045330.80,A,2234.58432530,N,11431.51633262,E,1.819,111.6,071224,3.4,W,D*23
$GNVTG,106.496,T,109.934,M,1.86239,N,3.44915,K,D*3B
$GNHDT,53.9073,T*20
$GPGGA,045331.00,2234.58429582,N,11431.51643982,E,4,17,0.9,-4.0199,M,-1.3801,M,02,0000*50
$GPRMC,045331.00,A,2234.58429582,N,11431.51643982,E,1.862,106.5,071224,3.4,W,D*22
$GNVTG,109.640,T,113.078,M,1.97007,N,3.64857,K,D*3D
$GNHDT,55.2695,T*23
$GPGGA,045331.20,2234.58425891,N,11431.51655120,E,4,17,0.9,-4.0767,M,-1.3801,M,02,0000*51
$GPRMC,045331.20,A,2234.58425891,N,11431.51655120,E,1.970,109.6,071224,3.4,W,D*2A
$GNVTG,113.197,T,116.635,M,1.73098,N,3.20577,K,D*32
$GNHDT,56.7471,T*2D
$GPGGA,045331.40,2234.58422090,N,11431.51664671,E,4,17,0.9,-4.0615,M,-1.3801,M,02,0000*5C
$GPRMC,045331.40,A,2234.58422090,N,11431.51664671,E,1.731,113.2,071224,3.4,W,D*27
$GNVTG,125.574,T,129.012,M,1.57061,N,2.90876,K,D*37
$GNHDT,58.5375,T*22
$GPGGA,045331.60,2234.58416996,N,11431.51672339,E,4,18,0.9,-4.0251,M,-1.3801,M,02,0000*53
$GPRMC,045331.60,A,2234.58416996,N,11431.51672339,E,1.571,125.6,071224,3.4,W,D*24
$GNVTG,125.229,T,128.667,M,1.63576,N,3.02943,K,D*34
$GNHDT,59.8336,T*29
$GPGGA,045331.80,2234.58411736,N,11431.51680360,E,4,17,0.9,-3.9559,M,-1.3800,M,02,0000*50
$GPRMC,045331.80,A,2234.58411736,N,11431.51680360,E,1.636,125.2,071224,3.4,W,D*2C
$GNVTG,121.565,T,125.004,M,1.71852,N,3.18271,K,D*38
$GNHDT,60.5392,T*20
$GPGGA,045332.00,2234.58406721,N,11431.51689150,E,4,17,0.9,-3.8886,M,-1.3800,M,03,0000*5C
$GPRMC,045332.00,A,2234.58406721,N,11431.51689150,E,1.719,121.6,071224,3.4,W,D*23
$GNVTG,121.511,T,124.949,M,1.67119,N,3.09504,K,D*3E
$GNHDT,61.0478,T*27
$GPGGA,045332.20,2234.58401852,N,11431.51697703,E,4,17,0.9,-3.8792,M,-1.3800,M,03,0000*57
$GPRMC,045332.20,A,2234.58401852,N,11431.51697703,E,1.671,121.5,071224,3.4,W,D*2E
$GNVTG,121.375,T,124.813,M,1.85175,N,3.42944,K,D*35
$GNHDT,62.3719,T*23
$GPGGA,045332.40,2234.58396477,N,11431.51707193,E,4,17,0.9,-3.9374,M,-1.3800,M,02,0000*58
$GPRMC,045332.40,A,2234.58396477,N,11431.51707193,E,1.852,121.4,071224,3.4,W,D*23
$GNVTG,131.751,T,135.190,M,1.67834,N,3.10828,K,D*38
$GNHDT,64.7641,T*2D
$GPGGA,045332.60,2234.58390247,N,11431.51714709,E,4,18,0.8,-3.9904,M,-1.3800,M,02,0000*5D
$GPRMC,045332.60,A,2234.58390247,N,11431.51714709,E,1.678,131.8,071224,3.4,W,D*2E
$GNVTG,129.397,T,132.835,M,1.55125,N,2.87292,K,D*32
$GNHDT,67.1844,T*23
$GPGGA,045332.80,2234.58384758,N,11431.51721905,E,4,18,0.8,-3.9884,M,-1.3800,M,00,0000*52
$GPRMC,045332.80,A,2234.58384758,N,11431.51721905,E,1.551,129.4,071224,3.4,W,D*27
$GNVTG,143.722,T,147.161,M,1.59300,N,2.95023,K,D*3C
$GNHDT,69.6591,T*2F
$GPGGA,045333.00,2234.58377599,N,11431.51727563,E,4,18,0.8,-3.9283,M,-1.3800,M,01,0000*5E
$GPRMC,045333.00,A,2234.58377599,N,11431.51727563,E,1.593,143.7,071224,3.4,W,D*26
$GNVTG,155.653,T,159.091,M,1.46123,N,2.70619,K,D*34
