MC,080907.60,A,2234.23452733,N,11432.10928428,E,0.312,215.9,051224,3.4,W,D*21
$GNVTG,197.426,T,200.860,M,0.39075,N,0.72367,K,D*34
$GNHDT,254.2630,T*1F
$GPGGA,080907.80,2234.23450655,N,11432.10927726,E,4,20,0.8,0.8333,M,-1.3357,M,01,0000*73
$GPRMC,080907.80,A,2234.23450655,N,11432.10927726,E,0.391,197.4,051224,3.4,W,D*21
$GNVTG,210.639,T,214.073,M,0.48640,N,0.90081,K,D*3A
$GNHDT,253.5433,T*1E
$GPGGA,080908.00,2234.23448322,N,11432.10926238,E,4,20,0.8,0.9317,M,-1.3357,M,02,0000*77
$GPRMC,080908.00,A,2234.23448322,N,11432.10926238,E,0.486,210.6,051224,3.4,W,D*2E
$GNVTG,192.786,T,196.220,M,0.38558,N,0.71410,K,D*35
$GNHDT,253.6884,T*1D
$GPGGA,080908.20,2234.23446226,N,11432.10925725,E,4,20,0.8,0.9872,M,-1.3357,M,02,0000*7C
$GPRMC,080908.20,A,2234.23446226,N,11432.10925725,E,0.386,192.8,051224,3.4,W,D*2D
$GNVTG,179.042,T,182.475,M,0.38216,N,0.70777,K,D*32
$GNHDT,253.5474,T*1D
$GPGGA,080908.40,2234.23444096,N,11432.10925764,E,4,20,0.8,1.0171,M,-1.3357,M,02,0000*76
$GPRMC,080908.40,A,2234.23444096,N,11432.10925764,E,0.382,179.0,051224,3.4,W,D*2C
$GNVTG,200.046,T,203.479,M,0.23418,N,0.43370,K,D*3C
$GNHDT,252.7557,T*1E
$GPGGA,080908.60,2234.23442869,N,11432.10925282,E,4,21,0.7,1.0092,M,-1.3357,M,02,0000*75
$GPRMC,080908.60,A,2234.23442869,N,11432.10925282,E,0.234,200.0,051224,3.4,W,D*2C
$GNVTG,248.139,T,251.572,M,0.17864,N,0.33085,K,D*3A
$GNHDT,252.2586,T*17
$GPGGA,080908.80,2234.23442498,N,11432.10924287,E,4,21,0.7,0.9632,M,-1.3357,M,00,0000*7B
$GPRMC,080908.80,A,2234.23442498,N,11432.10924287,E,0.179,248.1,051224,3.4,W,D*23
$GNVTG,213.037,T,216.470,M,0.20183,N,0.37378,K,D*3A
$GNHDT,252.0580,T*13
$GPGGA,080909.00,2234.23441555,N,11432.10923626,E,4,20,0.8,0.8729,M,-1.3357,M,01,0000*7C
$GPRMC,080909.00,A,2234.23441555,N,11432.10923626,E,0.202,213.0,051224,3.4,W,D*21
$GNVTG,178.750,T,182.184,M,0.43890,N,0.81285,K,D*32
$GNHDT,251.6225,T*1E
$GPGGA,080909.20,2234.23439109,N,11432.10923684,E,4,21,0.7,0.7418,M,-1.3357,M,01,0000*74
$GPRMC,080909.20,A,2234.23439109,N,11432.10923684,E,0.439,178.7,051224,3.4,W,D*2E
$GNVTG,200.034,T,203.468,M,0.43520,N,0.80598,K,D*3A
$GNHDT,251.5283,T*11
$GPGGA,080909.40,2234.23436830,N,11432.10922789,E,4,20,0.7,0.7282,M,-1.3357,M,01,0000*77
$GPRMC,080909.40,A,2234.23436830,N,11432.10922789,E,0.435,200.0,051224,3.4,W,D*2E
$GNVTG,202.815,T,206.249,M,0.52516,N,0.97259,K,D*3A
$GNHDT,251.1742,T*1D
$GPGGA,080909.60,2234.23434131,N,11432.10921566,E,4,19,0.8,0.8454,M,-1.3357,M,01,0000*78
$GPRMC,080909.60,A,2234.23434131,N,11432.10921566,E,0.525,202.8,051224,3.4,W,D*2C
$GNVTG,176.449,T,179.882,M,0.53961,N,0.99935,K,D*3B
$GNHDT,250.9502,T*12
$GPGGA,080909.80,2234.23431129,N,11432.10921767,E,4,20,0.8,0.9317,M,-1.3357,M,01,0000*72
$GPRMC,080909.80,A,2234.23431129,N,11432.10921767,E,0.540,176.4,051224,3.4,W,D*22
$GNVTG,169.234,T,172.667,M,0.46962,N,0.86974,K,D*3B
$GNHDT,250.9622,T*13
$GPGGA,080910.00,2234.23428557,N,11432.10922294,E,4,20,0.8,0.9821,M,-1.3357,M,02,0000*70
$GPRMC,080910.00,A,2234.23428557,N,11432.10922294,E,0.470,169.2,051224,3.4,W,D*27
$GNVTG,181.347,T,184.780,M,0.17971,N,0.33283,K,D*32
$GNHDT,250.4428,T*16
$GPGGA,080910.20,2234.23427555,N,11432.10922268,E,4,20,0.8,1.0343,M,-1.3357,M,02,0000*7B
$GPRMC,080910.20,A,2234.23427555,N,11432.10922268,E,0.180,181.3,051224,3.4,W,D*26
$GNVTG,195.240,T,198.673,M,0.14522,N,0.26895,K,D*31
$GNHDT,249.9173,T*18
$GPGGA,080910.40,2234.23426774,N,11432.10922039,E,4,20,0.8,1.0032,M,-1.3357,M,02,0000*7E
$GPRMC,080910.40,A,2234.23426774,N,11432.10922039,E,0.145,195.2,051224,3.4,W,D*2B
$GNVTG,167.146,T,170.579,M,0.23930,N,0.44319,K,D*36
$GNHDT,249.6261,T*17
$GPGGA,080910.60,2234.23425474,N,11432.10922359,E,4,20,0.8,0.9167,M,-1.3357,M,01,0000*73
$GPRMC,080910.60,A,2234.23425474,N,11432.10922359,E,0.239,167.1,051224,3.4,W,D*2A
$GNVTG,201.272,T,204.706,M,0.24882,N,0.46081,K,D*34
$GNHDT,248.7047,T*11
$GPGGA,080910.80,2234.23424181,N,11432.10921817,E,4,20,0.8,0.8912,M,-1.3357,M,00,0000*7B
$GPRMC,080910.80,A,2234.23424181,N,11432.10921817,E,0.249,201.3,051224,3.4,W,D*2E
$GNVTG,179.189,T,182.622,M,0.34487,N,0.63869,K,D*34
$GNHDT,248.8891,T*1D
$GPGGA,080911.00,2234.23422259,N,11432.10921846,E,4,21,0.7,0.8733,M,-1.3357,M,01,0000*74
$GPRMC,080911.00,A,2234.23422259,N,11432.10921846,E,0.345,179.2,051224,3.4,W,D*23
$GNVTG,174.050,T,177.484,M,0.67753,N,1.25478,K,D*3B
$GNHDT,248.7999,T*1B
$GPGGA,080911.20,2234.23418502,N,11432.10922268,E,4,21,0.7,0.8335,M,-1.3357,M,01,0000*71
$GPRMC,080911.20,A,2234.23418502,N,11432.10922268,E,0.678,174.1,051224,3.4,W,D*21
$GNVTG,168.373,T,171.807,M,0.48354,N,0.89551,K,D*36
$GNHDT,248.8497,T*17
$GPGGA,080911.40,2234.23415862,N,11432.10922853,E,4,20,0.8,0.9041,M,-1.3357,M,01,0000*7C
$GPRMC,080911.40,A,2234.23415862,N,11432.10922853,E,0.484,168.4,051224,3.4,W,D*2A
$GNVTG,171.046,T,174.479,M,0.41209,N,0.76319,K,D*31
$GNHDT,248.8057,T*1F
$GPGGA,080911.60,2234.23413592,N,11432.10923238,E,4,20,0.8,0.9705,M,-1.3357,M,01,0000*7B
$GPRMC,080911.60,A,2234.23413592,N,11432.10923238,E,0.412,171.0,051224,3.4,W,D*29
$GNVTG,171.420,T,174.853,M,0.41397,N,0.76668,K,D*34
$GNHDT,248.6726,T*10
$GPGGA,080911.80,2234.23411310,N,11432.10923608,E,4,20,0.8,0.9924,M,-1.3357,M,00,0000*70
$GPRMC,080911.80,A,2234.23411310,N,11432.10923608,E,0.414,171.4,051224,3.4,W,D*2C
$GNVTG,193.633,T,197.066,M,0.15180,N,0.28113,K,D*3E
$GNHDT,247.6343,T*18
$GPGGA,080912.00,2234.23410488,N,11432.10923394,E,4,20,0.8,1.0060,M,-1.3357,M,01,0000*7C
$GPRMC,080912.00,A,2234.23410488,N,11432.10923394,E,0.152,193.6,051224,3.4,W,D*29
$GNVTG,151.875,T,155.308,M,0.22319,N,0.41335,K,D*36
$GNHDT,247.4259,T*10
$GPGGA,080912.20,2234.23409391,N,11432.10924025,E,4,19,0.8,0.9327,M,-1.3357,M,01,0000*75
$GPRMC,080912.20,A,2234.23409391,N,11432.10924025,E,0.223,151.9,051224,3.4,W,D*26
$GNVTG,183.011,T,186.445,M,0.20671,N,0.38283,K,D*38
$GNHDT,247.0170,T*1C
$GPGGA,080912.40,2234.23408240,N,11432.10923960,E,4,19,0.8,0.8729,M,-1.3357,M,01,0000*7B
$GPRMC,080912.40,A,2234.23408240,N,11432.10923960,E,0.207,183.0,051224,3.4,W,D*23
$GNVTG,187.116,T,190.549,M,0.26087,N,0.48314,K,D*31
$GNHDT,246.7289,T*1F
$GPGGA,080912.60,2234.23406797,N,11432.10923766,E,4,19,0.8,0.8374,M,-1.3357,M,01,0000*7C
$GPRMC,080912.60,A,2234.23406797,N,11432.10923766,E,0.261,187.1,051224,3.4,W,D*2D
$GNVTG,189.071,T,192.505,M,0.33789,N,0.62578,K,D*3C
$GNHDT,246.6431,T*1B
$GPGGA,080912.80,2234.23404937,N,11432.10923446,E,4,20,0.8,0.8541,M,-1.3357,M,00,0000*7E
$GPRMC,080912.80,A,2234.23404937,N,11432.10923446,E,0.338,189.1,051224,3.4,W,D*27
$GNVTG,176.144,T,179.577,M,0.42032,N,0.77843,K,D*3B
$GNHDT,246.6163,T*19
$GPGGA,080913.00,2234.23402599,N,11432.10923616,E,4,20,0.8,0.9162,M,-1.3357,M,01,0000*7B
$GPRMC,080913.00,A,2234.23402599,N,11432.10923616,E,0.420,176.1,051224,3.4,W,D*29
$GNVTG,195.816,T,199.250,M,0.41581,N,0.77007,K,D*32
$GNHDT,246.0829,T*18
$GPGGA,080913.20,2234.23400369,N,11432.10922936,E,4,20,0.8,0.9709,M,-1.3357,M,01,0000*75
$GPRMC,080913.20,A,2234.23400369,N,11432.10922936,E,0.416,195.8,051224,3.4,W,D*2D
$GNVTG,180.403,T,183.836,M,0.41571,N,0.76990,K,D*36
$GNHDT,246.2450,T*18
$GPGGA,080913.40,2234.23398051,N,11432.10922918,E,4,20,0.8,0.9995,M,-1.3357,M,01,0000*7A
$GPRMC,080913.40,A,2234.23398051,N,11432.10922918,E,0.416,180.4,051224,3.4,W,D*21
$GNVTG,199.073,T,202.506,M,0.24519,N,0.45410,K,D*31
$GNHDT,245.2695,T*10
$GPGGA,080913.60,2234.23396759,N,11432.10922437,E,4,19,0.8,0.9919,M,-1.3357,M,01,0000*77
$GPRMC,080913.60,A,2234.23396759,N,11432.10922437,E,0.245,199.1,051224,3.4,W,D*2F
$GNVTG,223.790,T,227.224,M,0.26583,N,0.49231,K,D*31
$GNHDT,244.7549,T*16
$GPGGA,080913.80,2234.23395690,N,11432.10921333,E,4,19,0.8,0.9946,M,-1.3357,M,00,0000*75
$GPRMC,080913.80,A,2234.23395690,N,11432.10921333,E,0.266,223.8,051224,3.4,W,D*2C
$GNVTG,171.284,T,174.717,M,0.25208,N,0.46685,K,D*36
$GNHDT,245.0101,T*18
$GPGGA,080914.00,2234.23394301,N,11432.10921562,E,4,18,0.8,0.9326,M,-1.3357,M,01,0000*78
$GPRMC,080914.00,A,2234.23394301,N,11432.10921562,E,0.252,171.3,051224,3.4,W,D*25
$GNVTG,200.383,T,203.817,M,0.38108,N,0.70576,K,D*3C
$GNHDT,244.3052,T*1D
$GPGGA,080914.20,2234.23392309,N,11432.10920766,E,4,18,0.8,0.9332,M,-1.3357,M,01,0000*76
$GPRMC,080914.20,A,2234.23392309,N,11432.10920766,E,0.381,200.4,051224,3.4,W,D*23
$GNVTG,177.817,T,181.251,M,0.48894,N,0.90552,K,D*3B
$GNHDT,244.7440,T*1E
$GPGGA,080914.40,2234.23389586,N,11432.10920877,E,4,18,0.8,0.9273,M,-1.3357,M,01,0000*70
$GPRMC,080914.40,A,2234.23389586,N,11432.10920877,E,0.489,177.8,051224,3.4,W,D*21
$GNVTG,193.772,T,197.205,M,0.58117,N,1.07633,K,D*33
$GNHDT,244.1918,T*18
$GPGGA,080914.60,2234.23386439,N,11432.10920047,E,4,20,0.8,0.9494,M,-1.3357,M,01,0000*77
$GPRMC,080914.60,A,2234.23386439,N,11432.10920047,E,0.581,193.8,051224,3.4,W,D*21
$GNVTG,188.567,T,192.000,M,0.48851,N,0.90472,K,D*3F
$GNHDT,243.5384,T*14
$GPGGA,080914.80,2234.23383746,N,11432.10919610,E,4,20,0.8,0.9875,M,-1.3357,M,01,0000*7A
$GPRMC,080914.80,A,2234.23383746,N,11432.10919610,E,0.489,188.6,051224,3.4,W,D*22
$GNVTG,197.095,T,200.529,M,0.44075,N,0.81628,K,D*30
$GNHDT,243.5795,T*10
$GPGGA,080915.00,2234.23381397,N,11432.10918832,E,4,19,0.8,0.9935,M,-1.3357,M,02,0000*7A
$GPRMC,080915.00,A,2234.23381397,N,11432.10918832,E,0.441,197.1,051224,3.4,W,D*23
$GNVTG,192.161,T,195.594,M,0.25122,N,0.46527,K,D*35
$GNHDT,242.9990,T*16
$GPGGA,080915.20,2234.23380028,N,11432.10918515,E,4,20,0.7,0.9952,M,-1.3357,M,02,0000*72
$GPRMC,080915.20,A,2234.23380028,N,11432.10918515,E,0.251,192.2,051224,3.4,W,D*2E
$GNVTG,185.637,T,189.070,M,0.26420,N,0.48930,K,D*35
$GNHDT,242.5997,T*1D
$GPGGA,080915.40,2234.23378563,N,11432.10918359,E,4,20,0.7,0.9694,M,-1.3357,M,02,0000*72
$GPRMC,080915.40,A,2234.23378563,N,11432.10918359,E,0.264,185.6,051224,3.4,W,D*2F
$GNVTG,185.707,T,189.141,M,0.25946,N,0.48051,K,D*34
$GNHDT,242.5662,T*18
$GPGGA,080915.60,2234.23377123,N,11432.10918204,E,4,20,0.7,0.9390,M,-1.3357,M,02,0000*77
$GPRMC,080915.60,A,2234.23377123,N,11432.10918204,E,0.259,185.7,051224,3.4,W,D*24
$GNVTG,164.634,T,168.068,M,0.30033,N,0.55620,K,D*3C
$GNHDT,242.4219,T*11
$GPGGA,080915.80,2234.23375509,N,11432.10918682,E,4,20,0.7,0.8986,M,-1.3357,M,02,0000*71
$GPRMC,080915.80,A,2234.23375509,N,11432.10918682,E,0.300,164.6,051224,3.4,W,D*2D
$GNVTG,177.463,T,180.896,M,0.27788,N,0.51464,K,D*36
$GNHDT,242.0816,T*10
$GPGGA,080916.00,2234.23373961,N,11432.10918756,E,4,20,0.7,0.8887,M,-1.3357,M,03,0000*77
$GPRMC,080916.00,A,2234.23373961,N,11432.10918756,E,0.278,177.5,051224,3.4,W,D*25
$GNVTG,161.733,T,165.167,M,0.47564,N,0.88088,K,D*3F
$GNHDT,241.7937,T*16
$GPGGA,080916.20,2234.23371443,N,11432.10919650,E,4,21,0.7,0.8674,M,-1.3357,M,03,0000*7F
$GPRMC,080916.20,A,2234.23371443,N,11432.10919650,E,0.476,161.7,051224,3.4,W,D*23
$GNVTG,175.448,T,178.882,M,0.36623,N,0.67825,K,D*33
$GNHDT,241.7344,T*18
$GPGGA,080916.40,2234.23369408,N,11432.10919825,E,4,22,0.7,0.9075,M,-1.3357,M,03,0000*76
$GPRMC,080916.40,A,2234.23369408,N,11432.10919825,E,0.366,175.4,051224,3.4,W,D*2F
$GNVTG,183.058,T,186.491,M,0.30896,N,0.57220,K,D*3A
$GNHDT,241.0330,T*1C
$GPGGA,080916.60,2234.23367688,N,11432.10919726,E,4,21,0.7,0.9209,M,-1.3357,M,03,0000*76
$GPRMC,080916.60,A,2234.23367688,N,11432.10919726,E,0.309,183.1,051224,3.4,W,D*20
$GNVTG,183.355,T,186.788,M,0.32131,N,0.59506,K,D*34
$GNHDT,241.2897,T*18
$GPGGA,080916.80,2234.23365900,N,11432.10919613,E,4,21,0.7,0.9267,M,-1.3357,M,03,0000*7A
$GPRMC,080916.80,A,2234.23365900,N,11432.10919613,E,0.321,183.4,051224,3.4,W,D*2B
$GNVTG,189.335,T,192.768,M,0.13489,N,0.24982,K,D*3C
$GNHDT,240.9040,T*10
$GPGGA,080917.00,2234.23365158,N,11432.10919482,E,4,20,0.7,0.9766,M,-1.3357,M,04,0000*7E
$GPRMC,080917.00,A,2234.23365158,N,11432.10919482,E,0.135,189.3,051224,3.4,W,D*27
$GNVTG,216.376,T,219.809,M,0.17956,N,0.33255,K,D*3A
$GNHDT,240.4803,T*12
$GPGGA,080917.20,2234.23364352,N,11432.10918843,E,4,20,0.7,0.9940,M,-1.3357,M,04,0000*7F
$GPRMC,080917.20,A,2234.23364352,N,11432.10918843,E,0.180,216.4,051224,3.4,W,D*20
$GNVTG,155.559,T,158.992,M,0.17401,N,0.32226,K,D*3A
$GNHDT,240.3726,T*1D
$GPGGA,080917.40,2234.23363469,N,11432.10919275,E,4,20,0.7,0.9883,M,-1.3357,M,04,0000*71
$GPRMC,080917.40,A,2234.23363469,N,11432.10919275,E,0.174,155.6,051224,3.4,W,D*2D
$GNVTG,162.343,T,165.777,M,0.23157,N,0.42887,K,D*3F
$GNHDT,240.3527,T*1E
$GPGGA,080917.60,2234.23362239,N,11432.10919696,E,4,20,0.7,0.9986,M,-1.3357,M,04,0000*7C
$GPRMC,080917.60,A,2234.23362239,N,11432.10919696,E,0.232,162.3,051224,3.4,W,D*24
$GNVTG,163.843,T,167.277,M,0.30507,N,0.56499,K,D*37
$GNHDT,240.3681,T*11
$GPGGA,080917.80,2234.23360605,N,11432.10920206,E,4,20,0.7,0.9886,M,-1.3357,M,00,0000*79
$GPRMC,080917.80,A,2234.23360605,N,11432.10920206,E,0.305,163.8,051224,3.4,W,D*2B
$GNVTG,195.532,T,198.965,M,0.43500,N,0.80562,K,D*30
$GNHDT,240.3028,T*14
$GPGGA,080918.00,2234.23358269,N,11432.10919507,E,4,20,0.7,0.9860,M,-1.3357,M,01,0000*7E
$GPRMC,080918.00,A,2234.23358269,N,11432.10919507,E,0.435,195.5,051224,3.4,W,D*25
$GNVTG,211.132,T,214.565,M,0.25372,N,0.46988,K,D*31
$GNHDT,239.6690,T*1A
$GPGGA,080918.20,2234.23357058,N,11432.10918719,E,4,19,0.8,0.9651,M,-1.3357,M,01,0000*76
$GPRMC,080918.20,A,2234.23357058,N,11432.10918719,E,0.254,211.1,051224,3.4,W,D*2E
$GNVTG,187.836,T,191.270,M,0.32782,N,0.60712,K,D*39
$GNHDT,239.3126,T*15
$GPGGA,080918.40,2234.23355248,N,11432.10918451,E,4,19,0.8,0.9548,M,-1.3357,M,01,0000*75
$GPRMC,080918.40,A,2234.23355248,N,11432.10918451,E,0.328,187.8,051224,3.4,W,D*29
$GNVTG,177.879,T,181.313,M,0.24190,N,0.44801,K,D*31
$GNHDT,239.5216,T*13
$GPGGA,080918.60,2234.23353900,N,11432.10918505,E,4,18,0.8,0.9300,M,-1.3357,M,01,0000*7D
$GPRMC,080918.60,A,2234.23353900,N,11432.10918505,E,0.242,177.9,051224,3.4,W,D*29
$GNVTG,165.653,T,169.086,M,0.17032,N,0.31544,K,D*3A
$GNHDT,239.5570,T*14
$GPGGA,080918.80,2234.23352980,N,11432.10918758,E,4,18,0.8,0.9506,M,-1.3357,M,00,0000*71
$GPRMC,080918.80,A,2234.23352980,N,11432.10918758,E,0.170,165.7,051224,3.4,W,D*2B
$GNVTG,161.935,T,165.369,M,0.15308,N,0.28351,K,D*3D
$GNHDT,239.4943,T*19
$GPGGA,080919.00,2234.23352169,N,11432.10919043,E,4,18,0.8,0.9470,M,-1.3357,M,01,0000*7A
$GPRMC,080919.00,A,2234.23352169,N,11432.10919043,E,0.153,161.9,051224,3.4,W,D*2A
$GNVTG,155.363,T,158.796,M,0.42589,N,0.78875,K,D*3C
$GNHDT,239.6147,T*17
$GPGGA,080919.20,2234.23350011,N,11432.10920109,E,4,18,0.8,0.8932,M,-1.3357,M,01,0000*7B
$GPRMC,080919.20,A,2234.23350011,N,11432.10920109,E,0.426,155.4,051224,3.4,W,D*2C
$GNVTG,185.772,T,189.206,M,0.29452,N,0.54546,K,D*3C
$GNHDT,239.4644,T*11
$GPGGA,080919.40,2234.23348377,N,11432.10919931,E,4,19,0.8,0.9112,M,-1.3357,M,01,0000*74
$GPRMC,080919.40,A,2234.23348377,N,11432.10919931,E,0.295,185.8,051224,3.4,W,D*26
$GNVTG,171.835,T,175.268,M,0.21299,N,0.39445,K,D*30
$GNHDT,239.3036,T*15
$GPGGA,080919.60,2234.23347202,N,11432.10920112,E,4,19,0.8,0.9213,M,-1.3357,M,01,0000*7B
$GPRMC,080919.60,A,2234.23347202,N,11432.10920112,E,0.213,171.8,051224,3.4,W,D*2E
$GNVTG,191.946,T,195.380,M,0.25175,N,0.46624,K,D*3A
$GNHDT,239.2817,T*1F
$GPGGA,080919.80,2234.23345829,N,11432.10919800,E,4,19,0.8,0.9359,M,-1.3357,M,00,0000*7A
$GPRMC,080919.80,A,2234.23345829,N,11432.10919800,E,0.252,191.9,051224,3.4,W,D*2B
$GNVTG,200.629,T,204.062,M,0.15475,N,0.28660,K,D*3D
$GNHDT,238.6158,T*18
$GPGGA,080920.00,2234.23345022,N,11432.10919472,E,4,19,0.8,0.9394,M,-1.3357,M,01,0000*72
$GPRMC,080920.00,A,2234.23345022,N,11432.10919472,E,0.155,200.6,051224,3.4,W,D*23
$GNVTG,168.908,T,172.342,M,0.34397,N,0.63704,K,D*3B
$GNHDT,239.0440,T*13
$GPGGA,080920.20,2234.23343140,N,11432.10919870,E,4,20,0.7,0.8707,M,-1.3357,M,01,0000*77
$GPRMC,080920.20,A,2234.23343140,N,11432.10919870,E,0.344,168.9,051224,3.4,W,D*2C
$GNVTG,186.874,T,190.307,M,0.15888,N,0.29425,K,D*34
$GNHDT,238.8313,T*1B
$GPGGA,080920.40,2234.23342261,N,11432.10919755,E,4,20,0.7,0.8732,M,-1.3357,M,01,0000*7E
$GPRMC,080920.40,A,2234.23342261,N,11432.10919755,E,0.159,186.9,051224,3.4,W,D*2D
$GNVTG,159.464,T,162.898,M,0.16946,N,0.31384,K,D*3E
$GNHDT,238.7488,T*11
$GPGGA,080920.60,2234.23341376,N,11432.10920112,E,4,20,0.7,0.8900,M,-1.3357,M,01,0000*78
$GPRMC,080920.60,A,2234.23341376,N,11432.10920112,E,0.169,159.5,051224,3.4,W,D*29
$GNVTG,189.018,T,192.451,M,0.24957,N,0.46220,K,D*34
$GNHDT,238.5300,T*14
$GPGGA,080920.80,2234.23340002,N,11432.10919878,E,4,19,0.8,0.8972,M,-1.3357,M,00,0000*79
$GPRMC,080920.80,A,2234.23340002,N,11432.10919878,E,0.250,189.0,051224,3.4,W,D*28
$GNVTG,161.964,T,165.398,M,0.17717,N,0.32811,K,D*3B
$GNHDT,238.1942,T*1C
$GPGGA,080921.00,2234.23339063,N,11432.10920207,E,4,19,0.8,0.9224,M,-1.3357,M,01,0000*79
$GPRMC,080921.00,A,2234.23339063,N,11432.10920207,E,0.177,162.0,051224,3.4,W,D*23
$GNVTG,197.913,T,201.347,M,0.22851,N,0.42321,K,D*35
$GNHDT,238.3109,T*19
$GPGGA,080921.20,2234.23337851,N,11432.10919785,E,4,19,0.8,0.9311,M,-1.3357,M,01,0000*7E
$GPRMC,080921.20,A,2234.23337851,N,11432.10919785,E,0.229,197.9,051224,3.4,W,D*28
$GNVTG,186.001,T,189.434,M,0.28984,N,0.53678,K,D*35
$GNHDT,238.0124,T*15
$GPGGA,080921.40,2234.23336244,N,11432.10919603,E,4,19,0.8,0.9593,M,-1.3357,M,01,0000*74
$GPRMC,080921.40,A,2234.23336244,N,11432.10919603,E,0.290,186.0,051224,3.4,W,D*25
$GNVTG,198.541,T,201.975,M,0.28626,N,0.53016,K,D*39
$GNHDT,238.0381,T*18
$GPGGA,080921.60,2234.23334731,N,11432.10919057,E,4,19,0.8,0.9505,M,-1.3357,M,01,0000*7B
$GPRMC,080921.60,A,2234.23334731,N,11432.10919057,E,0.286,198.5,051224,3.4,W,D*28
$GNVTG,210.684,T,214.117,M,0.21512,N,0.39840,K,D*32
$GNHDT,237.5051,T*1C
$GPGGA,080921.80,2234.23333699,N,11432.10918398,E,4,19,0.8,0.9645,M,-1.3357,M,00,0000*76
$GPRMC,080921.80,A,2234.23333699,N,11432.10918398,E,0.215,210.7,051224,3.4,W,D*28
$GNVTG,176.580,T,180.014,M,0.26455,N,0.48995,K,D*30
$GNHDT,238.1051,T*17
$GPGGA,080922.00,2234.23332227,N,11432.10918492,E,4,18,0.8,0.9279,M,-1.3357,M,01,0000*7B
$GPRMC,080922.00,A,2234.23332227,N,11432.10918492,E,0.265,176.6,051224,3.4,W,D*2B
$GNVTG,167.632,T,171.065,M,0.12645,N,0.23419,K,D*32
$GNHDT,238.2717,T*11
$GPGGA,080922.20,2234.23331539,N,11432.10918655,E,4,18,0.8,0.9263,M,-1.3357,M,01,0000*70
$GPRMC,080922.20,A,2234.23331539,N,11432.10918655,E,0.126,167.6,051224,3.4,W,D*2F
$GNVTG,170.955,T,174.389,M,0.10840,N,0.20076,K,D*39
$GNHDT,238.2182,T*1B
$GPGGA,080922.40,2234.23330942,N,11432.10918757,E,4,18,0.8,0.9316,M,-1.3357,M,01,0000*77
$GPRMC,080922.40,A,2234.23330942,N,11432.10918757,E,0.108,171.0,051224,3.4,W,D*26
$GNVTG,125.169,T,128.602,M,0.19238,N,0.35630,K,D*3D
$GNHDT,238.3611,T*17
$GPGGA,080922.60,2234.23330324,N,11432.10919701,E,4,18,0.8,0.8939,M,-1.3357,M,01,0000*7B
$GPRMC,080922.60,A,2234.23330324,N,11432.10919701,E,0.192,125.2,051224,3.4,W,D*2C
$GNVTG,199.136,T,202.570,M,0.18759,N,0.34741,K,D*38
$GNHDT,238.0283,T*1B
$GPGGA,080922.80,2234.23329336,N,11432.10919332,E,4,18,0.8,0.9063,M,-1.3357,M,00,0000*7C
$GPRMC,080922.80,A,2234.23329336,N,11432.10919332,E,0.188,199.1,051224,3.4,W,D*22
$GNVTG,174.460,T,177.893,M,0.19690,N,0.36465,K,D*3E
$GNHDT,238.1022,T*13
$GPGGA,080923.00,2234.23328244,N,11432.10919446,E,4,18,0.8,0.8960,M,-1.3357,M,01,0000*7E
$GPRMC,080923.00,A,2234.23328244,N,11432.10919446,E,0.197,174.5,051224,3.4,W,D*23
$GNVTG,217.928,T,221.361,M,0.20349,N,0.37686,K,D*3A
$GNHDT,237.5770,T*18
$GPGGA,080923.20,2234.23327349,N,11432.10918695,E,4,18,0.8,0.9133,M,-1.3357,M,01,0000*7D
$GPRMC,080923.20,A,2234.23327349,N,11432.10918695,E,0.203,217.9,051224,3.4,W,D*2B
$GNVTG,207.204,T,210.638,M,0.25789,N,0.47762,K,D*34
$GNHDT,237.5217,T*1C
$GPGGA,080923.40,2234.23326070,N,11432.10917988,E,4,18,0.8,0.9189,M,-1.3357,M,01,0000*7E
$GPRMC,080923.40,A,2234.23326070,N,11432.10917988,E,0.258,207.2,051224,3.4,W,D*2D
$GNVTG,200.443,T,203.877,M,0.14716,N,0.27254,K,D*33
$GNHDT,237.6364,T*1A
$GPGGA,080923.60,2234.23325302,N,11432.10917679,E,4,19,0.8,0.9226,M,-1.3357,M,01,0000*7F
$GPRMC,080923.60,A,2234.23325302,N,11432.10917679,E,0.147,200.4,051224,3.4,W,D*27
$GNVTG,195.032,T,198.465,M,0.04237,N,0.07848,K,D*32
$GNHDT,237.0879,T*1B
$GPGGA,080923.80,2234.23325073,N,11432.10917613,E,4,19,0.8,0.9599,M,-1.3357,M,00,0000*7A
$GPRMC,080923.80,A,2234.23325073,N,11432.10917613,E,0.042,195.0,051224,3.4,W,D*2F
$GNVTG,148.877,T,152.310,M,0.19399,N,0.35927,K,D*38
$GNHDT,238.0350,T*14
$GPGGA,080924.00,2234.23324148,N,11432.10918215,E,4,18,0.8,0.9585,M,-1.3357,M,01,0000*7D
$GPRMC,080924.00,A,2234.23324148,N,11432.10918215,E,0.194,148.9,051224,3.4,W,D*26
$GNVTG,138.798,T,142.232,M,0.29936,N,0.55442,K,D*35
$GNHDT,237.8318,T*1F
$GPGGA,080924.20,2234.23322892,N,11432.10919399,E,4,19,0.8,0.9362,M,-1.3357,M,01,0000*7D
$GPRMC,080924.20,A,2234.23322892,N,11432.10919399,E,0.299,138.8,051224,3.4,W,D*20
$GNVTG,192.484,T,195.917,M,0.25713,N,0.47620,K,D*3D
$GNHDT,237.6425,T*18
$GPGGA,080924.40,2234.23321492,N,11432.10919065,E,4,19,0.8,0.9663,M,-1.3357,M,01,0000*70
$GPRMC,080924.40,A,2234.23321492,N,11432.10919065,E,0.257,192.5,051224,3.4,W,D*26
$GNVTG,194.715,T,198.149,M,0.21959,N,0.40668,K,D*31
$GNHDT,237.3458,T*17
$GPGGA,080924.60,2234.23320308,N,11432.10918730,E,4,19,0.8,0.9731,M,-1.3357,M,01,0000*77
$GPRMC,080924.60,A,2234.23320308,N,11432.10918730,E,0.220,194.7,051224,3.4,W,D*23
$GNVTG,205.931,T,209.364,M,0.40910,N,0.75766,K,D*37
$GNHDT,237.5958,T*1C
$GPGGA,080924.80,2234.23318257,N,11432.10917656,E,4,18,0.8,0.9639,M,-1.3357,M,00,0000*7E
$GPRMC,080924.80,A,2234.23318257,N,11432.10917656,E,0.409,205.9,051224,3.4,W,D*2B
$GNVTG,211.768,T,215.201,M,0.35619,N,0.65966,K,D*34
$GNHDT,237.1790,T*12
$GPGGA,080925.00,2234.23316569,N,11432.10916531,E,4,18,0.8,0.9880,M,-1.3356,M,01,0000*7C
$GPRMC,080925.00,A,2234.23316569,N,11432.10916531,E,0.356,211.8,051224,3.4,W,D*2C
$GNVTG,198.559,T,201.993,M,0.51436,N,0.95259,K,D*36
$GNHDT,237.2788,T*18
$GPGGA,080925.20,2234.23313851,N,11432.10915548,E,4,18,0.8,1.0018,M,-1.3356,M,01,0000*71
$GPRMC,080925.20,A,2234.23313851,N,11432.10915548,E,0.514,198.6,051224,3.4,W,D*2C
$GNVTG,202.759,T,206.192,M,0.34667,N,0.64204,K,D*39
$GNHDT,237.2309,T*15
$GPGGA,080925.40,2234.23312069,N,11432.10914743,E,4,19,0.8,1.0349,M,-1.3356,M,01,0000*7B
$GPRMC,080925.40,A,2234.23312069,N,11432.10914743,E,0.347,202.8,051224,3.4,W,D*2E
$GNVTG,164.871,T,168.305,M,0.30643,N,0.56750,K,D*3F
$GNHDT,237.6525,T*19
$GPGGA,080925.60,2234.23310420,N,11432.10915223,E,4,18,0.8,1.0041,M,-1.3356,M,01,0000*7A
$GPRMC,080925.60,A,2234.23310420,N,11432.10915223,E,0.306,164.9,051224,3.4,W,D*22
$GNVTG,180.948,T,184.382,M,0.17685,N,0.32753,K,D*3D
$GNHDT,237.6227,T*1C
$GPGGA,080925.80,2234.23309434,N,11432.10915206,E,4,18,0.8,0.9682,M,-1.3356,M,00,0000*7E
$GPRMC,080925.80,A,2234.23309434,N,11432.10915206,E,0.177,180.9,051224,3.4,W,D*28
$GNVTG,195.902,T,199.335,M,0.18192,N,0.33692,K,D*34
$GNHDT,237.7309,T*10
$GPGGA,080926.00,2234.23308459,N,11432.10914906,E,4,18,0.8,0.9558,M,-1.3356,M,01,0000*70
$GPRMC,080926.00,A,2234.23308459,N,11432.10914906,E,0.182,195.9,051224,3.4,W,D*2D
$GNVTG,185.065,T,188.499,M,0.19447,N,0.36015,K,D*3C
$GNHDT,237.6067,T*1A
$GPGGA,080926.20,2234.23307379,N,11432.10914803,E,4,18,0.8,0.9071,M,-1.3356,M,01,0000*72
$GPRMC,080926.20,A,2234.23307379,N,11432.10914803,E,0.194,185.1,051224,3.4,W,D*2F
$GNVTG,198.619,T,202.052,M,0.25533,N,0.47287,K,D*3D
$GNHDT,237.5974,T*12
$GPGGA,080926.40,2234.23306030,N,11432.10914314,E,4,18,0.8,0.8615,M,-1.3357,M,01,0000*72
$GPRMC,080926.40,A,2234.23306030,N,11432.10914314,E,0.255,198.6,051224,3.4,W,D*2E
$GNVTG,195.783,T,199.216,M,0.25738,N,0.47666,K,D*33
$GNHDT,237.5760,T*19
$GPGGA,080926.60,2234.23304649,N,11432.10913894,E,4,19,0.8,0.8506,M,-1.3357,M,01,0000*7E
$GPRMC,080926.60,A,2234.23304649,N,11432.10913894,E,0.257,195.8,051224,3.4,W,D*23
$GNVTG,188.248,T,191.681,M,0.20461,N,0.37894,K,D*31
$GNHDT,237.3723,T*18
$GPGGA,080926.80,2234.23303520,N,11432.10913718,E,4,19,0.8,0.8853,M,-1.3357,M,00,0000*7C
$GPRMC,080926.80,A,2234.23303520,N,11432.10913718,E,0.205,188.2,051224,3.4,W,D*2C
$GNVTG,177.048,T,180.481,M,0.14037,N,0.25996,K,D*31
$GNHDT,237.7037,T*1E
$GPGGA,080927.00,2234.23302739,N,11432.10913761,E,4,19,0.8,0.8662,M,-1.3357,M,01,0000*7D
$GPRMC,080927.00,A,2234.23302739,N,11432.10913761,E,0.140,177.0,051224,3.4,W,D*20
$GNVTG,88.171,T,91.605,M,0.09334,N,0.17286,K,D*33
$GNHDT,237.6331,T*1A
$GPGGA,080927.20,2234.23302755,N,11432.10914321,E,4,19,0.8,0.8366,M,-1.3357,M,01,0000*73
$GPRMC,080927.20,A,2234.23302755,N,11432.10914321,E,0.093,88.2,051224,3.4,W,D*13
$GNVTG,49.419,T,52.853,M,0.09256,N,0.17142,K,D*39
$GNHDT,237.3647,T*1B
$GPGGA,080927.40,2234.23303091,N,11432.10914743,E,4,19,0.8,0.8351,M,-1.3356,M,01,0000*7E
$GPRMC,080927.40,A,2234.23303091,N,11432.10914743,E,0.093,49.4,051224,3.4,W,D*10
$GNVTG,76.824,T,80.257,M,0.15341,N,0.28412,K,D*30
$GNHDT,237.6380,T*10
$GPGGA,080927.60,2234.23303286,N,11432.10915640,E,4,19,0.8,0.8374,M,-1.3356,M,01,0000*7C
$GPRMC,080927.60,A,2234.23303286,N,11432.10915640,E,0.153,76.8,051224,3.4,W,D*18
$GNVTG,188.349,T,191.782,M,0.13952,N,0.25839,K,D*3A
$GNHDT,237.4557,T*1E
$GPGGA,080927.80,2234.23302517,N,11432.10915518,E,4,18,0.8,0.8248,M,-1.3356,M,00,0000*7C
$GPRMC,080927.80,A,2234.23302517,N,11432.10915518,E,0.140,188.3,051224,3.4,W,D*2F
$GNVTG,195.933,T,199.367,M,0.20079,N,0.37186,K,D*38
$GNHDT,237.2921,T*15
$GPGGA,080928.00,2234.23301440,N,11432.10915187,E,4,18,0.8,0.8563,M,-1.3356,M,01,0000*76
$GPRMC,080928.00,A,2234.23301440,N,11432.10915187,E,0.201,195.9,051224,3.4,W,D*2A
$GNVTG,175.170,T,178.604,M,0.34608,N,0.64095,K,D*36
$GNHDT,237.8350,T*13
$GPGGA,080928.20,2234.23299518,N,11432.10915362,E,4,18,0.8,0.8592,M,-1.3356,M,01,0000*7F
$GPRMC,080928.20,A,2234.23299518,N,11432.10915362,E,0.346,175.2,051224,3.4,W,D*2A
$GNVTG,196.695,T,200.128,M,0.22654,N,0.41956,K,D*3D
$GNHDT,238.1089,T*12
$GPGGA,080928.40,2234.23298308,N,11432.10914971,E,4,19,0.8,0.9049,M,-1.3356,M,01,0000*75
$GPRMC,080928.40,A,2234.23298308,N,11432.10914971,E,0.227,196.7,051224,3.4,W,D*2D
$GNVTG,146.873,T,150.307,M,0.08238,N,0.15257,K,D*32
$GNHDT,238.1143,T*15
$GPGGA,080928.60,2234.23297923,N,11432.10915242,E,4,18,0.8,0.8925,M,-1.3356,M,01,0000*72
$GPRMC,080928.60,A,2234.23297923,N,11432.10915242,E,0.082,146.9,051224,3.4,W,D*27
$GNVTG,116.592,T,120.025,M,0.03278,N,0.06071,K,D*3A
$GNHDT,237.8795,T*1E
$GPGGA,080928.80,2234.23297842,N,11432.10915418,E,4,18,0.8,0.8931,M,-1.3356,M,00,0000*77
$GPRMC,080928.80,A,2234.23297842,N,11432.10915418,E,0.033,116.6,051224,3.4,W,D*26
$GNVTG,136.935,T,140.369,M,0.10332,N,0.19136,K,D*35
$GNHDT,238.0185,T*1E
$GPGGA,080929.00,2234.23297421,N,11432.10915841,E,4,18,0.8,0.8745,M,-1.3356,M,01,0000*7B
$GPRMC,080929.00,A,2234.23297421,N,11432.10915841,E,0.103,136.9,051224,3.4,W,D*29
$GNVTG,233.512,T,236.945,M,0.05698,N,0.10553,K,D*33
$GNHDT,238.2208,T*1A
$GPGGA,080929.20,2234.23297232,N,11432.10915566,E,4,18,0.8,0.8956,M,-1.3356,M,01,0000*79
$GPRMC,080929.20,A,2234.23297232,N,11432.10915566,E,0.057,233.5,051224,3.4,W,D*2D
$GNVTG,193.154,T,196.588,M,0.20140,N,0.37299,K,D*39
$GNHDT,238.4893,T*14
$GPGGA,080929.40,2234.23296139,N,11432.10915291,E,4,18,0.8,0.9012,M,-1.3356,M,01,0000*71
$GPRMC,080929.40,A,2234.23296139,N,11432.10915291,E,0.201,193.2,051224,3.4,W,D*22
$GNVTG,233.454,T,236.888,M,0.31434,N,0.58215,K,D*3A
$GNHDT,238.1283,T*1A
$GPGGA,080929.60,2234.23295095,N,11432.10913775,E,4,18,0.8,0.9209,M,-1.3357,M,01,0000*77
$GPRMC,080929.60,A,2234.23295095,N,11432.10913775,E,0.314,233.5,051224,3.4,W,D*26
$GNVTG,218.035,T,221.469,M,0.12775,N,0.23660,K,D*38
$GNHDT,238.2952,T*1E
$GPGGA,080929.80,2234.23294534,N,11432.10913303,E,4,18,0.8,0.9520,M,-1.3357,M,00,0000*7E
$GPRMC,080929.80,A,2234.23294534,N,11432.10913303,E,0.128,218.0,051224,3.4,W,D*23
$GNVTG,213.234,T,216.668,M,0.13071,N,0.24207,K,D*37
$GNHDT,238.4413,T*10
$GPGGA,080930.00,2234.23293925,N,11432.10912873,E,4,18,0.8,0.9959,M,-1.3357,M,01,0000*7B
$GPRMC,080930.00,A,2234.23293925,N,11432.10912873,E,0.131,213.2,051224,3.4,W,D*24
$GNVTG,172.926,T,176.359,M,0.26903,N,0.49824,K,D*33
$GNHDT,238.4487,T*1D
$GPGGA,080930.20,2234.23292436,N,11432.10913072,E,4,20,0.8,0.9418,M,-1.3357,M,01,0000*7C
$GPRMC,080930.20,A,2234.23292436,N,11432.10913072,E,0.269,172.9,051224,3.4,W,D*21
$GNVTG,202.024,T,205.458,M,0.10520,N,0.19483,K,D*31
$GNHDT,238.4740,T*15
$GPGGA,080930.40,2234.23291893,N,11432.10912835,E,4,20,0.8,0.9646,M,-1.3357,M,01,0000*79
$GPRMC,080930.40,A,2234.23291893,N,11432.10912835,E,0.105,202.0,051224,3.4,W,D*29
$GNVTG,200.617,T,204.050,M,0.19493,N,0.36101,K,D*3A
$GNHDT,238.6168,T*1B
$GPGGA,080930.60,2234.23290876,N,11432.10912423,E,4,19,0.8,0.9687,M,-1.3357,M,01,0000*7D
$GPRMC,080930.60,A,2234.23290876,N,11432.10912423,E,0.195,200.6,051224,3.4,W,D*27
$GNVTG,238.957,T,242.390,M,0.20892,N,0.38691,K,D*30
$GNHDT,238.2883,T*13
$GPGGA,080930.80,2234.23290275,N,11432.10911348,E,4,18,0.8,0.9739,M,-1.3357,M,00,0000*77
$GPRMC,080930.80,A,2234.23290275,N,11432.10911348,E,0.209,239.0,051224,3.4,W,D*23
$GNVTG,214.302,T,217.736,M,0.29121,N,0.53931,K,D*3C
$GNHDT,238.5151,T*12
$GPGGA,080931.00,2234.23288934,N,11432.10910363,E,4,18,0.8,0.9520,M,-1.3357,M,01,0000*7A
$GPRMC,080931.00,A,2234.23288934,N,11432.10910363,E,0.291,214.3,051224,3.4,W,D*28
$GNVTG,213.707,T,217.141,M,0.30345,N,0.56199,K,D*3B
$GNHDT,238.8395,T*15
$GPGGA,080931.20,2234.23287527,N,11432.10909352,E,4,18,0.8,0.9549,M,-1.3357,M,01,0000*7C
$GPRMC,080931.20,A,2234.23287527,N,11432.10909352,E,0.303,213.7,051224,3.4,W,D*28
$GNVTG,205.487,T,208.921,M,0.32154,N,0.59549,K,D*31
$GNHDT,238.9202,T*1B
$GPGGA,080931.40,2234.23285909,N,11432.10908522,E,4,19,0.8,0.9718,M,-1.3357,M,01,0000*7F
$GPRMC,080931.40,A,2234.23285909,N,11432.10908522,E,0.322,205.5,051224,3.4,W,D*2A
$GNVTG,216.202,T,219.635,M,0.35623,N,0.65974,K,D*3F
$GNHDT,239.3141,T*14
$GPGGA,080931.60,2234.23284306,N,11432.10907259,E,4,18,0.8,0.9830,M,-1.3357,M,01,0000*79
$GPRMC,080931.60,A,2234.23284306,N,11432.10907259,E,0.356,216.2,051224,3.4,W,D*2E
$GNVTG,238.086,T,241.519,M,0.27290,N,0.50541,K,D*3E
$GNHDT,239.1696,T*1B
$GPGGA,080931.80,2234.23283502,N,11432.10905868,E,4,18,0.8,0.9867,M,-1.3357,M,00,0000*7B
$GPRMC,080931.80,A,2234.23283502,N,11432.10905868,E,0.273,238.1,051224,3.4,W,D*26
$GNVTG,231.484,T,234.918,M,0.21635,N,0.40068,K,D*3C
$GNHDT,239.2810,T*18
$GPGGA,080932.00,2234.23282751,N,11432.10904852,E,4,18,0.8,0.9872,M,-1.3357,M,01,0000*78
$GPRMC,080932.00,A,2234.23282751,N,11432.10904852,E,0.216,231.5,051224,3.4,W,D*2E
$GNVTG,222.757,T,226.190,M,0.22471,N,0.41616,K,D*37
$GNHDT,239.6842,T*1B
$GPGGA,080932.20,2234.23281831,N,11432.10903937,E,4,18,0.8,0.9433,M,-1.3357,M,01,0000*7C
$GPRMC,080932.20,A,2234.23281831,N,11432.10903937,E,0.225,222.8,051224,3.4,W,D*2C
$GNVTG,236.766,T,240.199,M,0.38880,N,0.72006,K,D*37
$GNHDT,239.0898,T*1A
$GPGGA,080932.40,2234.23280643,N,11432.10901984,E,4,18,0.8,0.9750,M,-1.3357,M,01,0000*7C
$GPRMC,080932.40,A,2234.23280643,N,11432.10901984,E,0.389,236.8,051224,3.4,W,D*28
$GNVTG,216.976,T,220.410,M,0.47035,N,0.87109,K,D*32
$GNHDT,238.8840,T*16
$GPGGA,080932.60,2234.23278549,N,11432.10900286,E,4,18,0.8,0.9833,M,-1.3357,M,01,0000*72
$GPRMC,080932.60,A,2234.23278549,N,11432.10900286,E,0.470,217.0,051224,3.4,W,D*26
$GNVTG,205.756,T,209.190,M,0.47976,N,0.88852,K,D*3C
$GNHDT,239.2413,T*17
$GPGGA,080932.80,2234.23276140,N,11432.10899035,E,4,18,0.8,0.9779,M,-1.3357,M,00,0000*74
$GPRMC,080932.80,A,2234.23276140,N,11432.10899035,E,0.480,205.8,051224,3.4,W,D*24
$GNVTG,216.971,T,220.405,M,0.40162,N,0.74380,K,D*3A
$GNHDT,239.1802,T*18
$GPGGA,080933.00,2234.23274351,N,11432.10897585,E,4,18,0.8,0.9714,M,-1.3357,M,01,0000*77
$GPRMC,080933.00,A,2234.23274351,N,11432.10897585,E,0.402,217.0,051224,3.4,W,D*2C
$GNVTG,201.162,T,204.595,M,0.20272,N,0.37545,K,D*34
$GNHDT,239.7334,T*10
$GPGGA,080933.20,2234.23273297,N,11432.10897146,E,4,18,0.8,0.9685,M,-1.3357,M,01,0000*7B
$GPRMC,080933.20,A,2234.23273297,N,11432.10897146,E,0.203,201.2,051224,3.4,W,D*2B
$GNVTG,206.595,T,210.028,M,0.08540,N,0.15816,K,D*3E
$GNHDT,239.4544,T*12
$GPGGA,080933.40,2234.23272871,N,11432.10896916,E,4,18,0.8,0.9481,M,-1.3357,M,01,0000*74
$GPRMC,080933.40,A,2234.23272871,N,11432.10896916,E,0.085,206.6,051224,3.4,W,D*2D
$GNVTG,142.170,T,145.604,M,0.13593,N,0.25175,K,D*32
$GNHDT,240.2680,T*11
$GPGGA,080933.60,2234.23272273,N,11432.10897417,E,4,18,0.8,0.8899,M,-1.3357,M,01,0000*77
$GPRMC,080933.60,A,2234.23272273,N,11432.10897417,E,0.136,142.2,051224,3.4,W,D*24
$GNVTG,182.831,T,186.265,M,0.10973,N,0.20321,K,D*39
$GNHDT,240.2236,T*18
$GPGGA,080933.80,2234.23271662,N,11432.10897384,E,4,18,0.8,0.8710,M,-1.3357,M,00,0000*7C
$GPRMC,080933.80,A,2234.23271662,N,11432.10897384,E,0.110,182.8,051224,3.4,W,D*22
$GNVTG,179.456,T,182.889,M,0.19233,N,0.35620,K,D*3A
$GNHDT,240.3989,T*16
$GPGGA,080934.00,2234.23270590,N,11432.10897395,E,4,18,0.8,0.8547,M,-1.3357,M,01,0000*7D
$GPRMC,080934.00,A,2234.23270590,N,11432.10897395,E,0.192,179.5,051224,3.4,W,D*21
$GNVTG,251.934,T,255.368,M,0.13192,N,0.24432,K,D*34
$GNHDT,239.9384,T*15
$GPGGA,080934.20,2234.23270362,N,11432.10896642,E,4,18,0.8,0.8315,M,-1.3357,M,01,0000*7B
$GPRMC,080934.20,A,2234.23270362,N,11432.10896642,E,0.132,251.9,051224,3.4,W,D*29
$GNVTG,224.074,T,227.508,M,0.15828,N,0.29313,K,D*39
$GNHDT,239.4698,T*10
$GPGGA,080934.40,2234.23269728,N,11432.10895981,E,4,18,0.8,0.8754,M,-1.3357,M,01,0000*7D
$GPRMC,080934.40,A,2234.23269728,N,11432.10895981,E,0.158,224.1,051224,3.4,W,D*28
$GNVTG,174.149,T,177.582,M,0.17985,N,0.33309,K,D*30
$GNHDT,239.8310,T*19
$GPGGA,080934.60,2234.23268730,N,11432.10896091,E,4,18,0.8,0.8600,M,-1.3357,M,01,0000*7C
$GPRMC,080934.60,A,2234.23268730,N,11432.10896091,E,0.180,174.1,051224,3.4,W,D*2A
$GNVTG,190.734,T,194.167,M,0.20221,N,0.37450,K,D*3A
$GNHDT,240.3575,T*19
$GPGGA,080934.80,2234.23267623,N,11432.10895865,E,4,18,0.8,0.8918,M,-1.3357,M,00,0000*79
$GPRMC,080934.80,A,2234.23267623,N,11432.10895865,E,0.202,190.7,051224,3.4,W,D*2D
$GNVTG,211.007,T,214.441,M,0.03972,N,0.07356,K,D*33
$GNHDT,239.8713,T*1E
$GPGGA,080935.00,2234.23267433,N,11432.10895742,E,4,19,0.8,0.9241,M,-1.3357,M,01,0000*7F
$GPRMC,080935.00,A,2234.23267433,N,11432.10895742,E,0.040,211.0,051224,3.4,W,D*24
$GNVTG,148.851,T,152.285,M,0.29116,N,0.53923,K,D*33
$GNHDT,240.3713,T*1B
$GPGGA,080935.20,2234.23266044,N,11432.10896647,E,4,19,0.8,0.8770,M,-1.3357,M,01,0000*79
$GPRMC,080935.20,A,2234.23266044,N,11432.10896647,E,0.291,148.9,051224,3.4,W,D*2C
$GNVTG,87.588,T,91.022,M,0.13183,N,0.24415,K,D*34
$GNHDT,240.7237,T*1C
$GPGGA,080935.40,2234.23266075,N,11432.10897437,E,4,18,0.8,0.8865,M,-1.3357,M,01,0000*73
$GPRMC,080935.40,A,2234.23266075,N,11432.10897437,E,0.132,87.6,051224,3.4,W,D*1B
$GNVTG,91.972,T,95.406,M,0.12400,N,0.22965,K,D*3F
$GNHDT,240.8885,T*10
$GPGGA,080935.60,2234.23266051,N,11432.10898181,E,4,18,0.8,0.8635,M,-1.3357,M,01,0000*7B
$GPRMC,080935.60,A,2234.23266051,N,11432.10898181,E,0.124,92.0,051224,3.4,W,D*1D
$GNVTG,190.665,T,194.098,M,0.08603,N,0.15934,K,D*3F
$GNHDT,241.0500,T*19
$GPGGA,080935.80,2234.23265580,N,11432.10898085,E,4,18,0.8,0.8456,M,-1.3357,M,00,0000*7C
$GPRMC,080935.80,A,2234.23265580,N,11432.10898085,E,0.086,190.7,051224,3.4,W,D*21
$GNVTG,213.354,T,216.788,M,0.16163,N,0.29934,K,D*3E
$GNHDT,240.9312,T*14
$GPGGA,080936.00,2234.23264827,N,11432.10897552,E,4,18,0.8,0.8565,M,-1.3357,M,01,0000*76
$GPRMC,080936.00,A,2234.23264827,N,11432.10897552,E,0.162,213.4,051224,3.4,W,D*2B
$GNVTG,201.559,T,204.992,M,0.30044,N,0.55641,K,D*36
$GNHDT,241.0115,T*19
$GPGGA,080936.20,2234.23263269,N,11432.10896889,E,4,18,0.8,0.8413,M,-1.3357,M,01,0000*79
$GPRMC,080936.20,A,2234.23263269,N,11432.10896889,E,0.300,201.6,051224,3.4,W,D*23
$GNVTG,228.867,T,232.301,M,0.29581,N,0.54784,K,D*35
$GNHDT,240.8535,T*16
$GPGGA,080936.40,2234.23262185,N,11432.10895552,E,4,18,0.8,0.8695,M,-1.3357,M,01,0000*7B
$GPRMC,080936.40,A,2234.23262185,N,11432.10895552,E,0.296,228.9,051224,3.4,W,D*27
$GNVTG,226.060,T,229.493,M,0.12306,N,0.22791,K,D*36
$GNHDT,240.8111,T*14
$GPGGA,080936.60,2234.23261708,N,11432.10895020,E,4,18,0.8,0.8885,M,-1.3357,M,01,0000*76
$GPRMC,080936.60,A,2234.23261708,N,11432.10895020,E,0.123,226.1,051224,3.4,W,D*2E
$GNVTG,204.790,T,208.224,M,0.13894,N,0.25731,K,D*3B
$GNHDT,241.5458,T*10
$GPGGA,080936.80,2234.23261005,N,11432.10894670,E,4,18,0.8,0.8744,M,-1.3357,M,00,0000*73
$GPRMC,080936.80,A,2234.23261005,N,11432.10894670,E,0.139,204.8,051224,3.4,W,D*2A
$GNVTG,312.383,T,315.817,M,0.08487,N,0.15718,K,D*30
$GNHDT,241.6393,T*13
$GPGGA,080937.00,2234.23261324,N,11432.10894294,E,4,19,0.8,0.9036,M,-1.3357,M,01,0000*77
$GPRMC,080937.00,A,2234.23261324,N,11432.10894294,E,0.085,312.4,051224,3.4,W,D*21
$GNVTG,274.335,T,277.768,M,0.29132,N,0.53953,K,D*35
$GNHDT,241.2458,T*17
$GPGGA,080937.20,2234.23261447,N,11432.10892550,E,4,18,0.8,0.9762,M,-1.3357,M,01,0000*79
$GPRMC,080937.20,A,2234.23261447,N,11432.10892550,E,0.291,274.3,051224,3.4,W,D*29
$GNVTG,178.031,T,181.464,M,0.12719,N,0.23555,K,D*32
$GNHDT,242.0019,T*17
$GPGGA,080937.40,2234.23260738,N,11432.10892577,E,4,18,0.8,0.9453,M,-1.3357,M,01,0000*71
$GPRMC,080937.40,A,2234.23260738,N,11432.10892577,E,0.127,178.0,051224,3.4,W,D*22
$GNVTG,231.241,T,234.674,M,0.25535,N,0.47292,K,D*31
$GNHDT,241.6962,T*17
$GPGGA,080937.60,2234.23259847,N,11432.10891381,E,4,18,0.8,0.9687,M,-1.3357,M,01,0000*79
$GPRMC,080937.60,A,2234.23259847,N,11432.10891381,E,0.255,231.2,051224,3.4,W,D*2B
$GNVTG,211.272,T,214.705,M,0.32625,N,0.60422,K,D*3A
$GNHDT,241.9780,T*1A
$GPGGA,080937.80,2234.23258293,N,11432.10890365,E,4,18,0.8,0.9580,M,-1.3357,M,00,0000*7B
$GPRMC,080937.80,A,2234.23258293,N,11432.10890365,E,0.326,211.3,051224,3.4,W,D*2A
$GNVTG,220.516,T,223.949,M,0.22426,N,0.41533,K,D*3D
$GNHDT,241.8044,T*14
$GPGGA,080938.00,2234.23257342,N,11432.10889490,E,4,18,0.8,0.9515,M,-1.3357,M,01,0000*76
$GPRMC,080938.00,A,2234.23257342,N,11432.10889490,E,0.224,220.5,051224,3.4,W,D*2D
$GNVTG,229.086,T,232.519,M,0.17768,N,0.32906,K,D*30
$GNHDT,242.1171,T*19
$GPGGA,080938.20,2234.23256693,N,11432.10888684,E,4,18,0.8,0.9624,M,-1.3357,M,01,0000*7B
$GPRMC,080938.20,A,2234.23256693,N,11432.10888684,E,0.178,229.1,051224,3.4,W,D*26
$GNVTG,279.279,T,282.713,M,0.19070,N,0.35318,K,D*36
$GNHDT,241.7520,T*1C
$GPGGA,080938.40,2234.23256865,N,11432.10887555,E,4,18,0.8,0.9320,M,-1.3357,M,01,0000*7B
$GPRMC,080938.40,A,2234.23256865,N,11432.10887555,E,0.191,279.3,051224,3.4,W,D*27
$GNVTG,148.969,T,152.402,M,0.08437,N,0.15625,K,D*3E
$GNHDT,242.7152,T*1E
$GPGGA,080938.60,2234.23256462,N,11432.10887816,E,4,19,0.8,0.9221,M,-1.3357,M,01,0000*79
$GPRMC,080938.60,A,2234.23256462,N,11432.10887816,E,0.084,149.0,051224,3.4,W,D*22
$GNVTG,266.289,T,269.723,M,0.19378,N,0.35887,K,D*37
$GNHDT,242.5849,T*1F
$GPGGA,080938.80,2234.23256392,N,11432.10886655,E,4,18,0.8,0.9604,M,-1.3357,M,00,0000*74
$GPRMC,080938.80,A,2234.23256392,N,11432.10886655,E,0.194,266.3,051224,3.4,W,D*21
$GNVTG,226.172,T,229.606,M,0.15279,N,0.28298,K,D*32
$GNHDT,242.5310,T*18
$GPGGA,080939.00,2234.23255802,N,11432.10885993,E,4,18,0.8,0.9748,M,-1.3357,M,01,0000*72
$GPRMC,080939.00,A,2234.23255802,N,11432.10885993,E,0.153,226.2,051224,3.4,W,D*21
$GNVTG,220.302,T,223.736,M,0.43460,N,0.80487,K,D*3E
$GNHDT,242.0776,T*19
$GPGGA,080939.20,2234.23253954,N,11432.10884306,E,4,18,0.8,0.9719,M,-1.3357,M,01,0000*77
$GPRMC,080939.20,A,2234.23253954,N,11432.10884306,E,0.435,220.3,051224,3.4,W,D*22
$GNVTG,217.563,T,220.997,M,0.40377,N,0.74778,K,D*37
$GNHDT,242.5512,T*1C
$GPGGA,080939.40,2234.23252170,N,11432.10882828,E,4,18,0.8,0.9735,M,-1.3357,M,01,0000*71
$GPRMC,080939.40,A,2234.23252170,N,11432.10882828,E,0.404,217.6,051224,3.4,W,D*29
$GNVTG,238.433,T,241.867,M,0.38690,N,0.71654,K,D*3E
$GNHDT,242.3741,T*1E
$GPGGA,080939.60,2234.23251041,N,11432.10880850,E,4,18,0.8,1.0015,M,-1.3357,M,01,0000*73
$GPRMC,080939.60,A,2234.23251041,N,11432.10880850,E,0.387,238.4,051224,3.4,W,D*25
$GNVTG,228.468,T,231.901,M,0.28523,N,0.52824,K,D*35
$GNHDT,242.8079,T*19
$GPGGA,080939.80,2234.23249987,N,11432.10879568,E,4,19,0.8,0.9918,M,-1.3357,M,00,0000*7B
$GPRMC,080939.80,A,2234.23249987,N,11432.10879568,E,0.285,228.5,051224,3.4,W,D*22
$GNVTG,232.335,T,235.769,M,0.21984,N,0.40715,K,D*33
$GNHDT,243.1033,T*1F
$GPGGA,080940.00,2234.23249238,N,11432.10878523,E,4,20,0.7,0.9621,M,-1.3357,M,01,0000*7D
$GPRMC,080940.00,A,2234.23249238,N,11432.10878523,E,0.220,232.3,051224,3.4,W,D*27
$GNVTG,227.075,T,230.508,M,0.32921,N,0.60970,K,D*32
$GNHDT,243.0182,T*15
$GPGGA,080940.20,2234.23247988,N,11432.10877076,E,4,21,0.7,0.9289,M,-1.3357,M,01,0000*7C
$GPRMC,080940.20,A,2234.23247988,N,11432.10877076,E,0.329,227.1,051224,3.4,W,D*2F
$GNVTG,236.467,T,239.901,M,0.23410,N,0.43355,K,D*3A
$GNHDT,242.6614,T*1A
$GPGGA,080940.40,2234.23247267,N,11432.10875905,E,4,20,0.7,0.9181,M,-1.3357,M,01,0000*75
$GPRMC,080940.40,A,2234.23247267,N,11432.10875905,E,0.234,236.5,051224,3.4,W,D*25
$GNVTG,215.499,T,218.933,M,0.28135,N,0.52106,K,D*35
$GNHDT,243.1727,T*1D
$GPGGA,080940.60,2234.23245990,N,11432.10874924,E,4,20,0.7,0.8847,M,-1.3357,M,01,0000*76
$GPRMC,080940.60,A,2234.23245990,N,11432.10874924,E,0.281,215.5,051224,3.4,W,D*2B
$GNVTG,237.927,T,241.361,M,0.28917,N,0.53553,K,D*31
$GNHDT,243.2682,T*10
$GPGGA,080940.80,2234.23245134,N,11432.10873453,E,4,20,0.7,0.8877,M,-1.3357,M,00,0000*76
$GPRMC,080940.80,A,2234.23245134,N,11432.10873453,E,0.289,237.9,051224,3.4,W,D*2D
$GNVTG,220.477,T,223.910,M,0.27306,N,0.50571,K,D*31
$GNHDT,243.5670,T*1A
$GPGGA,080941.00,2234.23243976,N,11432.10872389,E,4,21,0.7,0.9024,M,-1.3357,M,01,0000*79
$GPRMC,080941.00,A,2234.23243976,N,11432.10872389,E,0.273,220.5,051224,3.4,W,D*22
$GNVTG,260.143,T,263.576,M,0.35567,N,0.65870,K,D*37
$GNHDT,242.8825,T*18
$GPGGA,080941.20,2234.23243637,N,11432.10870286,E,4,21,0.7,0.9212,M,-1.3357,M,01,0000*7A
$GPRMC,080941.20,A,2234.23243637,N,11432.10870286,E,0.356,260.1,051224,3.4,W,D*20
$GNVTG,216.159,T,219.593,M,0.18749,N,0.34723,K,D*37
$GNHDT,243.5417,T*19
$GPGGA,080941.40,2234.23242793,N,11432.10869622,E,4,20,0.7,0.9208,M,-1.3357,M,01,0000*7A
$GPRMC,080941.40,A,2234.23242793,N,11432.10869622,E,0.187,216.2,051224,3.4,W,D*26
$GNVTG,226.056,T,229.489,M,0.17676,N,0.32737,K,D*32
$GNHDT,243.8722,T*11
$GPGGA,080941.60,2234.23242109,N,11432.10868858,E,4,20,0.7,0.9044,M,-1.3357,M,01,0000*75
$GPRMC,080941.60,A,2234.23242109,N,11432.10868858,E,0.177,226.1,051224,3.4,W,D*2C
$GNVTG,261.881,T,265.314,M,0.19096,N,0.35366,K,D*39
$GNHDT,243.5453,T*19
$GPGGA,080941.80,2234.23241959,N,11432.10867723,E,4,20,0.7,0.9202,M,-1.3357,M,00,0000*78
$GPRMC,080941.80,A,2234.23241959,N,11432.10867723,E,0.191,261.9,051224,3.4,W,D*23
$GNVTG,243.733,T,247.166,M,0.16944,N,0.31380,K,D*3D
$GNHDT,243.5329,T*13
$GPGGA,080942.00,2234.23241541,N,11432.10866811,E,4,20,0.7,0.9200,M,-1.3357,M,01,0000*7A
$GPRMC,080942.00,A,2234.23241541,N,11432.10866811,E,0.169,243.7,051224,3.4,W,D*2B
$GNVTG,207.458,T,210.891,M,0.21433,N,0.39693,K,D*36
$GNHDT,243.8438,T*19
$GPGGA,080942.20,2234.23240481,N,11432.10866218,E,4,20,0.7,0.8907,M,-1.3357,M,01,0000*7A
$GPRMC,080942.20,A,2234.23240481,N,11432.10866218,E,0.214,207.5,051224,3.4,W,D*2D
$GNVTG,224.130,T,227.563,M,0.20011,N,0.37060,K,D*39
$GNHDT,244.1163,T*1C
$GPGGA,080942.40,2234.23239680,N,11432.10865382,E,4,20,0.7,0.8714,M,-1.3357,M,01,0000*7C
$GPRMC,080942.40,A,2234.23239680,N,11432.10865382,E,0.200,224.1,051224,3.4,W,D*27
$GNVTG,240.623,T,244.057,M,0.28681,N,0.53118,K,D*32
$GNHDT,243.8156,T*14
$GPGGA,080942.60,2234.23238896,N,11432.10863881,E,4,20,0.7,0.8986,M,-1.3357,M,01,0000*7D
$GPRMC,080942.60,A,2234.23238896,N,11432.10863881,E,0.287,240.6,051224,3.4,W,D*29
$GNVTG,206.844,T,210.277,M,0.23446,N,0.43422,K,D*31
$GNHDT,244.3678,T*13
$GPGGA,080942.80,2234.23237729,N,11432.10863246,E,4,20,0.7,0.8995,M,-1.3357,M,00,0000*75
$GPRMC,080942.80,A,2234.23237729,N,11432.10863246,E,0.234,206.8,051224,3.4,W,D*26
$GNVTG,210.311,T,213.745,M,0.16989,N,0.31463,K,D*32
$GNHDT,244.5803,T*17
$GPGGA,080943.00,2234.23236912,N,11432.10862731,E,4,20,0.7,0.8934,M,-1.3357,M,01,0000*75
$GPRMC,080943.00,A,2234.23236912,N,11432.10862731,E,0.170,210.3,051224,3.4,W,D*23
$GNVTG,241.356,T,244.789,M,0.20062,N,0.37155,K,D*38
$GNHDT,244.7313,T*1F
$GPGGA,080943.20,2234.23236376,N,11432.10861674,E,4,20,0.7,0.9066,M,-1.3357,M,01,0000*73
$GPRMC,080943.20,A,2234.23236376,N,11432.10861674,E,0.201,241.4,051224,3.4,W,D*2C
$GNVTG,152.142,T,155.576,M,0.06721,N,0.12448,K,D*35
$GNHDT,245.0996,T*1E
$GPGGA,080943.40,2234.23236044,N,11432.10861863,E,4,21,0.7,0.8744,M,-1.3357,M,01,0000*78
$GPRMC,080943.40,A,2234.23236044,N,11432.10861863,E,0.067,152.1,051224,3.4,W,D*26
$GNVTG,265.935,T,269.368,M,0.02396,N,0.04438,K,D*33
$GNHDT,244.7470,T*1D
$GPGGA,080943.60,2234.23236035,N,11432.10861719,E,4,21,0.7,0.8575,M,-1.3357,M,01,0000*7E
$GPRMC,080943.60,A,2234.23236035,N,11432.10861719,E,0.024,265.9,051224,3.4,W,D*28
$GNVTG,264.220,T,267.654,M,0.20328,N,0.37647,K,D*36
$GNHDT,244.7185,T*12
$GPGGA,080943.80,2234.23235921,N,11432.10860505,E,4,21,0.7,0.8662,M,-1.3357,M,00,0000*75
$GPRMC,080943.80,A,2234.23235921,N,11432.10860505,E,0.203,264.2,051224,3.4,W,D*2A
$GNVTG,213.342,T,216.776,M,0.23970,N,0.44392,K,D*39
$GNHDT,245.7794,T*15
$GPGGA,080944.00,2234.23234804,N,11432.10859714,E,4,20,0.8,0.8750,M,-1.3357,M,01,0000*7A
$GPRMC,080944.00,A,2234.23234804,N,11432.10859714,E,0.240,213.3,051224,3.4,W,D*2C
$GNVTG,292.558,T,295.991,M,0.15041,N,0.27856,K,D*39
$GNHDT,245.3164,T*18
$GPGGA,080944.20,2234.23235126,N,11432.10858881,E,4,20,0.8,0.9157,M,-1.3357,M,01,0000*72
$GPRMC,080944.20,A,2234.23235126,N,11432.10858881,E,0.150,292.6,051224,3.4,W,D*2A
$GNVTG,223.144,T,226.577,M,0.28665,N,0.53087,K,D*3F
$GNHDT,245.3530,T*1D
$GPGGA,080944.40,2234.23233960,N,11432.10857704,E,4,20,0.8,0.9184,M,-1.3357,M,01,0000*7B
$GPRMC,080944.40,A,2234.23233960,N,11432.10857704,E,0.287,223.1,051224,3.4,W,D*29
$GNVTG,229.116,T,232.550,M,0.11657,N,0.21589,K,D*37
$GNHDT,245.6212,T*1F
$GPGGA,080944.60,2234.23233535,N,11432.10857175,E,4,20,0.8,0.9068,M,-1.3357,M,01,0000*76
$GPRMC,080944.60,A,2234.23233535,N,11432.10857175,E,0.117,229.1,051224,3.4,W,D*27
$GNVTG,215.130,T,218.563,M,0.15041,N,0.27855,K,D*3B
$GNHDT,246.0018,T*12
$GPGGA,080944.80,2234.23232849,N,11432.10856656,E,4,20,0.8,0.8940,M,-1.3357,M,00,0000*7B
$GPRMC,080944.80,A,2234.23232849,N,11432.10856656,E,0.150,215.1,051224,3.4,W,D*25
$GNVTG,255.185,T,258.619,M,0.15978,N,0.29592,K,D*30
$GNHDT,245.9161,T*17
$GPGGA,080945.00,2234.23232621,N,11432.10855728,E,4,20,0.8,0.9096,M,-1.3357,M,01,0000*7B
$GPRMC,080945.00,A,2234.23232621,N,11432.10855728,E,0.160,255.2,051224,3.4,W,D*23
$GNVTG,214.025,T,217.458,M,0.23381,N,0.43301,K,D*3B
$GNHDT,246.2478,T*12
$GPGGA,080945.20,2234.23231541,N,11432.10854943,E,4,20,0.8,0.9171,M,-1.3357,M,01,0000*75
$GPRMC,080945.20,A,2234.23231541,N,11432.10854943,E,0.234,214.0,051224,3.4,W,D*20
$GNVTG,253.698,T,257.132,M,0.14066,N,0.26050,K,D*3F
$GNHDT,246.4272,T*18
$GPGGA,080945.40,2234.23231321,N,11432.10854133,E,4,20,0.8,0.9275,M,-1.3357,M,01,0000*7B
$GPRMC,080945.40,A,2234.23231321,N,11432.10854133,E,0.141,253.7,051224,3.4,W,D*2C
$GNVTG,270.119,T,273.553,M,0.03904,N,0.07230,K,D*39
$GNHDT,246.5110,T*1E
$GPGGA,080945.60,2234.23231321,N,11432.10853898,E,4,21,0.7,0.9147,M,-1.3357,M,01,0000*7A
$GPRMC,080945.60,A,2234.23231321,N,11432.10853898,E,0.039,270.1,051224,3.4,W,D*28
$GNVTG,244.682,T,248.116,M,0.12471,N,0.23097,K,D*30
$GNHDT,246.6072,T*18
$GPGGA,080945.80,2234.23231024,N,11432.10853222,E,4,21,0.7,0.8820,M,-1.3357,M,00,0000*71
$GPRMC,080945.80,A,2234.23231024,N,11432.10853222,E,0.125,244.7,051224,3.4,W,D*26
$GNVTG,310.932,T,314.366,M,0.12747,N,0.23607,K,D*30
$GNHDT,247.0767,T*1C
$GPGGA,080946.00,2234.23231490,N,11432.10852644,E,4,21,0.7,0.8683,M,-1.3357,M,01,0000*72
$GPRMC,080946.00,A,2234.23231490,N,11432.10852644,E,0.127,310.9,051224,3.4,W,D*2F
$GNVTG,234.973,T,238.407,M,0.18237,N,0.33776,K,D*33
$GNHDT,246.9973,T*1F
$GPGGA,080946.20,2234.23230906,N,11432.10851747,E,4,21,0.7,0.8564,M,-1.3357,M,01,0000*78
$GPRMC,080946.20,A,2234.23230906,N,11432.10851747,E,0.182,235.0,051224,3.4,W,D*2F
$GNVTG,281.997,T,285.430,M,0.12441,N,0.23041,K,D*3A
$GNHDT,246.6744,T*1A
$GPGGA,080946.40,2234.23231050,N,11432.10851017,E,4,21,0.7,0.8624,M,-1.3357,M,01,0000*70
$GPRMC,080946.40,A,2234.23231050,N,11432.10851017,E,0.124,282.0,051224,3.4,W,D*20
$GNVTG,236.096,T,239.530,M,0.16414,N,0.30399,K,D*38
$GNHDT,246.6823,T*14
$GPGGA,080946.60,2234.23230540,N,11432.10850199,E,4,21,0.7,0.8916,M,-1.3357,M,01,0000*7F
$GPRMC,080946.60,A,2234.23230540,N,11432.10850199,E,0.164,236.1,051224,3.4,W,D*2B
$GNVTG,230.894,T,234.328,M,0.25714,N,0.47622,K,D*30
$GNHDT,246.8902,T*18
$GPGGA,080946.80,2234.23229636,N,11432.10849001,E,4,21,0.7,0.9457,M,-1.3357,M,00,0000*7B
$GPRMC,080946.80,A,2234.23229636,N,11432.10849001,E,0.257,230.9,051224,3.4,W,D*2A
$GNVTG,218.054,T,221.488,M,0.23297,N,0.43147,K,D*3F
$GNHDT,247.4114,T*1A
$GPGGA,080947.00,2234.23228613,N,11432.10848139,E,4,21,0.7,0.9463,M,-1.3357,M,01,0000*79
$GPRMC,080947.00,A,2234.23228613,N,11432.10848139,E,0.233,218.1,051224,3.4,W,D*2E
$GNVTG,292.439,T,295.873,M,0.22519,N,0.41706,K,D*34
$GNHDT,247.3972,T*15
$GPGGA,080947.20,2234.23229092,N,11432.10846890,E,4,21,0.7,0.9643,M,-1.3357,M,01,0000*71
$GPRMC,080947.20,A,2234.23229092,N,11432.10846890,E,0.225,292.4,051224,3.4,W,D*26
$GNVTG,271.225,T,274.658,M,0.12400,N,0.22964,K,D*3F
$GNHDT,247.7255,T*1F
$GPGGA,080947.40,2234.23229107,N,11432.10846146,E,4,21,0.7,0.9375,M,-1.3357,M,01,0000*78
$GPRMC,080947.40,A,2234.23229107,N,11432.10846146,E,0.124,271.2,051224,3.4,W,D*26
$GNVTG,268.745,T,272.179,M,0.11677,N,0.21627,K,D*3C
$GNHDT,247.9165,T*11
$GPGGA,080947.60,2234.23229093,N,11432.10845445,E,4,21,0.7,0.9187,M,-1.3357,M,01,0000*7C
$GPRMC,080947.60,A,2234.23229093,N,11432.10845445,E,0.117,268.7,051224,3.4,W,D*20
$GNVTG,237.956,T,241.390,M,0.19137,N,0.35441,K,D*33
$GNHDT,247.8708,T*1D
$GPGGA,080947.80,2234.23228527,N,11432.10844471,E,4,21,0.7,0.9115,M,-1.3357,M,00,0000*75
$GPRMC,080947.80,A,2234.23228527,N,11432.10844471,E,0.191,238.0,051224,3.4,W,D*2F
$GNVTG,223.599,T,227.033,M,0.29621,N,0.54858,K,D*33
$GNHDT,248.5336,T*16
$GPGGA,080948.00,2234.23227331,N,11432.10843245,E,4,21,0.7,0.9471,M,-1.3357,M,01,0000*7C
$GPRMC,080948.00,A,2234.23227331,N,11432.10843245,E,0.296,223.6,051224,3.4,W,D*28
$GNVTG,231.485,T,234.919,M,0.44161,N,0.81785,K,D*30
$GNHDT,248.2486,T*1D
$GPGGA,080948.20,2234.23225798,N,11432.10841171,E,4,21,0.7,0.9830,M,-1.3357,M,01,0000*74
$GPRMC,080948.20,A,2234.23225798,N,11432.10841171,E,0.442,231.5,051224,3.4,W,D*26
$GNVTG,230.508,T,233.941,M,0.39108,N,0.72429,K,D*33
$GNHDT,248.3762,T*15
$GPGGA,080948.40,2234.23224411,N,11432.10839359,E,4,21,0.7,0.9870,M,-1.3357,M,01,0000*72
$GPRMC,080948.40,A,2234.23224411,N,11432.10839359,E,0.391,230.5,051224,3.4,W,D*2C
$GNVTG,243.423,T,246.856,M,0.44635,N,0.82664,K,D*3D
$GNHDT,248.3575,T*11
$GPGGA,080948.60,2234.23223298,N,11432.10836963,E,4,20,0.7,1.0071,M,-1.3357,M,01,0000*7C
$GPRMC,080948.60,A,2234.23223298,N,11432.10836963,E,0.446,243.4,051224,3.4,W,D*2A
$GNVTG,221.259,T,224.693,M,0.32105,N,0.59458,K,D*3F
$GNHDT,249.1857,T*1F
$GPGGA,080948.80,2234.23221953,N,11432.10835692,E,4,20,0.7,0.9612,M,-1.3357,M,00,0000*74
$GPRMC,080948.80,A,2234.23221953,N,11432.10835692,E,0.321,221.3,051224,3.4,W,D*2D
$GNVTG,264.632,T,268.066,M,0.22357,N,0.41405,K,D*36
$GNHDT,249.0531,T*13
$GPGGA,080949.00,2234.23221836,N,11432.10834356,E,4,20,0.7,0.9675,M,-1.3357,M,01,0000*73
$GPRMC,080949.00,A,2234.23221836,N,11432.10834356,E,0.224,264.6,051224,3.4,W,D*2A
$GNVTG,217.934,T,221.367,M,0.26937,N,0.49888,K,D*3D
$GNHDT,249.4627,T*13
$GPGGA,080949.20,2234.23220652,N,11432.10833362,E,4,20,0.7,0.9179,M,-1.3357,M,01,0000*77
$GPRMC,080949.20,A,2234.23220652,N,11432.10833362,E,0.269,217.9,051224,3.4,W,D*27
$GNVTG,240.843,T,244.277,M,0.28042,N,0.51933,K,D*30
$GNHDT,249.6528,T*1D
$GPGGA,080949.40,2234.23219890,N,11432.10831892,E,4,20,0.7,0.9007,M,-1.3357,M,01,0000*75
$GPRMC,080949.40,A,2234.23219890,N,11432.10831892,E,0.280,240.8,051224,3.4,W,D*29
$GNVTG,250.731,T,254.164,M,0.39705,N,0.73533,K,D*33
$GNHDT,249.8388,T*1F
$GPGGA,080949.60,2234.23219160,N,11432.10829642,E,4,20,0.7,0.9105,M,-1.3357,M,00,0000*79
$GPRMC,080949.60,A,2234.23219160,N,11432.10829642,E,0.397,250.7,051224,3.4,W,D*2E
$GNVTG,247.353,T,250.787,M,0.44780,N,0.82933,K,D*3F
$GNHDT,249.9628,T*11
$GPGGA,080949.80,2234.23218198,N,11432.10827162,E,4,20,0.7,0.9439,M,-1.3357,M,00,0000*70
$GPRMC,080949.80,A,2234.23218198,N,11432.10827162,E,0.448,247.4,051224,3.4,W,D*2D
$GNVTG,241.464,T,244.897,M,0.44819,N,0.83004,K,D*32
$GNHDT,250.1856,T*16
$GPGGA,080950.00,2234.23217005,N,11432.10824798,E,4,20,0.7,0.9836,M,-1.3357,M,01,0000*78
$GPRMC,080950.00,A,2234.23217005,N,11432.10824798,E,0.448,241.5,051224,3.4,W,D*20
$GNVTG,250.932,T,254.365,M,0.38007,N,0.70389,K,D*3D
$GNHDT,250.4119,T*11
$GPGGA,080950.20,2234.23216313,N,11432.10822642,E,4,20,0.7,0.9995,M,-1.3357,M,01,0000*77
$GPRMC,080950.20,A,2234.23216313,N,11432.10822642,E,0.380,250.9,051224,3.4,W,D*28
$GNVTG,251.988,T,255.421,M,0.30056,N,0.55663,K,D*31
$GNHDT,250.6908,T*1B
$GPGGA,080950.40,2234.23215795,N,11432.10820926,E,4,20,0.7,0.9825,M,-1.3357,M,01,0000*7D
$GPRMC,080950.40,A,2234.23215795,N,11432.10820926,E,0.301,252.0,051224,3.4,W,D*2A
$GNVTG,250.049,T,253.483,M,0.26453,N,0.48992,K,D*31
$GNHDT,250.6167,T*1A
$GPGGA,080950.60,2234.23215291,N,11432.10819434,E,4,22,0.7,0.9525,M,-1.3357,M,00,0000*74
$GPRMC,080950.60,A,2234.23215291,N,11432.10819434,E,0.265,250.0,051224,3.4,W,D*2C
$GNVTG,259.912,T,263.346,M,0.29354,N,0.54363,K,D*34
$GNHDT,250.5386,T*14
$GPGGA,080950.80,2234.23215005,N,11432.10817699,E,4,22,0.7,0.9555,M,-1.3357,M,00,0000*79
$GPRMC,080950.80,A,2234.23215005,N,11432.10817699,E,0.294,259.9,051224,3.4,W,D*28
$GNVTG,194.248,T,197.681,M,0.18185,N,0.33678,K,D*36
$GNHDT,251.1923,T*14
$GPGGA,080951.00,2234.23214022,N,11432.10817430,E,4,21,0.7,0.9227,M,-1.3357,M,01,0000*75
$GPRMC,080951.00,A,2234.23214022,N,11432.10817430,E,0.182,194.2,051224,3.4,W,D*29
$GNVTG,269.374,T,272.808,M,0.17409,N,0.32242,K,D*3C
$GNHDT,250.8973,T*19
$GPGGA,080951.20,2234.23214012,N,11432.10816385,E,4,21,0.7,0.9233,M,-1.3357,M,01,0000*79
$GPRMC,080951.20,A,2234.23214012,N,11432.10816385,E,0.174,269.4,051224,3.4,W,D*2E
$GNVTG,215.093,T,218.526,M,0.18219,N,0.33742,K,D*3C
$GNHDT,251.2172,T*1B
$GPGGA,080951.40,2234.23213181,N,11432.10815756,E,4,22,0.7,0.9045,M,-1.3357,M,01,0000*7A
$GPRMC,080951.40,A,2234.23213181,N,11432.10815756,E,0.182,215.1,051224,3.4,W,D*2A
$GNVTG,195.944,T,199.378,M,0.11343,N,0.21007,K,D*31
$GNHDT,251.6860,T*15
$GPGGA,080951.60,2234.23212573,N,11432.10815569,E,4,21,0.7,0.8774,M,-1.3357,M,00,0000*78
$GPRMC,080951.60,A,2234.23212573,N,11432.10815569,E,0.113,195.9,051224,3.4,W,D*25
$GNVTG,237.309,T,240.742,M,0.17496,N,0.32403,K,D*38
$GNHDT,252.0295,T*10
$GPGGA,080951.80,2234.23212046,N,11432.10814686,E,4,20,0.7,0.9011,M,-1.3357,M,00,0000*72
$GPRMC,080951.80,A,2234.23212046,N,11432.10814686,E,0.175,237.3,051224,3.4,W,D*2A
$GNVTG,229.160,T,232.594,M,0.04884,N,0.09044,K,D*34
$GNHDT,252.1369,T*13
$GPGGA,080952.00,2234.23211868,N,11432.10814464,E,4,20,0.7,0.9084,M,-1.3357,M,01,0000*7D
$GPRMC,080952.00,A,2234.23211868,N,11432.10814464,E,0.049,229.2,051224,3.4,W,D*28
$GNVTG,236.032,T,239.465,M,0.10894,N,0.20175,K,D*34
$GNHDT,252.1772,T*1D
$GPGGA,080952.20,2234.23211528,N,11432.10813921,E,4,20,0.7,0.9320,M,-1.3357,M,01,0000*70
$GPRMC,080952.20,A,2234.23211528,N,11432.10813921,E,0.109,236.0,051224,3.4,W,D*21
$GNVTG,81.830,T,85.264,M,0.03478,N,0.06441,K,D*38
$GNHDT,252.3432,T*18
$GPGGA,080952.40,2234.23211556,N,11432.10814128,E,4,20,0.7,0.9377,M,-1.3357,M,01,0000*7B
$GPRMC,080952.40,A,2234.23211556,N,11432.10814128,E,0.035,81.8,051224,3.4,W,D*10
$GNVTG,85.856,T,89.289,M,0.06396,N,0.11845,K,D*3F
$GNHDT,252.6572,T*18
$GPGGA,080952.60,2234.23211582,N,11432.10814511,E,4,20,0.7,0.8895,M,-1.3357,M,01,0000*78
$GPRMC,080952.60,A,2234.23211582,N,11432.10814511,E,0.064,85.9,051224,3.4,W,D*14
$GNVTG,287.596,T,291.029,M,0.08554,N,0.15843,K,D*39
$GNHDT,253.3841,T*11
$GPGGA,080952.80,2234.23211726,N,11432.10814022,E,4,20,0.7,0.8718,M,-1.3357,M,00,0000*74
$GPRMC,080952.80,A,2234.23211726,N,11432.10814022,E,0.086,287.6,051224,3.4,W,D*20
$GNVTG,220.310,T,223.744,M,0.04197,N,0.07773,K,D*31
$GNHDT,253.5626,T*18
$GPGGA,080953.00,2234.23211547,N,11432.10813859,E,4,20,0.7,0.8462,M,-1.3357,M,01,0000*74
$GPRMC,080953.00,A,2234.23211547,N,11432.10813859,E,0.042,220.3,051224,3.4,W,D*2F
$GNVTG,249.752,T,253.186,M,0.07911,N,0.14650,K,D*34
$GNHDT,253.5643,T*1B
$GPGGA,080953.20,2234.23211395,N,11432.10813413,E,4,20,0.7,0.8681,M,-1.3357,M,01,0000*72
$GPRMC,080953.20,A,2234.23211395,N,11432.10813413,E,0.079,249.8,051224,3.4,W,D*2A
$GNVTG,237.889,T,241.322,M,0.21463,N,0.39749,K,D*31
$GNHDT,254.1503,T*1F
$GPGGA,080953.40,2234.23210759,N,11432.10812322,E,4,20,0.7,0.9131,M,-1.3357,M,01,0000*78
$GPRMC,080953.40,A,2234.23210759,N,11432.10812322,E,0.215,237.9,051224,3.4,W,D*2D
$GNVTG,257.833,T,261.266,M,0.15285,N,0.28309,K,D*3C
$GNHDT,253.9121,T*14
$GPGGA,080953.60,2234.23210579,N,11432.10811425,E,4,21,0.7,0.9362,M,-1.3357,M,01,0000*7C
$GPRMC,080953.60,A,2234.23210579,N,11432.10811425,E,0.153,257.8,051224,3.4,W,D*2A
$GNVTG,235.590,T,239.024,M,0.12758,N,0.23627,K,D*35
$GNHDT,254.2696,T*13
$GPGGA,080953.80,2234.23210177,N,11432.10810793,E,4,21,0.7,0.9372,M,-1.3357,M,01,0000*76
$GPRMC,080953.80,A,2234.23210177,N,11432.10810793,E,0.128,235.6,051224,3.4,W,D*27
$GNVTG,304.508,T,307.941,M,0.17413,N,0.32248,K,D*35
$GNHDT,254.1832,T*10
$GPGGA,080954.00,2234.23210727,N,11432.10809932,E,4,21,0.7,0.9779,M,-1.3357,M,02,0000*7B
$GPRMC,080954.00,A,2234.23210727,N,11432.10809932,E,0.174,304.5,051224,3.4,W,D*2F
$GNVTG,219.164,T,222.597,M,0.15311,N,0.28355,K,D*36
$GNHDT,255.0075,T*1B
$GPGGA,080954.20,2234.23210065,N,11432.10809351,E,4,21,0.7,0.9421,M,-1.3357,M,02,0000*79
$GPRMC,080954.20,A,2234.23210065,N,11432.10809351,E,0.153,219.2,051224,3.4,W,D*2C
$GNVTG,200.892,T,204.325,M,0.11088,N,0.20535,K,D*3A
$GNHDT,255.0526,T*18
$GPGGA,080954.40,2234.23209488,N,11432.10809114,E,4,21,0.7,0.9060,M,-1.3357,M,02,0000*72
$GPRMC,080954.40,A,2234.23209488,N,11432.10809114,E,0.111,200.9,051224,3.4,W,D*23
$GNVTG,244.677,T,248.111,M,0.26231,N,0.48579,K,D*30
$GNHDT,255.4604,T*1F
$GPGGA,080954.60,2234.23208863,N,11432.10807691,E,4,21,0.7,0.8921,M,-1.3357,M,00,0000*73
$GPRMC,080954.60,A,2234.23208863,N,11432.10807691,E,0.262,244.7,051224,3.4,W,D*24
$GNVTG,230.858,T,234.292,M,0.28328,N,0.52464,K,D*32
$GNHDT,255.6427,T*1E
$GPGGA,080954.80,2234.23207866,N,11432.10806372,E,4,22,0.7,0.8707,M,-1.3357,M,00,0000*77
$GPRMC,080954.80,A,2234.23207866,N,11432.10806372,E,0.283,230.9,051224,3.4,W,D*2B
$GNVTG,257.467,T,260.901,M,0.25195,N,0.46661,K,D*38
$GNHDT,255.9056,T*13
$GPGGA,080955.00,2234.23207561,N,11432.10804896,E,4,22,0.7,0.8846,M,-1.3357,M,01,0000*7C
$GPRMC,080955.00,A,2234.23207561,N,11432.10804896,E,0.252,257.5,051224,3.4,W,D*2A
$GNVTG,263.555,T,266.989,M,0.28190,N,0.52208,K,D*3F
$GNHDT,256.3545,T*1D
$GPGGA,080955.20,2234.23207384,N,11432.10803214,E,4,22,0.7,0.8749,M,-1.3357,M,01,0000*74
$GPRMC,080955.20,A,2234.23207384,N,11432.10803214,E,0.282,263.6,051224,3.4,W,D*2B
$GNVTG,255.994,T,259.427,M,0.25819,N,0.47816,K,D*3A
$GNHDT,256.7574,T*1B
$GPGGA,080955.40,2234.23207036,N,11432.10801711,E,4,23,0.7,0.9121,M,-1.3357,M,01,0000*72
$GPRMC,080955.40,A,2234.23207036,N,11432.10801711,E,0.258,256.0,051224,3.4,W,D*22
$GNVTG,242.147,T,245.581,M,0.13513,N,0.25025,K,D*34
$GNHDT,257.0859,T*1F
$GPGGA,080955.60,2234.23206684,N,11432.10800993,E,4,23,0.7,0.9213,M,-1.3357,M,00,0000*78
$GPRMC,080955.60,A,2234.23206684,N,11432.10800993,E,0.135,242.1,051224,3.4,W,D*27
$GNVTG,252.020,T,255.454,M,0.22165,N,0.41050,K,D*3A
$GNHDT,257.2200,T*1B
$GPGGA,080955.80,2234.23206303,N,11432.10799728,E,4,23,0.7,0.9329,M,-1.3357,M,00,0000*75
$GPRMC,080955.80,A,2234.23206303,N,11432.10799728,E,0.222,252.0,051224,3.4,W,D*27
$GNVTG,242.014,T,245.448,M,0.29195,N,0.54069,K,D*3A
$GNHDT,257.2024,T*1F
$GPGGA,080956.00,2234.23205539,N,11432.10798180,E,4,23,0.7,0.9331,M,-1.3357,M,01,0000*7F
