
$GPGGA,033117.40,2234.03526587,N,11431.92512498,E,4,19,0.8,3.3612,M,-1.3415,M,01,0000*70
$GPRMC,033117.40,A,2234.03526587,N,11431.92512498,E,0.112,309.1,051224,3.4,W,D*2E
$GNVTG,298.966,T,302.396,M,0.05722,N,0.10598,K,D*38
$GNHDT,238.7847,T*1E
$GPGGA,033117.60,2234.03526742,N,11431.92512198,E,4,19,0.8,3.3562,M,-1.3415,M,01,0000*78
$GPRMC,033117.60,A,2234.03526742,N,11431.92512198,E,0.057,299.0,051224,3.4,W,D*2B
$GNVTG,244.357,T,247.787,M,0.06616,N,0.12253,K,D*32
$GNHDT,238.6877,T*1C
$GPGGA,033117.80,2234.03526582,N,11431.92511840,E,4,19,0.8,3.3691,M,-1.3415,M,01,0000*78
$GPRMC,033117.80,A,2234.03526582,N,11431.92511840,E,0.066,244.4,051224,3.4,W,D*22
$GNVTG,78.579,T,82.008,M,0.03327,N,0.06162,K,D*38
$GNHDT,238.6990,T*14
$GPGGA,033118.00,2234.03526619,N,11431.92512035,E,4,19,0.8,3.3781,M,-1.3415,M,02,0000*74
$GPRMC,033118.00,A,2234.03526619,N,11431.92512035,E,0.033,78.6,051224,3.4,W,D*12
$GNVTG,229.735,T,233.165,M,0.00751,N,0.01391,K,D*39
$GNHDT,238.5919,T*16
$GPGGA,033118.20,2234.03526592,N,11431.92512001,E,4,19,0.8,3.3743,M,-1.3415,M,02,0000*7F
$GPRMC,033118.20,A,2234.03526592,N,11431.92512001,E,0.008,229.7,051224,3.4,W,D*28
$GNVTG,237.873,T,241.303,M,0.06821,N,0.12632,K,D*3C
$GNHDT,238.6229,T*1D
$GPGGA,033118.40,2234.03526390,N,11431.92511654,E,4,19,0.8,3.3686,M,-1.3415,M,02,0000*70
$GPRMC,033118.40,A,2234.03526390,N,11431.92511654,E,0.068,237.9,051224,3.4,W,D*28
$GNVTG,10.741,T,14.170,M,0.04111,N,0.07614,K,D*39
$GNHDT,238.2856,T*1B
$GPGGA,033118.60,2234.03526615,N,11431.92511700,E,4,19,0.8,3.3652,M,-1.3415,M,02,0000*73
$GPRMC,033118.60,A,2234.03526615,N,11431.92511700,E,0.041,10.7,051224,3.4,W,D*10
$GNVTG,200.097,T,203.527,M,0.05512,N,0.10208,K,D*3D
$GNHDT,238.3371,T*14
$GPGGA,033118.80,2234.03526326,N,11431.92511587,E,4,18,0.8,3.3844,M,-1.3415,M,00,0000*7F
$GPRMC,033118.80,A,2234.03526326,N,11431.92511587,E,0.055,200.1,051224,3.4,W,D*26
$GNVTG,270.222,T,273.651,M,0.06373,N,0.11803,K,D*31
$GNHDT,238.1390,T*19
$GPGGA,033119.00,2234.03526328,N,11431.92511204,E,4,18,0.8,3.3713,M,-1.3415,M,01,0000*78
$GPRMC,033119.00,A,2234.03526328,N,11431.92511204,E,0.064,270.2,051224,3.4,W,D*2B
$GNVTG,212.842,T,216.272,M,0.05890,N,0.10908,K,D*31
$GNHDT,238.3022,T*11
$GPGGA,033119.20,2234.03526052,N,11431.92511012,E,4,17,0.8,3.3521,M,-1.3415,M,01,0000*7D
$GPRMC,033119.20,A,2234.03526052,N,11431.92511012,E,0.059,212.8,051224,3.4,W,D*22
$GNVTG,302.557,T,305.987,M,0.10920,N,0.20223,K,D*35
$GNHDT,237.8873,T*19
$GPGGA,033119.40,2234.03526379,N,11431.92510460,E,4,17,0.8,3.3638,M,-1.3415,M,01,0000*7A
$GPRMC,033119.40,A,2234.03526379,N,11431.92510460,E,0.109,302.6,051224,3.4,W,D*24
$GNVTG,353.861,T,357.290,M,0.03002,N,0.05560,K,D*3F
$GNHDT,237.7775,T*1F
$GPGGA,033119.60,2234.03526546,N,11431.92510441,E,4,16,0.9,3.3524,M,-1.3415,M,01,0000*7F
$GPRMC,033119.60,A,2234.03526546,N,11431.92510441,E,0.030,353.9,051224,3.4,W,D*2F
$GNVTG,326.795,T,330.225,M,0.02625,N,0.04862,K,D*3A
$GNHDT,237.7566,T*1F
$GPGGA,033119.80,2234.03526668,N,11431.92510354,E,4,16,0.9,3.3639,M,-1.3415,M,00,0000*73
$GPRMC,033119.80,A,2234.03526668,N,11431.92510354,E,0.026,326.8,051224,3.4,W,D*29
$GNVTG,239.896,T,243.326,M,0.05293,N,0.09802,K,D*3B
$GNHDT,238.0231,T*12
$GPGGA,033120.00,2234.03526520,N,11431.92510079,E,4,17,0.9,3.3961,M,-1.3415,M,01,0000*70
$GPRMC,033120.00,A,2234.03526520,N,11431.92510079,E,0.053,239.9,051224,3.4,W,D*24
$GNVTG,193.596,T,197.026,M,0.04974,N,0.09211,K,D*37
$GNHDT,238.0996,T*14
$GPGGA,033120.20,2234.03526251,N,11431.92510009,E,4,17,0.9,3.3799,M,-1.3415,M,01,0000*7D
$GPRMC,033120.20,A,2234.03526251,N,11431.92510009,E,0.050,193.6,051224,3.4,W,D*2F
$GNVTG,288.668,T,292.098,M,0.15338,N,0.28406,K,D*3E
$GNHDT,237.7155,T*1B
$GPGGA,033120.40,2234.03526524,N,11431.92509137,E,4,16,0.9,3.3792,M,-1.3415,M,01,0000*70
$GPRMC,033120.40,A,2234.03526524,N,11431.92509137,E,0.153,288.7,051224,3.4,W,D*22
$GNVTG,89.351,T,92.780,M,0.00512,N,0.00949,K,D*38
$GNHDT,237.8082,T*1F
$GPGGA,033120.60,2234.03526525,N,11431.92509168,E,4,17,0.8,3.3898,M,-1.3415,M,01,0000*7C
$GPRMC,033120.60,A,2234.03526525,N,11431.92509168,E,0.005,89.4,051224,3.4,W,D*19
$GNVTG,266.843,T,270.273,M,0.07494,N,0.13878,K,D*3D
$GNHDT,237.7844,T*12
$GPGGA,033120.80,2234.03526502,N,11431.92508719,E,4,17,0.8,3.3726,M,-1.3415,M,00,0000*7D
$GPRMC,033120.80,A,2234.03526502,N,11431.92508719,E,0.075,266.8,051224,3.4,W,D*2B
$GNVTG,268.129,T,271.559,M,0.08823,N,0.16341,K,D*33
$GNHDT,237.3202,T*1E
$GPGGA,033121.00,2234.03526486,N,11431.92508189,E,4,16,0.9,3.3635,M,-1.3415,M,01,0000*74
$GPRMC,033121.00,A,2234.03526486,N,11431.92508189,E,0.088,268.1,051224,3.4,W,D*25
$GNVTG,18.784,T,22.213,M,0.05816,N,0.10771,K,D*30
$GNHDT,237.5423,T*1D
$GPGGA,033121.20,2234.03526793,N,11431.92508302,E,4,16,0.9,3.3639,M,-1.3415,M,01,0000*7C
$GPRMC,033121.20,A,2234.03526793,N,11431.92508302,E,0.058,18.8,051224,3.4,W,D*10
$GNVTG,322.040,T,325.470,M,0.08940,N,0.16557,K,D*3D
$GNHDT,237.6233,T*19
$GPGGA,033121.40,2234.03527186,N,11431.92507972,E,4,16,0.9,3.3451,M,-1.3415,M,01,0000*77
$GPRMC,033121.40,A,2234.03527186,N,11431.92507972,E,0.089,322.0,051224,3.4,W,D*29
$GNVTG,354.942,T,358.372,M,0.05013,N,0.09283,K,D*3A
$GNHDT,237.5872,T*15
$GPGGA,033121.60,2234.03527464,N,11431.92507945,E,4,16,0.9,3.3666,M,-1.3415,M,01,0000*7E
$GPRMC,033121.60,A,2234.03527464,N,11431.92507945,E,0.050,354.9,051224,3.4,W,D*2A
$GNVTG,335.541,T,338.971,M,0.05830,N,0.10797,K,D*3C
$GNHDT,237.5327,T*1E
$GPGGA,033121.80,2234.03527760,N,11431.92507800,E,4,17,0.8,3.3637,M,-1.3415,M,00,0000*72
$GPRMC,033121.80,A,2234.03527760,N,11431.92507800,E,0.058,335.5,051224,3.4,W,D*20
$GNVTG,257.845,T,261.275,M,0.09693,N,0.17952,K,D*39
$GNHDT,237.4184,T*14
$GPGGA,033122.00,2234.03527646,N,11431.92507231,E,4,17,0.8,3.3715,M,-1.3415,M,01,0000*74
$GPRMC,033122.00,A,2234.03527646,N,11431.92507231,E,0.097,257.8,051224,3.4,W,D*2D
$GNVTG,251.944,T,255.374,M,0.07165,N,0.13270,K,D*37
$GNHDT,237.3691,T*10
$GPGGA,033122.20,2234.03527522,N,11431.92506822,E,4,17,0.8,3.3910,M,-1.3415,M,01,0000*75
$GPRMC,033122.20,A,2234.03527522,N,11431.92506822,E,0.072,251.9,051224,3.4,W,D*2B
$GNVTG,326.262,T,329.692,M,0.04281,N,0.07929,K,D*36
$GNHDT,237.3945,T*16
$GPGGA,033122.40,2234.03527721,N,11431.92506680,E,4,19,0.8,3.4076,M,-1.3415,M,01,0000*74
$GPRMC,033122.40,A,2234.03527721,N,11431.92506680,E,0.043,326.3,051224,3.4,W,D*23
$GNVTG,274.879,T,278.309,M,0.09221,N,0.17077,K,D*36
$GNHDT,237.1025,T*1B
$GPGGA,033122.60,2234.03527764,N,11431.92506128,E,4,19,0.8,3.3712,M,-1.3415,M,01,0000*70
$GPRMC,033122.60,A,2234.03527764,N,11431.92506128,E,0.092,274.9,051224,3.4,W,D*25
$GNVTG,310.384,T,313.813,M,0.01551,N,0.02872,K,D*31
$GNHDT,237.1564,T*1B
$GPGGA,033122.80,2234.03527820,N,11431.92506057,E,4,19,0.8,3.3869,M,-1.3415,M,00,0000*7A
$GPRMC,033122.80,A,2234.03527820,N,11431.92506057,E,0.016,310.4,051224,3.4,W,D*2F
$GNVTG,337.759,T,341.189,M,0.04541,N,0.08411,K,D*3A
$GNHDT,237.3007,T*19
$GPGGA,033123.00,2234.03528055,N,11431.92505954,E,4,19,0.8,3.3626,M,-1.3415,M,01,0000*7B
$GPRMC,033123.00,A,2234.03528055,N,11431.92505954,E,0.045,337.8,051224,3.4,W,D*25
$GNVTG,311.375,T,314.805,M,0.08307,N,0.15384,K,D*36
$GNHDT,237.2226,T*19
$GPGGA,033123.20,2234.03528361,N,11431.92505580,E,4,19,0.8,3.3850,M,-1.3415,M,01,0000*77
$GPRMC,033123.20,A,2234.03528361,N,11431.92505580,E,0.083,311.4,051224,3.4,W,D*24
$GNVTG,340.658,T,344.087,M,0.11169,N,0.20684,K,D*3E
$GNHDT,236.8619,T*1A
$GPGGA,033123.40,2234.03528948,N,11431.92505358,E,4,19,0.8,3.3758,M,-1.3415,M,01,0000*74
$GPRMC,033123.40,A,2234.03528948,N,11431.92505358,E,0.112,340.7,051224,3.4,W,D*2E
$GNVTG,240.598,T,244.028,M,0.07641,N,0.14152,K,D*35
$GNHDT,236.8978,T*12
$GPGGA,033123.60,2234.03528739,N,11431.92504958,E,4,19,0.8,3.4081,M,-1.3415,M,01,0000*71
$GPRMC,033123.60,A,2234.03528739,N,11431.92504958,E,0.076,240.6,051224,3.4,W,D*2C
$GNVTG,207.111,T,210.540,M,0.04482,N,0.08300,K,D*3F
$GNHDT,236.9000,T*15
$GPGGA,033123.80,2234.03528517,N,11431.92504836,E,4,19,0.8,3.3837,M,-1.3415,M,00,0000*7B
$GPRMC,033123.80,A,2234.03528517,N,11431.92504836,E,0.045,207.1,051224,3.4,W,D*21
$GNVTG,310.096,T,313.525,M,0.07456,N,0.13808,K,D*34
$GNHDT,236.6633,T*1C
$GPGGA,033124.00,2234.03528784,N,11431.92504493,E,4,19,0.8,3.3962,M,-1.3415,M,01,0000*7F
$GPRMC,033124.00,A,2234.03528784,N,11431.92504493,E,0.075,310.1,051224,3.4,W,D*21
$GNVTG,247.889,T,251.319,M,0.06556,N,0.12142,K,D*39
$GNHDT,236.9166,T*14
$GPGGA,033124.20,2234.03528647,N,11431.92504129,E,4,19,0.8,3.3757,M,-1.3415,M,01,0000*7F
$GPRMC,033124.20,A,2234.03528647,N,11431.92504129,E,0.066,247.9,051224,3.4,W,D*20
$GNVTG,280.866,T,284.296,M,0.08910,N,0.16502,K,D*39
$GNHDT,236.5094,T*14
$GPGGA,033124.40,2234.03528741,N,11431.92503604,E,4,19,0.8,3.4027,M,-1.3415,M,01,0000*76
$GPRMC,033124.40,A,2234.03528741,N,11431.92503604,E,0.089,280.9,051224,3.4,W,D*24
$GNVTG,46.688,T,50.117,M,0.04014,N,0.07435,K,D*3A
$GNHDT,236.7033,T*1B
$GPGGA,033124.60,2234.03528894,N,11431.92503779,E,4,19,0.8,3.3765,M,-1.3415,M,00,0000*7F
$GPRMC,033124.60,A,2234.03528894,N,11431.92503779,E,0.040,46.7,051224,3.4,W,D*19
$GNVTG,276.767,T,280.197,M,0.04796,N,0.08882,K,D*3E
$GNHDT,236.3835,T*11
$GPGGA,033124.80,2234.03528926,N,11431.92503493,E,4,19,0.8,3.3879,M,-1.3415,M,00,0000*7C
$GPRMC,033124.80,A,2234.03528926,N,11431.92503493,E,0.048,276.8,051224,3.4,W,D*2E
$GNVTG,91.190,T,94.619,M,0.06751,N,0.12502,K,D*3A
$GNHDT,236.7892,T*18
$GPGGA,033125.00,2234.03528918,N,11431.92503898,E,4,19,0.8,3.3654,M,-1.3415,M,01,0000*7F
$GPRMC,033125.00,A,2234.03528918,N,11431.92503898,E,0.068,91.2,051224,3.4,W,D*1E
$GNVTG,262.397,T,265.827,M,0.07475,N,0.13843,K,D*33
$GNHDT,236.0205,T*1B
$GPGGA,033125.20,2234.03528863,N,11431.92503454,E,4,19,0.8,3.3781,M,-1.3415,M,01,0000*75
$GPRMC,033125.20,A,2234.03528863,N,11431.92503454,E,0.075,262.4,051224,3.4,W,D*29
$GNVTG,238.837,T,242.267,M,0.08845,N,0.16381,K,D*36
$GNHDT,236.8955,T*1D
$GPGGA,033125.40,2234.03528607,N,11431.92502999,E,4,19,0.8,3.3591,M,-1.3415,M,01,0000*71
$GPRMC,033125.40,A,2234.03528607,N,11431.92502999,E,0.088,238.8,051224,3.4,W,D*2F
$GNVTG,135.071,T,138.501,M,0.06458,N,0.11959,K,D*3D
$GNHDT,236.8544,T*11
$GPGGA,033125.60,2234.03528353,N,11431.92503273,E,4,19,0.8,3.3884,M,-1.3415,M,01,0000*70
$GPRMC,033125.60,A,2234.03528353,N,11431.92503273,E,0.065,135.1,051224,3.4,W,D*23
$GNVTG,351.154,T,354.584,M,0.05507,N,0.10199,K,D*33
$GNHDT,236.6374,T*1A
$GPGGA,033125.80,2234.03528656,N,11431.92503222,E,4,19,0.8,3.3859,M,-1.3415,M,00,0000*7B
$GPRMC,033125.80,A,2234.03528656,N,11431.92503222,E,0.055,351.2,051224,3.4,W,D*29
$GNVTG,190.895,T,194.324,M,0.05050,N,0.09353,K,D*31
$GNHDT,237.1808,T*1C
$GPGGA,033126.00,2234.03528380,N,11431.92503165,E,4,19,0.8,3.3960,M,-1.3415,M,01,0000*74
$GPRMC,033126.00,A,2234.03528380,N,11431.92503165,E,0.051,190.9,051224,3.4,W,D*2C
$GNVTG,334.591,T,338.021,M,0.05794,N,0.10730,K,D*30
$GNHDT,236.4926,T*15
$GPGGA,033126.20,2234.03528671,N,11431.92503016,E,4,19,0.8,3.3804,M,-1.3415,M,01,0000*7B
$GPRMC,033126.20,A,2234.03528671,N,11431.92503016,E,0.058,334.6,051224,3.4,W,D*2A
$GNVTG,55.828,T,59.258,M,0.07166,N,0.13271,K,D*39
$GNHDT,236.1406,T*1F
$GPGGA,033126.40,2234.03528896,N,11431.92503371,E,4,19,0.8,3.3531,M,-1.3415,M,01,0000*73
$GPRMC,033126.40,A,2234.03528896,N,11431.92503371,E,0.072,55.8,051224,3.4,W,D*1B
$GNVTG,179.855,T,183.285,M,0.07853,N,0.14544,K,D*33
$GNHDT,236.5318,T*13
$GPGGA,033126.60,2234.03528458,N,11431.92503373,E,4,19,0.8,3.3624,M,-1.3415,M,01,0000*7A
$GPRMC,033126.60,A,2234.03528458,N,11431.92503373,E,0.079,179.9,051224,3.4,W,D*20
$GNVTG,304.118,T,307.547,M,0.04920,N,0.09111,K,D*32
$GNHDT,236.0571,T*1F
$GPGGA,033126.80,2234.03528612,N,11431.92503128,E,4,19,0.8,3.3506,M,-1.3415,M,00,0000*76
$GPRMC,033126.80,A,2234.03528612,N,11431.92503128,E,0.049,304.1,051224,3.4,W,D*2D
$GNVTG,232.259,T,235.689,M,0.08773,N,0.16247,K,D*3B
$GNHDT,235.9897,T*10
$GPGGA,033127.00,2234.03528312,N,11431.92502712,E,4,19,0.8,3.3410,M,-1.3415,M,01,0000*73
$GPRMC,033127.00,A,2234.03528312,N,11431.92502712,E,0.088,232.3,051224,3.4,W,D*24
$GNVTG,121.754,T,125.183,M,0.12236,N,0.22662,K,D*36
$GNHDT,235.5341,T*1C
$GPGGA,033127.20,2234.03527953,N,11431.92503336,E,4,19,0.8,3.3760,M,-1.3415,M,01,0000*76
$GPRMC,033127.20,A,2234.03527953,N,11431.92503336,E,0.122,121.8,051224,3.4,W,D*2E
$GNVTG,54.181,T,57.611,M,0.08890,N,0.16465,K,D*3C
$GNHDT,236.0662,T*1E
$GPGGA,033127.40,2234.03528243,N,11431.92503769,E,4,19,0.8,3.3536,M,-1.3415,M,01,0000*7A
$GPRMC,033127.40,A,2234.03528243,N,11431.92503769,E,0.089,54.2,051224,3.4,W,D*1A
$GNVTG,136.007,T,139.437,M,0.03046,N,0.05641,K,D*37
$GNHDT,236.0851,T*10
$GPGGA,033127.60,2234.03528121,N,11431.92503896,E,4,19,0.8,3.3655,M,-1.3415,M,01,0000*76
$GPRMC,033127.60,A,2234.03528121,N,11431.92503896,E,0.030,136.0,051224,3.4,W,D*25
$GNVTG,301.227,T,304.657,M,0.01866,N,0.03456,K,D*33
$GNHDT,236.2509,T*12
$GPGGA,033127.80,2234.03528175,N,11431.92503800,E,4,19,0.8,3.3608,M,-1.3415,M,01,0000*7E
$GPRMC,033127.80,A,2234.03528175,N,11431.92503800,E,0.019,301.2,051224,3.4,W,D*2A
$GNVTG,139.223,T,142.653,M,0.07200,N,0.13335,K,D*35
$GNHDT,236.5193,T*12
$GPGGA,033128.00,2234.03527871,N,11431.92504083,E,4,19,0.8,3.3747,M,-1.3415,M,02,0000*76
$GPRMC,033128.00,A,2234.03527871,N,11431.92504083,E,0.072,139.2,051224,3.4,W,D*2F
$GNVTG,267.575,T,271.005,M,0.13967,N,0.25866,K,D*38
$GNHDT,236.4565,T*1E
$GPGGA,033128.20,2234.03527838,N,11431.92503245,E,4,19,0.8,3.3562,M,-1.3415,M,02,0000*73
$GPRMC,033128.20,A,2234.03527838,N,11431.92503245,E,0.140,267.6,051224,3.4,W,D*23
$GNVTG,146.385,T,149.815,M,0.06697,N,0.12402,K,D*3E
$GNHDT,236.5629,T*14
$GPGGA,033128.40,2234.03527527,N,11431.92503467,E,4,19,0.8,3.3732,M,-1.3415,M,02,0000*77
$GPRMC,033128.40,A,2234.03527527,N,11431.92503467,E,0.067,146.4,051224,3.4,W,D*26
$GNVTG,344.089,T,347.519,M,0.08038,N,0.14887,K,D*36
$GNHDT,235.8821,T*1C
$GPGGA,033128.60,2234.03527958,N,11431.92503335,E,4,19,0.8,3.3402,M,-1.3415,M,02,0000*71
$GPRMC,033128.60,A,2234.03527958,N,11431.92503335,E,0.080,344.1,051224,3.4,W,D*2C
$GNVTG,164.285,T,167.714,M,0.08492,N,0.15727,K,D*37
$GNHDT,236.3881,T*1E
$GPGGA,033128.80,2234.03527503,N,11431.92503473,E,4,19,0.8,3.3481,M,-1.3415,M,00,0000*71
$GPRMC,033128.80,A,2234.03527503,N,11431.92503473,E,0.085,164.3,051224,3.4,W,D*22
$GNVTG,265.630,T,269.060,M,0.04980,N,0.09223,K,D*38
$GNHDT,235.9767,T*10
$GPGGA,033129.00,2234.03527481,N,11431.92503175,E,4,19,0.8,3.3358,M,-1.3415,M,01,0000*72
$GPRMC,033129.00,A,2234.03527481,N,11431.92503175,E,0.050,265.6,051224,3.4,W,D*2C
$GNVTG,206.239,T,209.669,M,0.02493,N,0.04617,K,D*3E
$GNHDT,236.4951,T*15
$GPGGA,033129.20,2234.03527357,N,11431.92503109,E,4,19,0.8,3.3654,M,-1.3415,M,01,0000*7E
$GPRMC,033129.20,A,2234.03527357,N,11431.92503109,E,0.025,206.2,051224,3.4,W,D*2A
$GNVTG,91.522,T,94.952,M,0.06592,N,0.12208,K,D*37
$GNHDT,236.2196,T*10
$GPGGA,033129.40,2234.03527347,N,11431.92503505,E,4,21,0.8,3.3657,M,-1.3415,M,01,0000*79
$GPRMC,033129.40,A,2234.03527347,N,11431.92503505,E,0.066,91.5,051224,3.4,W,D*19
$GNVTG,217.080,T,220.510,M,0.03771,N,0.06984,K,D*31
$GNHDT,236.3035,T*19
$GPGGA,033129.60,2234.03527179,N,11431.92503368,E,4,21,0.8,3.3812,M,-1.3415,M,01,0000*76
$GPRMC,033129.60,A,2234.03527179,N,11431.92503368,E,0.038,217.1,051224,3.4,W,D*2A
$GNVTG,25.604,T,29.034,M,0.04486,N,0.08308,K,D*3C
$GNHDT,236.0915,T*11
$GPGGA,033129.80,2234.03527405,N,11431.92503484,E,4,21,0.8,3.3444,M,-1.3415,M,01,0000*7C
$GPRMC,033129.80,A,2234.03527405,N,11431.92503484,E,0.045,25.6,051224,3.4,W,D*11
$GNVTG,354.310,T,357.740,M,0.04136,N,0.07660,K,D*3D
$GNHDT,236.2998,T*16
$GPGGA,033130.00,2234.03527634,N,11431.92503460,E,4,21,0.8,3.3546,M,-1.3415,M,02,0000*76
$GPRMC,033130.00,A,2234.03527634,N,11431.92503460,E,0.041,354.3,051224,3.4,W,D*2F
$GNVTG,191.254,T,194.683,M,0.09313,N,0.17247,K,D*3C
$GNHDT,236.2979,T*19
$GPGGA,033130.20,2234.03527125,N,11431.92503351,E,4,21,0.8,3.3572,M,-1.3415,M,02,0000*71
$GPRMC,033130.20,A,2234.03527125,N,11431.92503351,E,0.093,191.3,051224,3.4,W,D*2B
$GNVTG,103.158,T,106.588,M,0.04273,N,0.07913,K,D*3A
$GNHDT,237.0403,T*1A
$GPGGA,033130.40,2234.03527071,N,11431.92503600,E,4,21,0.8,3.3858,M,-1.3415,M,02,0000*73
$GPRMC,033130.40,A,2234.03527071,N,11431.92503600,E,0.043,103.2,051224,3.4,W,D*2B
$GNVTG,234.500,T,237.930,M,0.03899,N,0.07221,K,D*39
$GNHDT,236.2964,T*15
$GPGGA,033130.60,2234.03526945,N,11431.92503410,E,4,21,0.8,3.3655,M,-1.3415,M,02,0000*7E
$GPRMC,033130.60,A,2234.03526945,N,11431.92503410,E,0.039,234.5,051224,3.4,W,D*28
$GNVTG,31.742,T,35.172,M,0.01106,N,0.02048,K,D*31
$GNHDT,236.2535,T*1D
$GPGGA,033130.80,2234.03526997,N,11431.92503445,E,4,21,0.8,3.3672,M,-1.3415,M,00,0000*78
$GPRMC,033130.80,A,2234.03526997,N,11431.92503445,E,0.011,31.7,051224,3.4,W,D*16
$GNVTG,167.798,T,171.227,M,0.06289,N,0.11647,K,D*3E
$GNHDT,236.1437,T*1D
$GPGGA,033131.00,2234.03526654,N,11431.92503525,E,4,21,0.8,3.3347,M,-1.3415,M,01,0000*74
$GPRMC,033131.00,A,2234.03526654,N,11431.92503525,E,0.063,167.8,051224,3.4,W,D*20
$GNVTG,76.073,T,79.503,M,0.07754,N,0.14360,K,D*34
$GNHDT,236.0885,T*19
$GPGGA,033131.20,2234.03526758,N,11431.92503976,E,4,21,0.8,3.3961,M,-1.3415,M,01,0000*7F
$GPRMC,033131.20,A,2234.03526758,N,11431.92503976,E,0.078,76.1,051224,3.4,W,D*17
$GNVTG,169.062,T,172.492,M,0.06569,N,0.12165,K,D*34
$GNHDT,236.2749,T*14
$GPGGA,033131.40,2234.03526399,N,11431.92504051,E,4,21,0.8,3.3930,M,-1.3415,M,01,0000*7F
$GPRMC,033131.40,A,2234.03526399,N,11431.92504051,E,0.066,169.1,051224,3.4,W,D*23
$GNVTG,56.929,T,60.359,M,0.08022,N,0.14856,K,D*36
$GNHDT,236.5577,T*1C
$GPGGA,033131.60,2234.03526643,N,11431.92504455,E,4,21,0.8,3.3961,M,-1.3415,M,01,0000*7B
$GPRMC,033131.60,A,2234.03526643,N,11431.92504455,E,0.080,56.9,051224,3.4,W,D*1E
$GNVTG,222.717,T,226.147,M,0.05130,N,0.09500,K,D*34
$GNHDT,236.1311,T*1E
$GPGGA,033131.80,2234.03526433,N,11431.92504246,E,4,21,0.8,3.3771,M,-1.3415,M,00,0000*7A
$GPRMC,033131.80,A,2234.03526433,N,11431.92504246,E,0.051,222.7,051224,3.4,W,D*22
$GNVTG,119.702,T,123.132,M,0.05851,N,0.10836,K,D*31
$GNHDT,236.2928,T*1D
$GPGGA,033132.00,2234.03526271,N,11431.92504551,E,4,21,0.8,3.3876,M,-1.3415,M,01,0000*79
$GPRMC,033132.00,A,2234.03526271,N,11431.92504551,E,0.059,119.7,051224,3.4,W,D*2B
$GNVTG,217.160,T,220.590,M,0.03401,N,0.06300,K,D*34
$GNHDT,236.4502,T*1F
$GPGGA,033132.20,2234.03526120,N,11431.92504428,E,4,21,0.8,3.3644,M,-1.3415,M,01,0000*7C
$GPRMC,033132.20,A,2234.03526120,N,11431.92504428,E,0.034,217.2,051224,3.4,W,D*22
$GNVTG,340.086,T,343.516,M,0.03444,N,0.06378,K,D*3A
$GNHDT,236.2232,T*1D
$GPGGA,033132.40,2234.03526301,N,11431.92504357,E,4,20,0.8,3.3578,M,-1.3415,M,01,0000*79
$GPRMC,033132.40,A,2234.03526301,N,11431.92504357,E,0.034,340.1,051224,3.4,W,D*2A
$GNVTG,136.066,T,139.496,M,0.05123,N,0.09488,K,D*34
$GNHDT,236.5069,T*16
$GPGGA,033132.60,2234.03526095,N,11431.92504570,E,4,20,0.8,3.3614,M,-1.3415,M,01,0000*7F
$GPRMC,033132.60,A,2234.03526095,N,11431.92504570,E,0.051,136.1,051224,3.4,W,D*25
$GNVTG,141.424,T,144.853,M,0.02190,N,0.04056,K,D*3C
$GNHDT,236.3829,T*1C
$GPGGA,033132.80,2234.03525999,N,11431.92504652,E,4,20,0.8,3.3815,M,-1.3415,M,00,0000*7A
$GPRMC,033132.80,A,2234.03525999,N,11431.92504652,E,0.022,141.4,051224,3.4,W,D*2F
$GNVTG,258.073,T,261.503,M,0.01060,N,0.01963,K,D*3A
$GNHDT,236.2882,T*1C
$GPGGA,033133.00,2234.03525987,N,11431.92504590,E,4,20,0.8,3.3242,M,-1.3415,M,01,0000*78
$GPRMC,033133.00,A,2234.03525987,N,11431.92504590,E,0.011,258.1,051224,3.4,W,D*2A
$GNVTG,142.021,T,145.451,M,0.09139,N,0.16925,K,D*37
$GNHDT,236.2084,T*12
$GPGGA,033133.20,2234.03525586,N,11431.92504928,E,4,21,0.8,3.3955,M,-1.3415,M,01,0000*74
$GPRMC,033133.20,A,2234.03525586,N,11431.92504928,E,0.091,142.0,051224,3.4,W,D*2B
$GNVTG,136.649,T,140.079,M,0.05103,N,0.09450,K,D*33
$GNHDT,236.8681,T*1B
$GPGGA,033133.40,2234.03525379,N,11431.92505138,E,4,20,0.8,3.3776,M,-1.3415,M,01,0000*72
$GPRMC,033133.40,A,2234.03525379,N,11431.92505138,E,0.051,136.6,051224,3.4,W,D*2A
$GNVTG,215.499,T,218.929,M,0.03600,N,0.06667,K,D*37
$GNHDT,236.2808,T*1E
$GPGGA,033133.60,2234.03525215,N,11431.92505013,E,4,20,0.8,3.3595,M,-1.3415,M,01,0000*7C
$GPRMC,033133.60,A,2234.03525215,N,11431.92505013,E,0.036,215.5,051224,3.4,W,D*2B
$GNVTG,204.196,T,207.626,M,0.03462,N,0.06411,K,D*36
$GNHDT,236.4318,T*12
$GPGGA,033133.80,2234.03525039,N,11431.92504927,E,4,19,0.8,3.3633,M,-1.3415,M,01,0000*74
$GPRMC,033133.80,A,2234.03525039,N,11431.92504927,E,0.035,204.2,051224,3.4,W,D*22
$GNVTG,112.851,T,116.280,M,0.04877,N,0.09032,K,D*3E
$GNHDT,236.5605,T*1A
$GPGGA,033134.00,2234.03524934,N,11431.92505197,E,4,19,0.8,3.3786,M,-1.3415,M,02,0000*70
$GPRMC,033134.00,A,2234.03524934,N,11431.92505197,E,0.049,112.9,051224,3.4,W,D*2E
$GNVTG,221.015,T,224.445,M,0.03647,N,0.06754,K,D*3A
$GNHDT,236.4556,T*1E
$GPGGA,033134.20,2234.03524780,N,11431.92505054,E,4,20,0.8,3.3687,M,-1.3415,M,02,0000*77
$GPRMC,033134.20,A,2234.03524780,N,11431.92505054,E,0.036,221.0,051224,3.4,W,D*21
$GNVTG,171.866,T,175.295,M,0.03255,N,0.06029,K,D*36
$GNHDT,236.3366,T*1C
$GPGGA,033134.40,2234.03524601,N,11431.92505081,E,4,20,0.8,3.3716,M,-1.3415,M,02,0000*78
$GPRMC,033134.40,A,2234.03524601,N,11431.92505081,E,0.033,171.9,051224,3.4,W,D*2D
$GNVTG,92.575,T,96.005,M,0.05067,N,0.09384,K,D*3C
$GNHDT,236.4850,T*15
$GPGGA,033134.60,2234.03524588,N,11431.92505385,E,4,19,0.8,3.3718,M,-1.3415,M,02,0000*7B
$GPRMC,033134.60,A,2234.03524588,N,11431.92505385,E,0.051,92.6,051224,3.4,W,D*1D
$GNVTG,150.359,T,153.789,M,0.06132,N,0.11356,K,D*34
$GNHDT,236.6292,T*13
$GPGGA,033134.80,2234.03524291,N,11431.92505567,E,4,19,0.8,3.3703,M,-1.3415,M,00,0000*78
$GPRMC,033134.80,A,2234.03524291,N,11431.92505567,E,0.061,150.4,051224,3.4,W,D*28
$GNVTG,132.388,T,135.818,M,0.05373,N,0.09950,K,D*3A
$GNHDT,236.7677,T*1D
$GPGGA,033135.00,2234.03524089,N,11431.92505805,E,4,20,0.8,3.3886,M,-1.3415,M,01,0000*7A
$GPRMC,033135.00,A,2234.03524089,N,11431.92505805,E,0.054,132.4,051224,3.4,W,D*21
$GNVTG,133.806,T,137.236,M,0.04003,N,0.07414,K,D*34
$GNHDT,236.7895,T*1F
$GPGGA,033135.20,2234.03523935,N,11431.92505979,E,4,20,0.8,3.3742,M,-1.3415,M,01,0000*7C
$GPRMC,033135.20,A,2234.03523935,N,11431.92505979,E,0.040,133.8,051224,3.4,W,D*28
$GNVTG,281.617,T,285.047,M,0.05105,N,0.09455,K,D*33
$GNHDT,236.6031,T*18
$GPGGA,033135.40,2234.03523992,N,11431.92505678,E,4,20,0.8,3.3648,M,-1.3415,M,01,0000*72
$GPRMC,033135.40,A,2234.03523992,N,11431.92505678,E,0.051,281.6,051224,3.4,W,D*29
$GNVTG,175.512,T,178.941,M,0.04915,N,0.09102,K,D*3C
$GNHDT,236.5714,T*1B
$GPGGA,033135.60,2234.03523719,N,11431.92505702,E,4,21,0.8,3.3683,M,-1.3415,M,01,0000*77
$GPRMC,033135.60,A,2234.03523719,N,11431.92505702,E,0.049,175.5,051224,3.4,W,D*28
$GNVTG,166.111,T,169.541,M,0.05169,N,0.09573,K,D*35
$GNHDT,236.4355,T*1B
$GPGGA,033135.80,2234.03523439,N,11431.92505776,E,4,21,0.8,3.3532,M,-1.3415,M,00,0000*73
$GPRMC,033135.80,A,2234.03523439,N,11431.92505776,E,0.052,166.1,051224,3.4,W,D*28
$GNVTG,96.940,T,100.370,M,0.10882,N,0.20153,K,D*09
$GNHDT,236.8111,T*15
$GPGGA,033136.00,2234.03523366,N,11431.92506424,E,4,20,0.8,3.3545,M,-1.3415,M,01,0000*72
$GPRMC,033136.00,A,2234.03523366,N,11431.92506424,E,0.109,96.9,051224,3.4,W,D*10
$GNVTG,321.174,T,324.604,M,0.02960,N,0.05481,K,D*38
$GNHDT,236.4205,T*1F
$GPGGA,033136.20,2234.03523494,N,11431.92506313,E,4,20,0.8,3.3394,M,-1.3415,M,01,0000*73
$GPRMC,033136.20,A,2234.03523494,N,11431.92506313,E,0.030,321.2,051224,3.4,W,D*24
$GNVTG,119.563,T,122.993,M,0.00464,N,0.00859,K,D*31
$GNHDT,236.5780,T*16
$GPGGA,033136.40,2234.03523482,N,11431.92506337,E,4,20,0.8,3.3244,M,-1.3415,M,01,0000*78
$GPRMC,033136.40,A,2234.03523482,N,11431.92506337,E,0.005,119.6,051224,3.4,W,D*28
$GNVTG,217.215,T,220.644,M,0.01913,N,0.03542,K,D*36
$GNHDT,236.6158,T*16
$GPGGA,033136.60,2234.03523397,N,11431.92506268,E,4,20,0.8,3.3152,M,-1.3415,M,00,0000*77
$GPRMC,033136.60,A,2234.03523397,N,11431.92506268,E,0.019,217.2,051224,3.4,W,D*26
$GNVTG,103.285,T,106.715,M,0.05680,N,0.10519,K,D*36
$GNHDT,236.7195,T*16
$GPGGA,033136.80,2234.03523324,N,11431.92506600,E,4,19,0.8,3.2982,M,-1.3415,M,00,0000*75
$GPRMC,033136.80,A,2234.03523324,N,11431.92506600,E,0.057,103.3,051224,3.4,W,D*27
$GNVTG,107.869,T,111.299,M,0.05246,N,0.09716,K,D*36
$GNHDT,236.8748,T*1F
$GPGGA,033137.00,2234.03523234,N,11431.92506899,E,4,19,0.8,3.3531,M,-1.3415,M,01,0000*76
$GPRMC,033137.00,A,2234.03523234,N,11431.92506899,E,0.052,107.9,051224,3.4,W,D*2B
$GNVTG,186.495,T,189.924,M,0.07691,N,0.14244,K,D*3E
$GNHDT,237.0762,T*1E
$GPGGA,033137.20,2234.03522808,N,11431.92506847,E,4,19,0.8,3.3416,M,-1.3415,M,01,0000*77
$GPRMC,033137.20,A,2234.03522808,N,11431.92506847,E,0.077,186.5,051224,3.4,W,D*2C
$GNVTG,123.323,T,126.752,M,0.00883,N,0.01635,K,D*3D
$GNHDT,236.9458,T*1C
$GPGGA,033137.40,2234.03522781,N,11431.92506891,E,4,19,0.8,3.3529,M,-1.3415,M,01,0000*79
$GPRMC,033137.40,A,2234.03522781,N,11431.92506891,E,0.009,123.3,051224,3.4,W,D*2F
$GNVTG,330.854,T,334.284,M,0.04488,N,0.08312,K,D*33
$GNHDT,236.6942,T*15
$GPGGA,033137.60,2234.03523000,N,11431.92506760,E,4,20,0.8,3.3597,M,-1.3415,M,01,0000*7A
$GPRMC,033137.60,A,2234.03523000,N,11431.92506760,E,0.045,330.9,051224,3.4,W,D*21
$GNVTG,100.714,T,104.143,M,0.01464,N,0.02711,K,D*3A
$GNHDT,236.9609,T*1A
$GPGGA,033137.80,2234.03522984,N,11431.92506847,E,4,20,0.8,3.3587,M,-1.3415,M,00,0000*7A
$GPRMC,033137.80,A,2234.03522984,N,11431.92506847,E,0.015,100.7,051224,3.4,W,D*2B
$GNVTG,18.907,T,22.336,M,0.06346,N,0.11752,K,D*3E
$GNHDT,236.5612,T*1C
$GPGGA,033138.00,2234.03523319,N,11431.92506970,E,4,19,0.8,3.3403,M,-1.3415,M,01,0000*71
$GPRMC,033138.00,A,2234.03523319,N,11431.92506970,E,0.063,18.9,051224,3.4,W,D*11
$GNVTG,79.858,T,83.288,M,0.06718,N,0.12442,K,D*33
$GNHDT,236.8842,T*1A
$GPGGA,033138.20,2234.03523385,N,11431.92507367,E,4,19,0.8,3.3585,M,-1.3415,M,01,0000*74
$GPRMC,033138.20,A,2234.03523385,N,11431.92507367,E,0.067,79.9,051224,3.4,W,D*18
$GNVTG,181.587,T,185.017,M,0.16008,N,0.29647,K,D*31
$GNHDT,237.2579,T*14
$GPGGA,033138.40,2234.03522493,N,11431.92507340,E,4,19,0.8,3.3608,M,-1.3415,M,01,0000*70
$GPRMC,033138.40,A,2234.03522493,N,11431.92507340,E,0.160,181.6,051224,3.4,W,D*25
$GNVTG,100.001,T,103.431,M,0.04098,N,0.07590,K,D*32
$GNHDT,237.2215,T*19
$GPGGA,033138.60,2234.03522453,N,11431.92507583,E,4,20,0.8,3.3548,M,-1.3415,M,01,0000*7A
$GPRMC,033138.60,A,2234.03522453,N,11431.92507583,E,0.041,100.0,051224,3.4,W,D*2F
$GNVTG,169.883,T,173.313,M,0.03619,N,0.06703,K,D*3E
$GNHDT,236.9857,T*1F
$GPGGA,033138.80,2234.03522255,N,11431.92507621,E,4,20,0.8,3.3694,M,-1.3415,M,01,0000*7D
$GPRMC,033138.80,A,2234.03522255,N,11431.92507621,E,0.036,169.9,051224,3.4,W,D*2C
$GNVTG,190.132,T,193.562,M,0.06722,N,0.12449,K,D*31
$GNHDT,237.0461,T*1E
$GPGGA,033139.00,2234.03521886,N,11431.92507550,E,4,20,0.8,3.3862,M,-1.3415,M,02,0000*72
$GPRMC,033139.00,A,2234.03521886,N,11431.92507550,E,0.067,190.1,051224,3.4,W,D*2D
$GNVTG,107.695,T,111.125,M,0.06523,N,0.12081,K,D*3B
$GNHDT,237.0640,T*1F
$GPGGA,033139.20,2234.03521775,N,11431.92507923,E,4,21,0.8,3.3639,M,-1.3415,M,02,0000*7A
$GPRMC,033139.20,A,2234.03521775,N,11431.92507923,E,0.065,107.7,051224,3.4,W,D*2E
$GNVTG,330.423,T,333.853,M,0.09032,N,0.16728,K,D*32
$GNHDT,237.0223,T*1E
$GPGGA,033139.40,2234.03522213,N,11431.92507655,E,4,21,0.8,3.3790,M,-1.3415,M,02,0000*76
$GPRMC,033139.40,A,2234.03522213,N,11431.92507655,E,0.090,330.4,051224,3.4,W,D*2F
$GNVTG,134.389,T,137.819,M,0.05677,N,0.10513,K,D*3C
$GNHDT,237.2367,T*1D
$GPGGA,033139.60,2234.03521992,N,11431.92507899,E,4,21,0.8,3.3336,M,-1.3415,M,02,0000*73
$GPRMC,033139.60,A,2234.03521992,N,11431.92507899,E,0.057,134.4,051224,3.4,W,D*2F
$GNVTG,90.351,T,93.781,M,0.05853,N,0.10840,K,D*34
$GNHDT,237.1733,T*1B
$GPGGA,033139.80,2234.03521990,N,11431.92508250,E,4,21,0.8,3.3398,M,-1.3415,M,00,0000*79
$GPRMC,033139.80,A,2234.03521990,N,11431.92508250,E,0.059,90.4,051224,3.4,W,D*12
$GNVTG,255.429,T,258.859,M,0.05492,N,0.10171,K,D*32
$GNHDT,237.1782,T*11
$GPGGA,033140.00,2234.03521913,N,11431.92507931,E,4,20,0.8,3.3436,M,-1.3415,M,01,0000*74
$GPRMC,033140.00,A,2234.03521913,N,11431.92507931,E,0.055,255.4,051224,3.4,W,D*2B
$GNVTG,29.825,T,33.254,M,0.05117,N,0.09476,K,D*31
$GNHDT,237.2813,T*15
$GPGGA,033140.20,2234.03522160,N,11431.92508084,E,4,19,0.8,3.3625,M,-1.3415,M,01,0000*7B
$GPRMC,033140.20,A,2234.03522160,N,11431.92508084,E,0.051,29.8,051224,3.4,W,D*1F
$GNVTG,137.875,T,141.304,M,0.05003,N,0.09265,K,D*3A
$GNHDT,237.2608,T*11
$GPGGA,033140.40,2234.03521953,N,11431.92508285,E,4,18,0.8,3.3671,M,-1.3415,M,01,0000*75
$GPRMC,033140.40,A,2234.03521953,N,11431.92508285,E,0.050,137.9,051224,3.4,W,D*2F
$GNVTG,173.854,T,177.283,M,0.06191,N,0.11466,K,D*37
$GNHDT,237.2403,T*18
$GPGGA,033140.60,2234.03521610,N,11431.92508325,E,4,18,0.8,3.3655,M,-1.3415,M,01,0000*72
$GPRMC,033140.60,A,2234.03521610,N,11431.92508325,E,0.062,173.9,051224,3.4,W,D*2F
$GNVTG,4.723,T,8.153,M,0.01906,N,0.03530,K,D*3E
$GNHDT,237.3619,T*10
$GPGGA,033140.80,2234.03521716,N,11431.92508334,E,4,18,0.8,3.3726,M,-1.3415,M,00,0000*7F
$GPRMC,033140.80,A,2234.03521716,N,11431.92508334,E,0.019,4.7,051224,3.4,W,D*25
$GNVTG,64.851,T,68.280,M,0.04575,N,0.08472,K,D*38
$GNHDT,237.2100,T*1E
$GPGGA,033141.00,2234.03521825,N,11431.92508583,E,4,20,0.8,3.3647,M,-1.3415,M,01,0000*7F
$GPRMC,033141.00,A,2234.03521825,N,11431.92508583,E,0.046,64.9,051224,3.4,W,D*1B
$GNVTG,280.491,T,283.921,M,0.03642,N,0.06745,K,D*3E
$GNHDT,237.0949,T*19
$GPGGA,033141.20,2234.03521862,N,11431.92508368,E,4,20,0.8,3.3531,M,-1.3415,M,01,0000*7F
$GPRMC,033141.20,A,2234.03521862,N,11431.92508368,E,0.036,280.5,051224,3.4,W,D*2A
$GNVTG,216.606,T,220.035,M,0.02813,N,0.05209,K,D*3D
$GNHDT,237.1662,T*1E
$GPGGA,033141.40,2234.03521736,N,11431.92508267,E,4,19,0.8,3.3551,M,-1.3415,M,01,0000*75
$GPRMC,033141.40,A,2234.03521736,N,11431.92508267,E,0.028,216.6,051224,3.4,W,D*2F
$GNVTG,114.905,T,118.335,M,0.08670,N,0.16058,K,D*3E
$GNHDT,237.4524,T*1A
$GPGGA,033141.60,2234.03521532,N,11431.92508739,E,4,20,0.8,3.3821,M,-1.3415,M,01,0000*7F
$GPRMC,033141.60,A,2234.03521532,N,11431.92508739,E,0.087,114.9,051224,3.4,W,D*2E
$GNVTG,182.085,T,185.515,M,0.03182,N,0.05893,K,D*3C
$GNHDT,237.2653,T*1F
$GPGGA,033141.80,2234.03521355,N,11431.92508732,E,4,20,0.8,3.3713,M,-1.3415,M,00,0000*72
$GPRMC,033141.80,A,2234.03521355,N,11431.92508732,E,0.032,182.1,051224,3.4,W,D*25
$GNVTG,221.566,T,224.995,M,0.04531,N,0.08391,K,D*3D
$GNHDT,237.2915,T*12
$GPGGA,033142.00,2234.03521166,N,11431.92508552,E,4,20,0.8,3.3768,M,-1.3415,M,01,0000*72
$GPRMC,033142.00,A,2234.03521166,N,11431.92508552,E,0.045,221.6,051224,3.4,W,D*25
$GNVTG,103.796,T,107.225,M,0.08400,N,0.15556,K,D*3F
$GNHDT,237.4550,T*19
$GPGGA,033142.20,2234.03521054,N,11431.92509042,E,4,21,0.8,3.4010,M,-1.3415,M,01,0000*7B
$GPRMC,033142.20,A,2234.03521054,N,11431.92509042,E,0.084,103.8,051224,3.4,W,D*22
$GNVTG,276.868,T,280.298,M,0.12151,N,0.22503,K,D*34
$GNHDT,237.3330,T*1E
$GPGGA,033142.40,2234.03521135,N,11431.92508317,E,4,19,0.8,3.3766,M,-1.3415,M,01,0000*73
$GPRMC,033142.40,A,2234.03521135,N,11431.92508317,E,0.122,276.9,051224,3.4,W,D*2D
$GNVTG,174.303,T,177.733,M,0.06704,N,0.12416,K,D*39
$GNHDT,237.3400,T*1A
$GPGGA,033142.60,2234.03520763,N,11431.92508357,E,4,19,0.8,3.3719,M,-1.3415,M,01,0000*79
$GPRMC,033142.60,A,2234.03520763,N,11431.92508357,E,0.067,174.3,051224,3.4,W,D*24
$GNVTG,229.721,T,233.150,M,0.03249,N,0.06018,K,D*30
$GNHDT,237.2771,T*1E
$GPGGA,033142.80,2234.03520646,N,11431.92508209,E,4,20,0.8,3.3783,M,-1.3415,M,01,0000*72
$GPRMC,033142.80,A,2234.03520646,N,11431.92508209,E,0.032,229.7,051224,3.4,W,D*29
$GNVTG,95.088,T,98.517,M,0.07978,N,0.14775,K,D*37
$GNHDT,237.3322,T*1D
$GPGGA,033143.00,2234.03520607,N,11431.92508686,E,4,20,0.8,3.3881,M,-1.3415,M,02,0000*73
$GPRMC,033143.00,A,2234.03520607,N,11431.92508686,E,0.080,95.1,051224,3.4,W,D*1C
$GNVTG,207.483,T,210.913,M,0.02302,N,0.04262,K,D*3B
$GNHDT,237.2448,T*17
$GPGGA,033143.20,2234.03520493,N,11431.92508622,E,4,20,0.8,3.3740,M,-1.3415,M,02,0000*72
$GPRMC,033143.20,A,2234.03520493,N,11431.92508622,E,0.023,207.5,051224,3.4,W,D*2B
$GNVTG,117.735,T,121.165,M,0.06032,N,0.11170,K,D*3F
$GNHDT,237.4086,T*17
$GPGGA,033143.40,2234.03520336,N,11431.92508942,E,4,20,0.8,3.3742,M,-1.3415,M,02,0000*77
$GPRMC,033143.40,A,2234.03520336,N,11431.92508942,E,0.060,117.7,051224,3.4,W,D*2B
$GNVTG,236.082,T,239.511,M,0.08794,N,0.16287,K,D*30
$GNHDT,237.1790,T*12
$GPGGA,033143.60,2234.03520063,N,11431.92508504,E,4,20,0.8,3.3945,M,-1.3415,M,02,0000*71
$GPRMC,033143.60,A,2234.03520063,N,11431.92508504,E,0.088,236.1,051224,3.4,W,D*24
$GNVTG,133.440,T,136.869,M,0.08167,N,0.15124,K,D*31
$GNHDT,237.3512,T*18
$GPGGA,033143.80,2234.03519750,N,11431.92508860,E,4,20,0.8,3.3876,M,-1.3415,M,00,0000*7E
$GPRMC,033143.80,A,2234.03519750,N,11431.92508860,E,0.082,133.4,051224,3.4,W,D*21
$GNVTG,128.221,T,131.651,M,0.07794,N,0.14435,K,D*39
$GNHDT,237.6309,T*11
$GPGGA,033144.00,2234.03519481,N,11431.92509228,E,4,20,0.8,3.3914,M,-1.3415,M,01,0000*7D
$GPRMC,033144.00,A,2234.03519481,N,11431.92509228,E,0.078,128.2,051224,3.4,W,D*2F
$GNVTG,252.093,T,255.523,M,0.09720,N,0.18002,K,D*36
$GNHDT,237.2630,T*1A
$GPGGA,033144.20,2234.03519314,N,11431.92508673,E,4,20,0.8,3.3760,M,-1.3415,M,01,0000*72
$GPRMC,033144.20,A,2234.03519314,N,11431.92508673,E,0.097,252.1,051224,3.4,W,D*21
$GNVTG,247.749,T,251.179,M,0.09854,N,0.18249,K,D*3C
$GNHDT,237.4244,T*1B
$GPGGA,033144.40,2234.03519106,N,11431.92508125,E,4,20,0.8,3.3751,M,-1.3415,M,01,0000*73
$GPRMC,033144.40,A,2234.03519106,N,11431.92508125,E,0.099,247.7,051224,3.4,W,D*2E
$GNVTG,9.342,T,12.772,M,0.05791,N,0.10724,K,D*0F
$GNHDT,236.9642,T*15
$GPGGA,033144.60,2234.03519425,N,11431.92508182,E,4,20,0.8,3.3911,M,-1.3415,M,01,0000*72
$GPRMC,033144.60,A,2234.03519425,N,11431.92508182,E,0.058,9.3,051224,3.4,W,D*24
$GNVTG,183.830,T,187.259,M,0.05943,N,0.11006,K,D*34
$GNHDT,237.1116,T*1A
$GPGGA,033144.80,2234.03519094,N,11431.92508158,E,4,20,0.8,3.3803,M,-1.3415,M,00,0000*76
$GPRMC,033144.80,A,2234.03519094,N,11431.92508158,E,0.059,183.8,051224,3.4,W,D*2A
$GNVTG,91.643,T,95.073,M,0.07009,N,0.12980,K,D*35
$GNHDT,237.3107,T*18
$GPGGA,033145.00,2234.03519083,N,11431.92508578,E,4,20,0.8,3.3894,M,-1.3415,M,01,0000*70
$GPRMC,033145.00,A,2234.03519083,N,11431.92508578,E,0.070,91.6,051224,3.4,W,D*14
$GNVTG,205.496,T,208.926,M,0.05269,N,0.09758,K,D*38
$GNHDT,237.3421,T*19
$GPGGA,033145.20,2234.03518818,N,11431.92508442,E,4,20,0.8,3.3863,M,-1.3415,M,01,0000*79
$GPRMC,033145.20,A,2234.03518818,N,11431.92508442,E,0.053,205.5,051224,3.4,W,D*28
$GNVTG,337.562,T,340.992,M,0.05057,N,0.09366,K,D*36
$GNHDT,237.1468,T*16
$GPGGA,033145.40,2234.03519079,N,11431.92508326,E,4,20,0.8,3.3812,M,-1.3415,M,01,0000*72
$GPRMC,033145.40,A,2234.03519079,N,11431.92508326,E,0.051,337.6,051224,3.4,W,D*24
$GNVTG,177.036,T,180.466,M,0.13004,N,0.24083,K,D*3A
$GNHDT,237.7544,T*1F
$GPGGA,033145.60,2234.03518355,N,11431.92508367,E,4,20,0.8,3.3915,M,-1.3415,M,01,0000*7F
$GPRMC,033145.60,A,2234.03518355,N,11431.92508367,E,0.130,177.0,051224,3.4,W,D*29
$GNVTG,243.679,T,247.109,M,0.05525,N,0.10233,K,D*38
$GNHDT,237.1483,T*13
$GPGGA,033145.80,2234.03518218,N,11431.92508069,E,4,21,0.8,3.3801,M,-1.3415,M,01,0000*71
$GPRMC,033145.80,A,2234.03518218,N,11431.92508069,E,0.055,243.7,051224,3.4,W,D*23
$GNVTG,138.551,T,141.980,M,0.05058,N,0.09368,K,D*3A
$GNHDT,237.4530,T*1F
$GPGGA,033146.00,2234.03518007,N,11431.92508270,E,4,20,0.8,3.3740,M,-1.3415,M,02,0000*74
$GPRMC,033146.00,A,2234.03518007,N,11431.92508270,E,0.051,138.6,051224,3.4,W,D*24
$GNVTG,56.364,T,59.794,M,0.07370,N,0.13649,K,D*36
$GNHDT,237.4219,T*13
$GPGGA,033146.20,2234.03518234,N,11431.92508639,E,4,20,0.8,3.3875,M,-1.3415,M,02,0000*74
$GPRMC,033146.20,A,2234.03518234,N,11431.92508639,E,0.074,56.4,051224,3.4,W,D*11
$GNVTG,195.051,T,198.480,M,0.02499,N,0.04629,K,D*32
$GNHDT,237.4784,T*12
$GPGGA,033146.40,2234.03518100,N,11431.92508600,E,4,20,0.8,3.3682,M,-1.3415,M,02,0000*7A
$GPRMC,033146.40,A,2234.03518100,N,11431.92508600,E,0.025,195.1,051224,3.4,W,D*26
$GNVTG,61.087,T,64.517,M,0.05526,N,0.10235,K,D*30
$GNHDT,237.5595,T*11
$GPGGA,033146.60,2234.03518249,N,11431.92508890,E,4,21,0.8,3.3630,M,-1.3415,M,02,0000*79
$GPRMC,033146.60,A,2234.03518249,N,11431.92508890,E,0.055,61.1,051224,3.4,W,D*10
$GNVTG,236.873,T,240.303,M,0.04716,N,0.08734,K,D*39
$GNHDT,237.7256,T*1B
$GPGGA,033146.80,2234.03518105,N,11431.92508653,E,4,21,0.8,3.3623,M,-1.3415,M,00,0000*7D
$GPRMC,033146.80,A,2234.03518105,N,11431.92508653,E,0.047,236.9,051224,3.4,W,D*2F
$GNVTG,277.590,T,281.020,M,0.02221,N,0.04113,K,D*3B
$GNHDT,237.7077,T*1A
$GPGGA,033147.00,2234.03518121,N,11431.92508521,E,4,21,0.8,3.3766,M,-1.3415,M,01,0000*75
$GPRMC,033147.00,A,2234.03518121,N,11431.92508521,E,0.022,277.6,051224,3.4,W,D*2F
$GNVTG,222.346,T,225.775,M,0.07764,N,0.14378,K,D*30
$GNHDT,237.8692,T*18
$GPGGA,033147.20,2234.03517802,N,11431.92508207,E,4,21,0.8,3.3615,M,-1.3415,M,01,0000*76
$GPRMC,033147.20,A,2234.03517802,N,11431.92508207,E,0.078,222.3,051224,3.4,W,D*23
$GNVTG,281.439,T,284.868,M,0.10413,N,0.19284,K,D*34
$GNHDT,237.7647,T*1F
$GPGGA,033147.40,2234.03517917,N,11431.92507594,E,4,21,0.8,3.3715,M,-1.3415,M,01,0000*76
$GPRMC,033147.40,A,2234.03517917,N,11431.92507594,E,0.104,281.4,051224,3.4,W,D*26
$GNVTG,42.410,T,45.839,M,0.12882,N,0.23858,K,D*3D
$GNHDT,237.5799,T*1F
$GPGGA,033147.60,2234.03518447,N,11431.92508116,E,4,22,0.7,3.3666,M,-1.3415,M,01,0000*7B
$GPRMC,033147.60,A,2234.03518447,N,11431.92508116,E,0.129,42.4,051224,3.4,W,D*10
$GNVTG,158.897,T,162.327,M,0.02944,N,0.05452,K,D*3C
$GNHDT,237.9166,T*15
$GPGGA,033147.80,2234.03518294,N,11431.92508179,E,4,22,0.7,3.3779,M,-1.3415,M,00,0000*7A
$GPRMC,033147.80,A,2234.03518294,N,11431.92508179,E,0.029,158.9,051224,3.4,W,D*29
$GNVTG,311.217,T,314.647,M,0.10109,N,0.18723,K,D*3A
$GNHDT,237.5578,T*12
$GPGGA,033148.00,2234.03518665,N,11431.92507723,E,4,22,0.7,3.3732,M,-1.3415,M,01,0000*7F
$GPRMC,033148.00,A,2234.03518665,N,11431.92507723,E,0.101,311.2,051224,3.4,W,D*2D
$GNVTG,177.947,T,181.377,M,0.01328,N,0.02459,K,D*3A
$GNHDT,237.4214,T*1E
$GPGGA,033148.20,2234.03518591,N,11431.92507726,E,4,22,0.7,3.3799,M,-1.3415,M,01,0000*71
$GPRMC,033148.20,A,2234.03518591,N,11431.92507726,E,0.013,177.9,051224,3.4,W,D*29
$GNVTG,237.907,T,241.337,M,0.10789,N,0.19981,K,D*3F
$GNHDT,237.7812,T*11
$GPGGA,033148.40,2234.03518272,N,11431.92507177,E,4,19,0.8,3.3765,M,-1.3415,M,01,0000*7B
$GPRMC,033148.40,A,2234.03518272,N,11431.92507177,E,0.108,237.9,051224,3.4,W,D*2B
$GNVTG,152.861,T,156.291,M,0.04488,N,0.08312,K,D*31
$GNHDT,237.9533,T*11
$GPGGA,033148.60,2234.03518049,N,11431.92507300,E,4,19,0.8,3.4013,M,-1.3415,M,01,0000*70
$GPRMC,033148.60,A,2234.03518049,N,11431.92507300,E,0.045,152.9,051224,3.4,W,D*29
$GNVTG,201.665,T,205.095,M,0.06368,N,0.11794,K,D*34
$GNHDT,237.7156,T*18
$GPGGA,033148.80,2234.03517719,N,11431.92507159,E,4,19,0.8,3.4008,M,-1.3415,M,00,0000*76
$GPRMC,033148.80,A,2234.03517719,N,11431.92507159,E,0.064,201.7,051224,3.4,W,D*2C
$GNVTG,280.723,T,284.153,M,0.02168,N,0.04015,K,D*30
$GNHDT,237.9149,T*18
$GPGGA,033149.00,2234.03517742,N,11431.92507031,E,4,19,0.8,3.3670,M,-1.3415,M,01,0000*71
$GPRMC,033149.00,A,2234.03517742,N,11431.92507031,E,0.022,280.7,051224,3.4,W,D*2F
$GNVTG,39.718,T,43.148,M,0.14109,N,0.26130,K,D*3D
$GNHDT,237.2026,T*1B
$GPGGA,033149.20,2234.03518347,N,11431.92507572,E,4,17,0.8,3.3931,M,-1.3415,M,01,0000*7B
$GPRMC,033149.20,A,2234.03518347,N,11431.92507572,E,0.141,39.7,051224,3.4,W,D*15
$GNVTG,238.247,T,241.677,M,0.14213,N,0.26323,K,D*32
$GNHDT,237.0399,T*1E
$GPGGA,033149.40,2234.03517930,N,11431.92506847,E,4,19,0.8,3.3761,M,-1.3415,M,01,0000*77
$GPRMC,033149.40,A,2234.03517930,N,11431.92506847,E,0.142,238.2,051224,3.4,W,D*29
$GNVTG,74.405,T,77.834,M,0.12506,N,0.23162,K,D*31
$GNHDT,238.2379,T*1D
$GPGGA,033149.60,2234.03518117,N,11431.92507570,E,4,19,0.8,3.3892,M,-1.3415,M,01,0000*7C
$GPRMC,033149.60,A,2234.03518117,N,11431.92507570,E,0.125,74.4,051224,3.4,W,D*1C
$GNVTG,227.006,T,230.436,M,0.21623,N,0.40046,K,D*3B
$GNHDT,237.4929,T*1B
$GPGGA,033149.80,2234.03517295,N,11431.92506621,E,4,21,0.7,3.3988,M,-1.3415,M,00,0000*7D
$GPRMC,033149.80,A,2234.03517295,N,11431.92506621,E,0.216,227.0,051224,3.4,W,D*21
$GNVTG,57.686,T,61.116,M,0.05284,N,0.09785,K,D*3B
$GNHDT,237.2304,T*18
$GPGGA,033150.00,2234.03517452,N,11431.92506889,E,4,21,0.7,3.3985,M,-1.3415,M,01,0000*70
$GPRMC,033150.00,A,2234.03517452,N,11431.92506889,E,0.053,57.7,051224,3.4,W,D*11
$GNVTG,308.441,T,311.871,M,0.10344,N,0.19157,K,D*36
$GNHDT,237.8558,T*1D
$GPGGA,033150.20,2234.03517811,N,11431.92506402,E,4,21,0.7,3.4228,M,-1.3415,M,01,0000*7D
$GPRMC,033150.20,A,2234.03517811,N,11431.92506402,E,0.103,308.4,051224,3.4,W,D*29
$GNVTG,298.947,T,302.377,M,0.01892,N,0.03504,K,D*33
$GNHDT,237.7128,T*11
$GPGGA,033150.40,2234.03517862,N,11431.92506303,E,4,21,0.7,3.4189,M,-1.3415,M,01,0000*71
$GPRMC,033150.40,A,2234.03517862,N,11431.92506303,E,0.019,298.9,051224,3.4,W,D*22
$GNVTG,31.385,T,34.814,M,0.05321,N,0.09854,K,D*3B
$GNHDT,237.7137,T*1F
$GPGGA,033150.60,2234.03518115,N,11431.92506469,E,4,21,0.8,3.4039,M,-1.3415,M,00,0000*7A
$GPRMC,033150.60,A,2234.03518115,N,11431.92506469,E,0.053,31.4,051224,3.4,W,D*1F
$GNVTG,70.123,T,73.553,M,0.02236,N,0.04142,K,D*3E
$GNHDT,237.5757,T*1D
$GPGGA,033150.80,2234.03518158,N,11431.92506595,E,4,21,0.8,3.3703,M,-1.3415,M,00,0000*76
$GPRMC,033150.80,A,2234.03518158,N,11431.92506595,E,0.022,70.1,051224,3.4,W,D*1C
$GNVTG,147.196,T,150.626,M,0.02645,N,0.04899,K,D*3B
$GNHDT,237.4759,T*12
$GPGGA,033151.00,2234.03518034,N,11431.92506681,E,4,21,0.8,3.3769,M,-1.3415,M,01,0000*7F
$GPRMC,033151.00,A,2234.03518034,N,11431.92506681,E,0.026,147.2,051224,3.4,W,D*2A
$GNVTG,217.859,T,221.289,M,0.11359,N,0.21037,K,D*32
$GNHDT,237.9044,T*14
$GPGGA,033151.20,2234.03517534,N,11431.92506263,E,4,21,0.8,3.3967,M,-1.3415,M,01,0000*7F
$GPRMC,033151.20,A,2234.03517534,N,11431.92506263,E,0.114,217.9,051224,3.4,W,D*27
$GNVTG,283.943,T,287.372,M,0.03513,N,0.06506,K,D*35
$GNHDT,237.8351,T*12
$GPGGA,033151.40,2234.03517581,N,11431.92506058,E,4,21,0.8,3.3707,M,-1.3415,M,01,0000*75
$GPRMC,033151.40,A,2234.03517581,N,11431.92506058,E,0.035,283.9,051224,3.4,W,D*2A
$GNVTG,95.178,T,98.607,M,0.07231,N,0.13391,K,D*34
$GNHDT,237.6250,T*1C
$GPGGA,033151.60,2234.03517544,N,11431.92506491,E,4,21,0.8,3.3568,M,-1.3415,M,00,0000*75
$GPRMC,033151.60,A,2234.03517544,N,11431.92506491,E,0.072,95.2,051224,3.4,W,D*1D
$GNVTG,222.333,T,225.763,M,0.08381,N,0.15522,K,D*3D
$GNHDT,238.1632,T*14
$GPGGA,033151.80,2234.03517199,N,11431.92506152,E,4,21,0.8,3.3522,M,-1.3415,M,00,0000*7B
$GPRMC,033151.80,A,2234.03517199,N,11431.92506152,E,0.084,222.3,051224,3.4,W,D*2B
$GNVTG,84.185,T,87.615,M,0.02570,N,0.04760,K,D*30
$GNHDT,237.8014,T*10
$GPGGA,033152.00,2234.03517214,N,11431.92506305,E,4,21,0.8,3.3578,M,-1.3415,M,01,0000*78
$GPRMC,033152.00,A,2234.03517214,N,11431.92506305,E,0.026,84.2,051224,3.4,W,D*11
$GNVTG,19.973,T,23.403,M,0.07733,N,0.14322,K,D*3D
$GNHDT,237.8737,T*16
$GPGGA,033152.20,2234.03517619,N,11431.92506464,E,4,21,0.8,3.3852,M,-1.3415,M,01,0000*76
$GPRMC,033152.20,A,2234.03517619,N,11431.92506464,E,0.077,20.0,051224,3.4,W,D*12
$GNVTG,321.188,T,324.618,M,0.04747,N,0.08791,K,D*34
$GNHDT,237.5624,T*18
$GPGGA,033152.40,2234.03517825,N,11431.92506285,E,4,21,0.8,3.3748,M,-1.3415,M,01,0000*7C
$GPRMC,033152.40,A,2234.03517825,N,11431.92506285,E,0.047,321.2,051224,3.4,W,D*2F
$GNVTG,236.086,T,239.516,M,0.14397,N,0.26663,K,D*34
$GNHDT,237.9411,T*10
$GPGGA,033152.60,2234.03517377,N,11431.92505568,E,4,20,0.8,3.3749,M,-1.3415,M,01,0000*75
$GPRMC,033152.60,A,2234.03517377,N,11431.92505568,E,0.144,236.1,051224,3.4,W,D*20
$GNVTG,9.829,T,13.259,M,0.05846,N,0.10828,K,D*02
$GNHDT,237.6744,T*1C
$GPGGA,033152.80,2234.03517698,N,11431.92505628,E,4,20,0.8,3.3761,M,-1.3415,M,00,0000*73
$GPRMC,033152.80,A,2234.03517698,N,11431.92505628,E,0.058,9.8,051224,3.4,W,D*26
$GNVTG,252.480,T,255.909,M,0.07511,N,0.13910,K,D*3B
$GNHDT,237.7446,T*1C
$GPGGA,033153.00,2234.03517572,N,11431.92505198,E,4,20,0.8,3.3875,M,-1.3415,M,01,0000*7A
$GPRMC,033153.00,A,2234.03517572,N,11431.92505198,E,0.075,252.5,051224,3.4,W,D*2A
$GNVTG,307.174,T,310.604,M,0.04825,N,0.08937,K,D*30
$GNHDT,237.6992,T*19
$GPGGA,033153.20,2234.03517735,N,11431.92504967,E,4,19,0.8,3.3655,M,-1.3415,M,01,0000*76
$GPRMC,033153.20,A,2234.03517735,N,11431.92504967,E,0.048,307.2,051224,3.4,W,D*28
$GNVTG,247.626,T,251.055,M,0.03710,N,0.06871,K,D*30
$GNHDT,238.0218,T*19
$GPGGA,033153.40,2234.03517656,N,11431.92504761,E,4,19,0.8,3.3612,M,-1.3415,M,01,0000*7F
$GPRMC,033153.40,A,2234.03517656,N,11431.92504761,E,0.037,247.6,051224,3.4,W,D*2B
$GNVTG,297.262,T,300.692,M,0.01311,N,0.02428,K,D*32
$GNHDT,238.1763,T*11
$GPGGA,033153.60,2234.03517690,N,11431.92504691,E,4,19,0.8,3.3824,M,-1.3415,M,01,0000*72
$GPRMC,033153.60,A,2234.03517690,N,11431.92504691,E,0.013,297.3,051224,3.4,W,D*23
$GNVTG,344.350,T,347.780,M,0.03739,N,0.06924,K,D*35
$GNHDT,237.9778,T*1C
$GPGGA,033153.80,2234.03517890,N,11431.92504631,E,4,19,0.8,3.3729,M,-1.3415,M,00,0000*7B
$GPRMC,033153.80,A,2234.03517890,N,11431.92504631,E,0.037,344.4,051224,3.4,W,D*27
$GNVTG,221.645,T,225.075,M,0.07551,N,0.13984,K,D*38
$GNHDT,238.2811,T*18
$GPGGA,033154.00,2234.03517576,N,11431.92504330,E,4,19,0.8,3.3616,M,-1.3415,M,01,0000*79
$GPRMC,033154.00,A,2234.03517576,N,11431.92504330,E,0.076,221.6,051224,3.4,W,D*2C
$GNVTG,357.736,T,1.166,M,0.07774,N,0.14397,K,D*30
$GNHDT,237.8931,T*1E
$GPGGA,033154.20,2234.03518009,N,11431.92504311,E,4,20,0.8,3.4007,M,-1.3415,M,01,0000*71
$GPRMC,033154.20,A,2234.03518009,N,11431.92504311,E,0.078,357.7,051224,3.4,W,D*20
$GNVTG,259.710,T,263.140,M,0.03128,N,0.05794,K,D*35
$GNHDT,237.6297,T*17
$GPGGA,033154.40,2234.03517978,N,11431.92504127,E,4,19,0.8,3.3639,M,-1.3415,M,01,0000*76
$GPRMC,033154.40,A,2234.03517978,N,11431.92504127,E,0.031,259.7,051224,3.4,W,D*23
$GNVTG,316.388,T,319.817,M,0.05307,N,0.09829,K,D*31
$GNHDT,237.5258,T*17
$GPGGA,033154.60,2234.03518192,N,11431.92503907,E,4,20,0.8,3.3838,M,-1.3415,M,01,0000*7F
$GPRMC,033154.60,A,2234.03518192,N,11431.92503907,E,0.053,316.4,051224,3.4,W,D*22
$GNVTG,302.571,T,306.001,M,0.05345,N,0.09899,K,D*38
$GNHDT,237.3720,T*1B
$GPGGA,033154.80,2234.03518352,N,11431.92503636,E,4,20,0.8,3.3739,M,-1.3415,M,00,0000*7D
$GPRMC,033154.80,A,2234.03518352,N,11431.92503636,E,0.053,302.6,051224,3.4,W,D*28
$GNVTG,322.532,T,325.962,M,0.03163,N,0.05858,K,D*31
$GNHDT,237.3912,T*14
$GPGGA,033155.00,2234.03518492,N,11431.92503521,E,4,20,0.8,3.3687,M,-1.3415,M,01,0000*7F
$GPRMC,033155.00,A,2234.03518492,N,11431.92503521,E,0.032,322.5,051224,3.4,W,D*29
$GNVTG,298.127,T,301.556,M,0.05435,N,0.10066,K,D*3D
$GNHDT,237.6824,T*15
$GPGGA,033155.20,2234.03518635,N,11431.92503233,E,4,21,0.8,3.3712,M,-1.3415,M,01,0000*7A
$GPRMC,033155.20,A,2234.03518635,N,11431.92503233,E,0.054,298.1,051224,3.4,W,D*24
$GNVTG,274.719,T,278.149,M,0.07559,N,0.13999,K,D*32
$GNHDT,237.5625,T*19
$GPGGA,033155.40,2234.03518670,N,11431.92502781,E,4,22,0.7,3.3666,M,-1.3415,M,01,0000*7E
$GPRMC,033155.40,A,2234.03518670,N,11431.92502781,E,0.076,274.7,051224,3.4,W,D*2A
$GNVTG,125.554,T,128.984,M,0.09016,N,0.16697,K,D*35
$GNHDT,238.1524,T*10
$GPGGA,033155.60,2234.03518377,N,11431.92503221,E,4,22,0.7,3.3898,M,-1.3415,M,00,0000*7E
$GPRMC,033155.60,A,2234.03518377,N,11431.92503221,E,0.090,125.6,051224,3.4,W,D*2A
$GNVTG,297.581,T,301.011,M,0.07625,N,0.14122,K,D*38
$GNHDT,238.0945,T*1A
$GPGGA,033155.80,2234.03518574,N,11431.92502816,E,4,22,0.7,3.4031,M,-1.3415,M,00,0000*76
$GPRMC,033155.80,A,2234.03518574,N,11431.92502816,E,0.076,297.6,051224,3.4,W,D*2C
$GNVTG,9.656,T,13.086,M,0.04170,N,0.07723,K,D*0B
$GNHDT,237.7270,T*1F
$GPGGA,033156.00,2234.03518803,N,11431.92502858,E,4,22,0.7,3.3704,M,-1.3415,M,01,0000*7D
$GPRMC,033156.00,A,2234.03518803,N,11431.92502858,E,0.042,9.7,051224,3.4,W,D*23
$GNVTG,294.515,T,297.945,M,0.10440,N,0.19334,K,D*3F
$GNHDT,237.9839,T*16
$GPGGA,033156.20,2234.03519045,N,11431.92502287,E,4,21,0.8,3.3633,M,-1.3415,M,01,0000*75
$GPRMC,033156.20,A,2234.03519045,N,11431.92502287,E,0.104,294.5,051224,3.4,W,D*25
$GNVTG,38.380,T,41.810,M,0.04876,N,0.09030,K,D*33
$GNHDT,238.0836,T*1F
$GPGGA,033156.40,2234.03519258,N,11431.92502469,E,4,21,0.8,3.3826,M,-1.3415,M,01,0000*71
$GPRMC,033156.40,A,2234.03519258,N,11431.92502469,E,0.049,38.4,051224,3.4,W,D*16
$GNVTG,287.836,T,291.266,M,0.03753,N,0.06950,K,D*38
$GNHDT,238.4242,T*12
$GPGGA,033156.60,2234.03519322,N,11431.92502255,E,4,21,0.8,3.3817,M,-1.3415,M,01,0000*74
$GPRMC,033156.60,A,2234.03519322,N,11431.92502255,E,0.038,287.8,051224,3.4,W,D*2D
$GNVTG,255.324,T,258.754,M,0.04791,N,0.08873,K,D*39
$GNHDT,238.6100,T*15
$GPGGA,033156.80,2234.03519254,N,11431.92501977,E,4,21,0.8,3.3852,M,-1.3415,M,00,0000*72
$GPRMC,033156.80,A,2234.03519254,N,11431.92501977,E,0.048,255.3,051224,3.4,W,D*28
$GNVTG,317.895,T,321.325,M,0.05059,N,0.09369,K,D*31
$GNHDT,238.0463,T*13
$GPGGA,033157.00,2234.03519464,N,11431.92501773,E,4,21,0.8,3.3991,M,-1.3415,M,01,0000*7B
$GPRMC,033157.00,A,2234.03519464,N,11431.92501773,E,0.051,317.9,051224,3.4,W,D*2B
$GNVTG,180.165,T,183.595,M,0.05184,N,0.09600,K,D*37
$GNHDT,238.2751,T*13
$GPGGA,033157.20,2234.03519175,N,11431.92501772,E,4,21,0.8,3.3944,M,-1.3415,M,01,0000*75
$GPRMC,033157.20,A,2234.03519175,N,11431.92501772,E,0.052,180.2,051224,3.4,W,D*29
$GNVTG,3.536,T,6.966,M,0.01822,N,0.03375,K,D*3F
$GNHDT,237.9556,T*12
$GPGGA,033157.40,2234.03519276,N,11431.92501779,E,4,21,0.8,3.3817,M,-1.3415,M,01,0000*7F
$GPRMC,033157.40,A,2234.03519276,N,11431.92501779,E,0.018,3.5,051224,3.4,W,D*27
$GNVTG,99.926,T,103.356,M,0.03242,N,0.06004,K,D*02
$GNHDT,238.2764,T*15
$GPGGA,033157.60,2234.03519245,N,11431.92501970,E,4,21,0.8,3.3522,M,-1.3415,M,00,0000*70
$GPRMC,033157.60,A,2234.03519245,N,11431.92501970,E,0.032,99.9,051224,3.4,W,D*15
$GNVTG,176.989,T,180.419,M,0.04462,N,0.08264,K,D*39
$GNHDT,238.4352,T*12
$GPGGA,033157.80,2234.03518996,N,11431.92501985,E,4,22,0.7,3.3843,M,-1.3415,M,00,0000*76
$GPRMC,033157.80,A,2234.03518996,N,11431.92501985,E,0.045,177.0,051224,3.4,W,D*2D
$GNVTG,342.923,T,346.353,M,0.01499,N,0.02776,K,D*30
$GNHDT,238.8776,T*1C
$GPGGA,033158.00,2234.03519076,N,11431.92501958,E,4,22,0.7,3.3744,M,-1.3415,M,01,0000*7E
$GPRMC,033158.00,A,2234.03519076,N,11431.92501958,E,0.015,342.9,051224,3.4,W,D*24
$GNVTG,267.990,T,271.419,M,0.11532,N,0.21357,K,D*35
$GNHDT,238.5172,T*13
$GPGGA,033158.20,2234.03519054,N,11431.92501266,E,4,22,0.7,3.3467,M,-1.3415,M,01,0000*78
$GPRMC,033158.20,A,2234.03519054,N,11431.92501266,E,0.115,268.0,051224,3.4,W,D*21
$GNVTG,89.246,T,92.676,M,0.08543,N,0.15821,K,D*30
$GNHDT,238.5677,T*11
$GPGGA,033158.40,2234.03519060,N,11431.92501779,E,4,21,0.8,3.3947,M,-1.3415,M,01,0000*71
$GPRMC,033158.40,A,2234.03519060,N,11431.92501779,E,0.085,89.2,051224,3.4,W,D*1C
$GNVTG,219.301,T,222.730,M,0.05497,N,0.10181,K,D*30
$GNHDT,238.7665,T*10
$GPGGA,033158.60,2234.03518823,N,11431.92501570,E,4,21,0.8,3.3961,M,-1.3415,M,01,0000*72
$GPRMC,033158.60,A,2234.03518823,N,11431.92501570,E,0.055,219.3,051224,3.4,W,D*2C
$GNVTG,76.016,T,79.445,M,0.06370,N,0.11797,K,D*3E
$GNHDT,238.3551,T*10
$GPGGA,033158.80,2234.03518909,N,11431.92501941,E,4,21,0.8,3.3872,M,-1.3415,M,00,0000*79
$GPRMC,033158.80,A,2234.03518909,N,11431.92501941,E,0.064,76.0,051224,3.4,W,D*1F
$GNVTG,94.486,T,97.916,M,0.01439,N,0.02665,K,D*37
$GNHDT,238.4198,T*16
$GPGGA,033159.00,2234.03518902,N,11431.92502027,E,4,21,0.8,3.3959,M,-1.3415,M,01,0000*78
$GPRMC,033159.00,A,2234.03518902,N,11431.92502027,E,0.014,94.5,051224,3.4,W,D*19
$GNVTG,95.067,T,98.497,M,0.07553,N,0.13989,K,D*30
$GNHDT,238.9575,T*1C
$GPGGA,033159.20,2234.03518865,N,11431.92502479,E,4,21,0.8,3.3968,M,-1.3415,M,01,0000*77
$GPRMC,033159.20,A,2234.03518865,N,11431.92502479,E,0.076,95.1,051224,3.4,W,D*15
$GNVTG,107.531,T,110.961,M,0.02444,N,0.04526,K,D*34
$GNHDT,238.7604,T*17
$GPGGA,033159.40,2234.03518824,N,11431.92502619,E,4,21,0.8,3.3550,M,-1.3415,M,01,0000*77
$GPRMC,033159.40,A,2234.03518824,N,11431.92502619,E,0.024,107.5,051224,3.4,W,D*2B
$GNVTG,172.342,T,175.771,M,0.01070,N,0.01982,K,D*3F
$GNHDT,238.4766,T*11
$GPGGA,033159.60,2234.03518765,N,11431.92502627,E,4,22,0.7,3.3640,M,-1.3415,M,01,0000*7C
$GPRMC,033159.60,A,2234.03518765,N,11431.92502627,E,0.011,172.3,051224,3.4,W,D*2C
$GNVTG,109.609,T,113.039,M,0.00688,N,0.01274,K,D*30
$GNHDT,238.4982,T*15
$GPGGA,033159.80,2234.03518752,N,11431.92502666,E,4,22,0.7,3.3644,M,-1.3415,M,00,0000*76
$GPRMC,033159.80,A,2234.03518752,N,11431.92502666,E,0.007,109.6,051224,3.4,W,D*2D
$GNVTG,75.236,T,78.665,M,0.02504,N,0.04637,K,D*32
$GNHDT,238.4552,T*14
$GPGGA,033200.00,2234.03518788,N,11431.92502812,E,4,22,0.7,3.3625,M,-1.3415,M,01,0000*7D
$GPRMC,033200.00,A,2234.03518788,N,11431.92502812,E,0.025,75.2,051224,3.4,W,D*1E
$GNVTG,238.097,T,241.527,M,0.05279,N,0.09776,K,D*3E
$GNHDT,238.8760,T*1B
$GPGGA,033200.20,2234.03518632,N,11431.92502543,E,4,22,0.7,3.3647,M,-1.3415,M,01,0000*72
$GPRMC,033200.20,A,2234.03518632,N,11431.92502543,E,0.053,238.1,051224,3.4,W,D*2C
$GNVTG,288.431,T,291.861,M,0.06188,N,0.11460,K,D*3C
$GNHDT,238.3901,T*19
$GPGGA,033200.40,2234.03518741,N,11431.92502190,E,4,22,0.7,3.3674,M,-1.3415,M,01,0000*7B
$GPRMC,033200.40,A,2234.03518741,N,11431.92502190,E,0.062,288.4,051224,3.4,W,D*29
$GNVTG,84.428,T,87.857,M,0.08393,N,0.15544,K,D*3F
$GNHDT,238.4676,T*11
$GPGGA,033200.60,2234.03518787,N,11431.92502692,E,4,22,0.7,3.3619,M,-1.3415,M,00,0000*7C
$GPRMC,033200.60,A,2234.03518787,N,11431.92502692,E,0.084,84.4,051224,3.4,W,D*12
$GNVTG,229.535,T,232.965,M,0.00700,N,0.01297,K,D*31
$GNHDT,238.7449,T*1C
$GPGGA,033200.80,2234.03518761,N,11431.92502660,E,4,22,0.7,3.3658,M,-1.3415,M,00,0000*72
$GPRMC,033200.80,A,2234.03518761,N,11431.92502660,E,0.007,229.5,051224,3.4,W,D*26
$GNVTG,42.843,T,46.273,M,0.03262,N,0.06041,K,D*33
$GNHDT,238.5699,T*11
$GPGGA,033201.00,2234.03518895,N,11431.92502793,E,4,22,0.7,3.3657,M,-1.3415,M,01,0000*7C
$GPRMC,033201.00,A,2234.03518895,N,11431.92502793,E,0.033,42.8,051224,3.4,W,D*13
$GNVTG,69.148,T,72.577,M,0.04209,N,0.07794,K,D*38
$GNHDT,238.3065,T*12
$GPGGA,033201.20,2234.03518978,N,11431.92503029,E,4,21,0.8,3.3500,M,-1.3415,M,01,0000*76
$GPRMC,033201.20,A,2234.03518978,N,11431.92503029,E,0.042,69.1,051224,3.4,W,D*12
$GNVTG,143.602,T,147.032,M,0.05537,N,0.10254,K,D*3F
$GNHDT,238.8127,T*1E
$GPGGA,033201.40,2234.03518730,N,11431.92503226,E,4,21,0.8,3.3811,M,-1.3415,M,01,0000*72
$GPRMC,033201.40,A,2234.03518730,N,11431.92503226,E,0.055,143.6,051224,3.4,W,D*23
$GNVTG,324.916,T,328.346,M,0.03258,N,0.06033,K,D*31
$GNHDT,238.3354,T*13
$GPGGA,033201.60,2234.03518878,N,11431.92503114,E,4,21,0.8,3.3337,M,-1.3415,M,01,0000*7E
$GPRMC,033201.60,A,2234.03518878,N,11431.92503114,E,0.033,324.9,051224,3.4,W,D*2C
$GNVTG,92.773,T,96.203,M,0.08371,N,0.15504,K,D*36
$GNHDT,238.8768,T*13
$GPGGA,033201.80,2234.03518856,N,11431.92503616,E,4,21,0.8,3.3613,M,-1.3415,M,00,0000*7B
$GPRMC,033201.80,A,2234.03518856,N,11431.92503616,E,0.084,92.8,051224,3.4,W,D*18
$GNVTG,106.428,T,109.857,M,0.05592,N,0.10357,K,D*38
$GNHDT,238.3496,T*1A
$GPGGA,033202.00,2234.03518768,N,11431.92503938,E,4,21,0.8,3.3628,M,-1.3415,M,01,0000*78
$GPRMC,033202.00,A,2234.03518768,N,11431.92503938,E,0.056,106.4,051224,3.4,W,D*2D
$GNVTG,197.422,T,200.852,M,0.07215,N,0.13363,K,D*3B
$GNHDT,238.6107,T*12
$GPGGA,033202.20,2234.03518384,N,11431.92503808,E,4,21,0.8,3.3754,M,-1.3415,M,01,0000*74
$GPRMC,033202.20,A,2234.03518384,N,11431.92503808,E,0.072,197.4,051224,3.4,W,D*25
$GNVTG,297.700,T,301.129,M,0.05219,N,0.09666,K,D*3B
$GNHDT,238.4958,T*12
$GPGGA,033202.40,2234.03518519,N,11431.92503530,E,4,21,0.8,3.3836,M,-1.3415,M,01,0000*7D
$GPRMC,033202.40,A,2234.03518519,N,11431.92503530,E,0.052,297.7,051224,3.4,W,D*25
$GNVTG,98.201,T,101.631,M,0.03794,N,0.07026,K,D*04
$GNHDT,238.4348,T*19
$GPGGA,033202.60,2234.03518489,N,11431.92503756,E,4,22,0.7,3.3847,M,-1.3415,M,01,0000*7F
$GPRMC,033202.60,A,2234.03518489,N,11431.92503756,E,0.038,98.2,051224,3.4,W,D*19
$GNVTG,133.612,T,137.042,M,0.01194,N,0.02212,K,D*31
$GNHDT,238.7837,T*19
$GPGGA,033202.80,2234.03518443,N,11431.92503808,E,4,22,0.7,3.3806,M,-1.3415,M,01,0000*76
$GPRMC,033202.80,A,2234.03518443,N,11431.92503808,E,0.012,133.6,051224,3.4,W,D*29
$GNVTG,95.363,T,98.793,M,0.06146,N,0.11382,K,D*32
$GNHDT,238.6741,T*16
$GPGGA,033203.00,2234.03518411,N,11431.92504175,E,4,22,0.7,3.3713,M,-1.3415,M,02,0000*74
$GPRMC,033203.00,A,2234.03518411,N,11431.92504175,E,0.061,95.4,051224,3.4,W,D*18
$GNVTG,165.294,T,168.723,M,0.02593,N,0.04802,K,D*3F
$GNHDT,238.7390,T*1F
$GPGGA,033203.20,2234.03518271,N,11431.92504215,E,4,22,0.7,3.3802,M,-1.3415,M,02,0000*7C
$GPRMC,033203.20,A,2234.03518271,N,11431.92504215,E,0.026,165.3,051224,3.4,W,D*25
$GNVTG,296.214,T,299.644,M,0.03165,N,0.05862,K,D*3E
$GNHDT,238.8483,T*15
$GPGGA,033203.40,2234.03518349,N,11431.92504044,E,4,22,0.7,3.3942,M,-1.3415,M,02,0000*73
$GPRMC,033203.40,A,2234.03518349,N,11431.92504044,E,0.032,296.2,051224,3.4,W,D*24
$GNVTG,91.677,T,95.107,M,0.13682,N,0.25339,K,D*3C
$GNHDT,239.0159,T*1E
$GPGGA,033203.60,2234.03518327,N,11431.92504865,E,4,22,0.7,3.3892,M,-1.3415,M,00,0000*7C
$GPRMC,033203.60,A,2234.03518327,N,11431.92504865,E,0.137,91.7,051224,3.4,W,D*11
$GNVTG,252.488,T,255.918,M,0.04287,N,0.07939,K,D*36
$GNHDT,238.5790,T*19
$GPGGA,033203.80,2234.03518255,N,11431.92504620,E,4,22,0.7,3.4048,M,-1.3415,M,00,0000*71
$GPRMC,033203.80,A,2234.03518255,N,11431.92504620,E,0.043,252.5,051224,3.4,W,D*29
$GNVTG,125.204,T,128.633,M,0.02771,N,0.05132,K,D*33
$GNHDT,238.6804,T*18
$GPGGA,033204.00,2234.03518166,N,11431.92504756,E,4,22,0.7,3.3794,M,-1.3415,M,01,0000*7D
$GPRMC,033204.00,A,2234.03518166,N,11431.92504756,E,0.028,125.2,051224,3.4,W,D*2C
$GNVTG,288.868,T,292.298,M,0.06803,N,0.12600,K,D*3E
$GNHDT,238.8169,T*14
$GPGGA,033204.20,2234.03518289,N,11431.92504369,E,4,21,0.8,3.4115,M,-1.3415,M,01,0000*71
$GPRMC,033204.20,A,2234.03518289,N,11431.92504369,E,0.068,288.9,051224,3.4,W,D*2F
$GNVTG,97.643,T,101.072,M,0.07935,N,0.14695,K,D*05
$GNHDT,238.7479,T*1F
$GPGGA,033204.40,2234.03518230,N,11431.92504841,E,4,21,0.8,3.3952,M,-1.3415,M,01,0000*78
$GPRMC,033204.40,A,2234.03518230,N,11431.92504841,E,0.079,97.6,051224,3.4,W,D*19
$GNVTG,173.043,T,176.472,M,0.07791,N,0.14430,K,D*31
$GNHDT,238.9336,T*1D
$GPGGA,033204.60,2234.03517799,N,11431.92504898,E,4,21,0.8,3.4150,M,-1.3415,M,01,0000*7A
$GPRMC,033204.60,A,2234.03517799,N,11431.92504898,E,0.078,173.0,051224,3.4,W,D*2A
$GNVTG,59.752,T,63.182,M,0.03117,N,0.05773,K,D*38
$GNHDT,238.6877,T*1C
$GPGGA,033204.80,2234.03517886,N,11431.92505059,E,4,21,0.8,3.4123,M,-1.3415,M,01,0000*75
$GPRMC,033204.80,A,2234.03517886,N,11431.92505059,E,0.031,59.8,051224,3.4,W,D*1D
$GNVTG,5.433,T,8.863,M,0.00935,N,0.01732,K,D*34
$GNHDT,238.5511,T*12
$GPGGA,033205.00,2234.03517938,N,11431.92505065,E,4,21,0.8,3.3931,M,-1.3415,M,02,0000*78
$GPRMC,033205.00,A,2234.03517938,N,11431.92505065,E,0.009,5.4,051224,3.4,W,D*21
$GNVTG,152.470,T,155.900,M,0.06517,N,0.12069,K,D*3C
$GNHDT,238.8495,T*12
$GPGGA,033205.20,2234.03517616,N,11431.92505246,E,4,21,0.8,3.3970,M,-1.3415,M,02,0000*7F
$GPRMC,033205.20,A,2234.03517616,N,11431.92505246,E,0.065,152.5,051224,3.4,W,D*2B
$GNVTG,89.985,T,93.415,M,0.15212,N,0.28173,K,D*3D
$GNHDT,239.1289,T*11
$GPGGA,033205.40,2234.03517616,N,11431.92506159,E,4,20,0.8,3.4013,M,-1.3415,M,02,0000*7D
$GPRMC,033205.40,A,2234.03517616,N,11431.92506159,E,0.152,90.0,051224,3.4,W,D*1C
$GNVTG,215.340,T,218.769,M,0.08150,N,0.15093,K,D*38
$GNHDT,238.8808,T*1A
$GPGGA,033205.60,2234.03517245,N,11431.92505876,E,4,21,0.8,3.3888,M,-1.3415,M,02,0000*76
$GPRMC,033205.60,A,2234.03517245,N,11431.92505876,E,0.081,215.3,051224,3.4,W,D*28
$GNVTG,103.443,T,106.873,M,0.01971,N,0.03650,K,D*3C
$GNHDT,238.8835,T*14
$GPGGA,033205.80,2234.03517220,N,11431.92505991,E,4,21,0.8,3.3853,M,-1.3415,M,00,0000*77
