$GNVTG,294.946,T,298.385,M,0.68135,N,1.26186,K,D*32
$GNHDT,294.2089,T*17
$GPGGA,024744.60,2234.46272578,N,11431.84238602,E,4,21,0.8,-4.3557,M,-1.3575,M,01,0000*5E
$GPRMC,024744.60,A,2234.46272578,N,11431.84238602,E,0.681,294.9,071224,3.4,W,D*26
$GNVTG,291.286,T,294.725,M,0.63427,N,1.17467,K,D*37
$GNHDT,293.8690,T*14
$GPGGA,024744.80,2234.46273861,N,11431.84235055,E,4,21,0.8,-4.4057,M,-1.3575,M,00,0000*5E
$GPRMC,024744.80,A,2234.46273861,N,11431.84235055,E,0.634,291.3,071224,3.4,W,D*24
$GNVTG,287.127,T,290.567,M,0.53152,N,0.98438,K,D*30
$GNHDT,293.7525,T*16
$GPGGA,024745.00,2234.46274734,N,11431.84232005,E,4,21,0.8,-4.4275,M,-1.3575,M,01,0000*5E
$GPRMC,024745.00,A,2234.46274734,N,11431.84232005,E,0.532,287.1,071224,3.4,W,D*27
$GNVTG,290.393,T,293.833,M,0.41096,N,0.76110,K,D*31
$GNHDT,293.5424,T*14
$GPGGA,024745.20,2234.46275532,N,11431.84229693,E,4,21,0.8,-4.4522,M,-1.3575,M,01,0000*5F
$GPRMC,024745.20,A,2234.46275532,N,11431.84229693,E,0.411,290.4,071224,3.4,W,D*20
$GNVTG,279.849,T,283.289,M,0.32072,N,0.59397,K,D*3E
$GNHDT,294.1049,T*18
$GPGGA,024745.40,2234.46275838,N,11431.84227796,E,4,21,0.8,-4.5355,M,-1.3575,M,01,0000*53
$GPRMC,024745.40,A,2234.46275838,N,11431.84227796,E,0.321,279.8,071224,3.4,W,D*24
$GNVTG,310.817,T,314.256,M,0.28578,N,0.52926,K,D*39
$GNHDT,293.9254,T*19
$GPGGA,024745.60,2234.46276879,N,11431.84226498,E,4,21,0.8,-4.5530,M,-1.3575,M,00,0000*5F
$GPRMC,024745.60,A,2234.46276879,N,11431.84226498,E,0.286,310.8,071224,3.4,W,D*2E
$GNVTG,305.010,T,308.450,M,0.30142,N,0.55823,K,D*38
$GNHDT,293.7940,T*19
$GPGGA,024745.80,2234.46277843,N,11431.84225016,E,4,21,0.8,-4.5881,M,-1.3575,M,00,0000*5F
$GPRMC,024745.80,A,2234.46277843,N,11431.84225016,E,0.301,305.0,071224,3.4,W,D*2B
$GNVTG,291.463,T,294.903,M,0.12711,N,0.23542,K,D*30
$GNHDT,294.1566,T*10
$GPGGA,024746.00,2234.46278103,N,11431.84224306,E,4,21,0.8,-4.5640,M,-1.3575,M,01,0000*57
$GPRMC,024746.00,A,2234.46278103,N,11431.84224306,E,0.127,291.5,071224,3.4,W,D*2E
$GNVTG,299.678,T,303.118,M,0.26318,N,0.48740,K,D*3A
$GNHDT,293.7478,T*1F
$GPGGA,024746.20,2234.46278829,N,11431.84222933,E,4,21,0.8,-4.5412,M,-1.3575,M,01,0000*5B
$GPRMC,024746.20,A,2234.46278829,N,11431.84222933,E,0.263,299.7,071224,3.4,W,D*2E
$GNVTG,287.129,T,290.569,M,0.08715,N,0.16139,K,D*39
$GNHDT,293.9617,T*1A
$GPGGA,024746.40,2234.46278972,N,11431.84222433,E,4,21,0.8,-4.5302,M,-1.3575,M,01,0000*59
$GPRMC,024746.40,A,2234.46278972,N,11431.84222433,E,0.087,287.1,071224,3.4,W,D*2B
$GNVTG,302.809,T,306.248,M,0.33809,N,0.62614,K,D*35
$GNHDT,294.1096,T*1A
$GPGGA,024746.60,2234.46279993,N,11431.84220728,E,4,21,0.8,-4.4702,M,-1.3575,M,01,0000*5B
$GPRMC,024746.60,A,2234.46279993,N,11431.84220728,E,0.338,302.8,071224,3.4,W,D*2E
$GNVTG,274.904,T,278.343,M,0.17739,N,0.32852,K,D*38
$GNHDT,294.1668,T*1D
$GPGGA,024746.80,2234.46280078,N,11431.84219667,E,4,21,0.8,-4.4855,M,-1.3575,M,00,0000*53
$GPRMC,024746.80,A,2234.46280078,N,11431.84219667,E,0.177,274.9,071224,3.4,W,D*22
$GNVTG,294.710,T,298.150,M,0.34509,N,0.63910,K,D*30
$GNHDT,293.8162,T*1E
$GPGGA,024747.00,2234.46280882,N,11431.84217785,E,4,21,0.8,-4.4816,M,-1.3575,M,01,0000*52
$GPRMC,024747.00,A,2234.46280882,N,11431.84217785,E,0.345,294.7,071224,3.4,W,D*26
$GNVTG,286.097,T,289.536,M,0.44437,N,0.82298,K,D*30
$GNHDT,293.9648,T*10
$GPGGA,024747.20,2234.46281569,N,11431.84215222,E,4,21,0.8,-4.4767,M,-1.3575,M,01,0000*5A
$GPRMC,024747.20,A,2234.46281569,N,11431.84215222,E,0.444,286.1,071224,3.4,W,D*24
$GNVTG,291.148,T,294.587,M,0.59228,N,1.09691,K,D*38
$GNHDT,293.5546,T*11
$GPGGA,024747.40,2234.46282760,N,11431.84211906,E,4,21,0.8,-4.4479,M,-1.3575,M,01,0000*51
$GPRMC,024747.40,A,2234.46282760,N,11431.84211906,E,0.592,291.1,071224,3.4,W,D*2F
$GNVTG,279.706,T,283.145,M,0.42016,N,0.77813,K,D*37
$GNHDT,293.7639,T*18
$GPGGA,024747.60,2234.46283155,N,11431.84209420,E,4,21,0.8,-4.4237,M,-1.3575,M,00,0000*5F
$GPRMC,024747.60,A,2234.46283155,N,11431.84209420,E,0.420,279.7,071224,3.4,W,D*24
$GNVTG,278.570,T,282.009,M,0.41748,N,0.77318,K,D*32
$GNHDT,293.9333,T*19
$GPGGA,024747.80,2234.46283502,N,11431.84206942,E,4,20,0.8,-4.4326,M,-1.3575,M,00,0000*51
$GPRMC,024747.80,A,2234.46283502,N,11431.84206942,E,0.417,278.6,071224,3.4,W,D*2E
$GNVTG,294.527,T,297.966,M,0.54854,N,1.01589,K,D*3E
$GNHDT,293.6503,T*13
$GPGGA,024748.00,2234.46284771,N,11431.84203946,E,4,21,0.8,-4.4345,M,-1.3575,M,01,0000*53
$GPRMC,024748.00,A,2234.46284771,N,11431.84203946,E,0.549,294.5,071224,3.4,W,D*22
$GNVTG,278.739,T,282.179,M,0.22606,N,0.41866,K,D*32
$GNHDT,294.2928,T*15
$GPGGA,024748.20,2234.46284963,N,11431.84202605,E,4,21,0.8,-4.4565,M,-1.3575,M,01,0000*51
$GPRMC,024748.20,A,2234.46284963,N,11431.84202605,E,0.226,278.7,071224,3.4,W,D*2A
$GNVTG,281.508,T,284.947,M,0.07727,N,0.14311,K,D*39
$GNHDT,294.6403,T*15
$GPGGA,024748.40,2234.46285049,N,11431.84202151,E,4,21,0.8,-4.5212,M,-1.3575,M,01,0000*57
$GPRMC,024748.40,A,2234.46285049,N,11431.84202151,E,0.077,281.5,071224,3.4,W,D*28
$GNVTG,322.414,T,325.854,M,0.20615,N,0.38180,K,D*35
$GNHDT,294.4387,T*1C
$GPGGA,024748.60,2234.46285959,N,11431.84201396,E,4,21,0.8,-4.5422,M,-1.3575,M,00,0000*53
$GPRMC,024748.60,A,2234.46285959,N,11431.84201396,E,0.206,322.4,071224,3.4,W,D*25
$GNVTG,295.625,T,299.065,M,0.36627,N,0.67834,K,D*3E
$GNHDT,294.5259,T*1F
$GPGGA,024748.80,2234.46286843,N,11431.84199414,E,4,22,0.7,-4.5484,M,-1.3575,M,00,0000*5B
$GPRMC,024748.80,A,2234.46286843,N,11431.84199414,E,0.366,295.6,071224,3.4,W,D*25
$GNVTG,285.069,T,288.508,M,0.38593,N,0.71475,K,D*33
$GNHDT,294.5739,T*1C
$GPGGA,024749.00,2234.46287402,N,11431.84197176,E,4,21,0.8,-4.5225,M,-1.3575,M,01,0000*55
$GPRMC,024749.00,A,2234.46287402,N,11431.84197176,E,0.386,285.1,071224,3.4,W,D*23
$GNVTG,284.436,T,287.875,M,0.61700,N,1.14269,K,D*39
$GNHDT,294.4902,T*1B
$GPGGA,024749.20,2234.46288259,N,11431.84193590,E,4,20,0.8,-4.4992,M,-1.3575,M,01,0000*5F
$GPRMC,024749.20,A,2234.46288259,N,11431.84193590,E,0.617,284.4,071224,3.4,W,D*27
$GNVTG,291.122,T,294.561,M,0.64091,N,1.18697,K,D*34
$GNHDT,294.2497,T*1C
$GPGGA,024749.40,2234.46289547,N,11431.84190001,E,4,21,0.8,-4.4452,M,-1.3575,M,01,0000*5E
$GPRMC,024749.40,A,2234.46289547,N,11431.84190001,E,0.641,291.1,071224,3.4,W,D*24
$GNVTG,277.847,T,281.286,M,0.37470,N,0.69394,K,D*30
$GNHDT,294.7693,T*1F
$GPGGA,024749.60,2234.46289832,N,11431.84187773,E,4,21,0.8,-4.4382,M,-1.3575,M,01,0000*5D
$GPRMC,024749.60,A,2234.46289832,N,11431.84187773,E,0.375,277.8,071224,3.4,W,D*2E
$GNVTG,291.589,T,295.028,M,0.22114,N,0.40956,K,D*38
$GNHDT,294.8864,T*16
$GPGGA,024749.80,2234.46290286,N,11431.84186538,E,4,21,0.8,-4.4188,M,-1.3575,M,00,0000*5B
$GPRMC,024749.80,A,2234.46290286,N,11431.84186538,E,0.221,291.6,071224,3.4,W,D*27
$GNVTG,299.105,T,302.545,M,0.08169,N,0.15128,K,D*32
$GNHDT,295.0703,T*11
$GPGGA,024750.00,2234.46290507,N,11431.84186110,E,4,21,0.8,-4.4779,M,-1.3575,M,01,0000*52
$GPRMC,024750.00,A,2234.46290507,N,11431.84186110,E,0.082,299.1,071224,3.4,W,D*23
$GNVTG,296.072,T,299.512,M,0.25271,N,0.46802,K,D*3F
$GNHDT,295.0703,T*11
$GPGGA,024750.20,2234.46291126,N,11431.84184747,E,4,21,0.8,-4.5208,M,-1.3575,M,01,0000*52
$GPRMC,024750.20,A,2234.46291126,N,11431.84184747,E,0.253,296.1,071224,3.4,W,D*20
$GNVTG,282.617,T,286.056,M,0.26503,N,0.49084,K,D*3C
$GNHDT,295.5553,T*13
$GPGGA,024750.40,2234.46291449,N,11431.84183195,E,4,21,0.8,-4.5414,M,-1.3575,M,01,0000*5D
$GPRMC,024750.40,A,2234.46291449,N,11431.84183195,E,0.265,282.6,071224,3.4,W,D*23
$GNVTG,287.739,T,291.178,M,0.49283,N,0.91273,K,D*36
$GNHDT,295.1423,T*11
$GPGGA,024750.60,2234.46292286,N,11431.84180377,E,4,21,0.8,-4.5488,M,-1.3575,M,01,0000*51
$GPRMC,024750.60,A,2234.46292286,N,11431.84180377,E,0.493,287.7,071224,3.4,W,D*21
$GNVTG,284.655,T,288.094,M,0.57298,N,1.06116,K,D*3F
$GNHDT,294.7493,T*1D
$GPGGA,024750.80,2234.46293094,N,11431.84177049,E,4,21,0.8,-4.5233,M,-1.3575,M,00,0000*5E
$GPRMC,024750.80,A,2234.46293094,N,11431.84177049,E,0.573,284.7,071224,3.4,W,D*25
$GNVTG,288.221,T,291.661,M,0.51018,N,0.94485,K,D*39
$GNHDT,294.6640,T*10
$GPGGA,024751.00,2234.46293983,N,11431.84174141,E,4,21,0.8,-4.4990,M,-1.3575,M,01,0000*50
$GPRMC,024751.00,A,2234.46293983,N,11431.84174141,E,0.510,288.2,071224,3.4,W,D*25
$GNVTG,293.231,T,296.670,M,0.35901,N,0.66489,K,D*37
$GNHDT,294.9190,T*15
$GPGGA,024751.20,2234.46294773,N,11431.84172160,E,4,22,0.7,-4.4763,M,-1.3575,M,01,0000*5F
$GPRMC,024751.20,A,2234.46294773,N,11431.84172160,E,0.359,293.2,071224,3.4,W,D*25
$GNVTG,289.524,T,292.963,M,0.10346,N,0.19161,K,D*33
$GNHDT,295.6727,T*11
$GPGGA,024751.40,2234.46294966,N,11431.84171575,E,4,22,0.7,-4.4543,M,-1.3575,M,01,0000*50
$GPRMC,024751.40,A,2234.46294966,N,11431.84171575,E,0.103,289.5,071224,3.4,W,D*2B
$GNVTG,305.462,T,308.902,M,0.25090,N,0.46466,K,D*36
$GNHDT,296.1626,T*15
$GPGGA,024751.60,2234.46295777,N,11431.84170348,E,4,21,0.8,-4.4180,M,-1.3575,M,00,0000*52
$GPRMC,024751.60,A,2234.46295777,N,11431.84170348,E,0.251,305.5,071224,3.4,W,D*2E
$GNVTG,313.816,T,317.256,M,0.17239,N,0.31927,K,D*32
$GNHDT,296.3163,T*11
$GPGGA,024751.80,2234.46296443,N,11431.84169601,E,4,19,0.8,-4.4409,M,-1.3575,M,00,0000*54
$GPRMC,024751.80,A,2234.46296443,N,11431.84169601,E,0.172,313.8,071224,3.4,W,D*2F
$GNVTG,283.163,T,286.603,M,0.34784,N,0.64420,K,D*34
$GNHDT,296.4182,T*19
$GPGGA,024752.00,2234.46296884,N,11431.84167568,E,4,20,0.8,-4.4164,M,-1.3575,M,01,0000*5F
$GPRMC,024752.00,A,2234.46296884,N,11431.84167568,E,0.348,283.2,071224,3.4,W,D*28
$GNVTG,287.327,T,290.766,M,0.66188,N,1.22581,K,D*33
$GNHDT,296.1193,T*1C
$GPGGA,024752.20,2234.46297983,N,11431.84163775,E,4,20,0.8,-4.3458,M,-1.3575,M,01,0000*5D
$GPRMC,024752.20,A,2234.46297983,N,11431.84163775,E,0.662,287.3,071224,3.4,W,D*2F
$GNVTG,278.375,T,281.815,M,0.64079,N,1.18675,K,D*33
$GNHDT,296.2572,T*14
$GPGGA,024752.40,2234.46298503,N,11431.84159970,E,4,21,0.8,-4.3497,M,-1.3575,M,01,0000*50
$GPRMC,024752.40,A,2234.46298503,N,11431.84159970,E,0.641,278.4,071224,3.4,W,D*26
$GNVTG,282.809,T,286.248,M,0.70396,N,1.30373,K,D*3D
$GNHDT,295.6697,T*1B
$GPGGA,024752.60,2234.46299373,N,11431.84155849,E,4,21,0.8,-4.3497,M,-1.3575,M,01,0000*55
$GPRMC,024752.60,A,2234.46299373,N,11431.84155849,E,0.704,282.8,071224,3.4,W,D*2A
$GNVTG,278.713,T,282.152,M,0.55480,N,1.02750,K,D*33
$GNHDT,295.5596,T*1A
$GPGGA,024752.80,2234.46299842,N,11431.84152557,E,4,21,0.8,-4.4059,M,-1.3575,M,01,0000*56
$GPRMC,024752.80,A,2234.46299842,N,11431.84152557,E,0.555,278.7,071224,3.4,W,D*24
$GNVTG,286.652,T,290.092,M,0.37479,N,0.69410,K,D*31
$GNHDT,295.6635,T*13
$GPGGA,024753.00,2234.46300441,N,11431.84150402,E,4,21,0.8,-4.4163,M,-1.3575,M,02,0000*59
$GPRMC,024753.00,A,2234.46300441,N,11431.84150402,E,0.375,286.7,071224,3.4,W,D*25
$GNVTG,263.564,T,267.003,M,0.12248,N,0.22683,K,D*38
$GNHDT,296.8939,T*1D
$GPGGA,024753.20,2234.46300364,N,11431.84149671,E,4,21,0.8,-4.4783,M,-1.3575,M,02,0000*5D
$GPRMC,024753.20,A,2234.46300364,N,11431.84149671,E,0.122,263.6,071224,3.4,W,D*23
$GNVTG,116.945,T,120.385,M,0.17040,N,0.31559,K,D*32
$GNHDT,297.6939,T*12
$GPGGA,024753.40,2234.46299934,N,11431.84150583,E,4,21,0.8,-4.5081,M,-1.3575,M,02,0000*57
$GPRMC,024753.40,A,2234.46299934,N,11431.84150583,E,0.170,116.9,071224,3.4,W,D*24
$GNVTG,317.531,T,320.970,M,0.22576,N,0.41811,K,D*3C
$GNHDT,297.8667,T*18
$GPGGA,024753.60,2234.46300862,N,11431.84149668,E,4,21,0.8,-4.4650,M,-1.3575,M,02,0000*53
$GPRMC,024753.60,A,2234.46300862,N,11431.84149668,E,0.226,317.5,071224,3.4,W,D*24
$GNVTG,288.579,T,292.019,M,0.43383,N,0.80346,K,D*36
$GNHDT,298.0487,T*13
$GPGGA,024753.80,2234.46301633,N,11431.84147200,E,4,21,0.8,-4.4575,M,-1.3575,M,00,0000*54
$GPRMC,024753.80,A,2234.46301633,N,11431.84147200,E,0.434,288.6,071224,3.4,W,D*24
$GNVTG,283.669,T,287.108,M,0.64059,N,1.18637,K,D*38
$GNHDT,297.9656,T*1B
$GPGGA,024754.00,2234.46302476,N,11431.84143463,E,4,21,0.8,-4.4053,M,-1.3575,M,01,0000*5C
$GPRMC,024754.00,A,2234.46302476,N,11431.84143463,E,0.641,283.7,071224,3.4,W,D*26
$GNVTG,282.849,T,286.289,M,0.89089,N,1.64994,K,D*3D
$GNHDT,298.3043,T*1C
$GPGGA,024754.20,2234.46303581,N,11431.84138249,E,4,21,0.8,-4.3839,M,-1.3575,M,01,0000*57
$GPRMC,024754.20,A,2234.46303581,N,11431.84138249,E,0.891,282.8,071224,3.4,W,D*23
$GNVTG,286.513,T,289.953,M,0.90837,N,1.68230,K,D*34
$GNHDT,298.0222,T*1A
$GPGGA,024754.40,2234.46305020,N,11431.84133022,E,4,21,0.8,-4.3620,M,-1.3575,M,01,0000*5B
$GPRMC,024754.40,A,2234.46305020,N,11431.84133022,E,0.908,286.5,071224,3.4,W,D*21
$GNVTG,275.292,T,278.732,M,0.54186,N,1.00352,K,D*31
$GNHDT,297.4835,T*1D
$GPGGA,024754.60,2234.46305299,N,11431.84129783,E,4,21,0.8,-4.4006,M,-1.3575,M,01,0000*5B
$GPRMC,024754.60,A,2234.46305299,N,11431.84129783,E,0.542,275.3,071224,3.4,W,D*2C
$GNVTG,258.341,T,261.781,M,0.38158,N,0.70669,K,D*33
$GNHDT,298.2747,T*1E
$GPGGA,024754.80,2234.46304869,N,11431.84127540,E,4,21,0.8,-4.4436,M,-1.3575,M,00,0000*54
$GPRMC,024754.80,A,2234.46304869,N,11431.84127540,E,0.382,258.3,071224,3.4,W,D*20
$GNVTG,283.048,T,286.487,M,0.19664,N,0.36417,K,D*31
$GNHDT,298.3340,T*1C
$GPGGA,024755.00,2234.46305116,N,11431.84126390,E,4,21,0.8,-4.4891,M,-1.3575,M,01,0000*57
$GPRMC,024755.00,A,2234.46305116,N,11431.84126390,E,0.197,283.0,071224,3.4,W,D*20
$GNVTG,153.064,T,156.504,M,0.07560,N,0.14001,K,D*3E
$GNHDT,299.4859,T*19
$GPGGA,024755.20,2234.46304741,N,11431.84126595,E,4,21,0.8,-4.5624,M,-1.3575,M,01,0000*52
$GPRMC,024755.20,A,2234.46304741,N,11431.84126595,E,0.076,153.1,071224,3.4,W,D*25
$GNVTG,329.233,T,332.673,M,0.08705,N,0.16121,K,D*3D
$GNHDT,300.0351,T*1F
$GPGGA,024755.40,2234.46305158,N,11431.84126328,E,4,20,0.8,-4.6282,M,-1.3575,M,01,0000*51
$GPRMC,024755.40,A,2234.46305158,N,11431.84126328,E,0.087,329.2,071224,3.4,W,D*2E
$GNVTG,301.113,T,304.553,M,0.16590,N,0.30724,K,D*34
$GNHDT,300.4509,T*10
$GPGGA,024755.60,2234.46305636,N,11431.84125475,E,4,20,0.8,-4.6046,M,-1.3575,M,01,0000*5A
$GPRMC,024755.60,A,2234.46305636,N,11431.84125475,E,0.166,301.1,071224,3.4,W,D*28
$GNVTG,302.243,T,305.683,M,0.26955,N,0.49921,K,D*3D
$GNHDT,300.2920,T*11
$GPGGA,024755.80,2234.46306437,N,11431.84124107,E,4,20,0.8,-4.6094,M,-1.3575,M,00,0000*5B
$GPRMC,024755.80,A,2234.46306437,N,11431.84124107,E,0.270,302.2,071224,3.4,W,D*23
$GNVTG,303.816,T,307.255,M,0.27218,N,0.50408,K,D*36
$GNHDT,300.2183,T*10
$GPGGA,024756.00,2234.46307282,N,11431.84122749,E,4,20,0.8,-4.5532,M,-1.3575,M,01,0000*58
$GPRMC,024756.00,A,2234.46307282,N,11431.84122749,E,0.272,303.8,071224,3.4,W,D*22
$GNVTG,297.795,T,301.235,M,0.32332,N,0.59879,K,D*30
$GNHDT,300.3623,T*1C
$GPGGA,024756.20,2234.46308122,N,11431.84121032,E,4,21,0.8,-4.4961,M,-1.3575,M,01,0000*5E
$GPRMC,024756.20,A,2234.46308122,N,11431.84121032,E,0.323,297.8,071224,3.4,W,D*27
$GNVTG,304.390,T,307.829,M,0.31489,N,0.58318,K,D*32
$GNHDT,300.4201,T*1F
$GPGGA,024756.40,2234.46309114,N,11431.84119473,E,4,21,0.8,-4.5124,M,-1.3575,M,01,0000*5E
$GPRMC,024756.40,A,2234.46309114,N,11431.84119473,E,0.315,304.4,071224,3.4,W,D*2D
$GNVTG,302.367,T,305.806,M,0.16944,N,0.31380,K,D*34
$GNHDT,300.7870,T*10
$GPGGA,024756.60,2234.46309619,N,11431.84118614,E,4,21,0.8,-4.4856,M,-1.3575,M,00,0000*58
$GPRMC,024756.60,A,2234.46309619,N,11431.84118614,E,0.169,302.4,071224,3.4,W,D*28
$GNVTG,303.702,T,307.142,M,0.25976,N,0.48108,K,D*34
$GNHDT,300.8298,T*13
$GPGGA,024756.80,2234.46310423,N,11431.84117316,E,4,21,0.8,-4.4824,M,-1.3575,M,00,0000*58
$GPRMC,024756.80,A,2234.46310423,N,11431.84117316,E,0.260,303.7,071224,3.4,W,D*25
$GNVTG,288.536,T,291.975,M,0.44524,N,0.82458,K,D*3B
$GNHDT,301.1243,T*1D
$GPGGA,024757.00,2234.46311212,N,11431.84114782,E,4,21,0.8,-4.4543,M,-1.3575,M,01,0000*53
$GPRMC,024757.00,A,2234.46311212,N,11431.84114782,E,0.445,288.5,071224,3.4,W,D*22
$GNVTG,272.008,T,275.448,M,0.46397,N,0.85928,K,D*3E
$GNHDT,301.3709,T*14
$GPGGA,024757.20,2234.46311303,N,11431.84111999,E,4,21,0.8,-4.4501,M,-1.3575,M,01,0000*57
$GPRMC,024757.20,A,2234.46311303,N,11431.84111999,E,0.464,272.0,071224,3.4,W,D*23
$GNVTG,284.467,T,287.906,M,0.71060,N,1.31603,K,D*37
$GNHDT,301.2167,T*1B
$GPGGA,024757.40,2234.46312292,N,11431.84107869,E,4,20,0.8,-4.4365,M,-1.3575,M,01,0000*57
$GPRMC,024757.40,A,2234.46312292,N,11431.84107869,E,0.711,284.5,071224,3.4,W,D*2B
$GNVTG,280.566,T,284.006,M,0.72474,N,1.34223,K,D*38
$GNHDT,301.5484,T*14
$GPGGA,024757.60,2234.46313033,N,11431.84103592,E,4,20,0.8,-4.4046,M,-1.3575,M,00,0000*53
$GPRMC,024757.60,A,2234.46313033,N,11431.84103592,E,0.725,280.6,071224,3.4,W,D*2C
$GNVTG,282.410,T,285.849,M,0.63793,N,1.18144,K,D*3E
$GNHDT,301.8569,T*1B
$GPGGA,024757.80,2234.46313797,N,11431.84099852,E,4,20,0.8,-4.4418,M,-1.3575,M,00,0000*58
$GPRMC,024757.80,A,2234.46313797,N,11431.84099852,E,0.638,282.4,071224,3.4,W,D*25
$GNVTG,289.252,T,292.692,M,0.47323,N,0.87643,K,D*35
$GNHDT,302.0450,T*1B
$GPGGA,024758.00,2234.46314667,N,11431.84097170,E,4,20,0.8,-4.4874,M,-1.3575,M,01,0000*56
$GPRMC,024758.00,A,2234.46314667,N,11431.84097170,E,0.473,289.3,071224,3.4,W,D*2D
$GNVTG,293.903,T,297.343,M,0.49371,N,0.91435,K,D*30
$GNHDT,302.2098,T*19
$GPGGA,024758.20,2234.46315782,N,11431.84094461,E,4,20,0.8,-4.4924,M,-1.3575,M,01,0000*5D
$GPRMC,024758.20,A,2234.46315782,N,11431.84094461,E,0.494,293.9,071224,3.4,W,D*2A
$GNVTG,300.815,T,304.254,M,0.26198,N,0.48519,K,D*36
$GNHDT,302.8730,T*16
$GPGGA,024758.40,2234.46316531,N,11431.84093110,E,4,21,0.8,-4.4974,M,-1.3575,M,01,0000*52
$GPRMC,024758.40,A,2234.46316531,N,11431.84093110,E,0.262,300.8,071224,3.4,W,D*24
$GNVTG,289.678,T,293.117,M,0.19620,N,0.36337,K,D*33
$GNHDT,303.7177,T*1D
$GPGGA,024758.60,2234.46316899,N,11431.84092001,E,4,21,0.8,-4.4813,M,-1.3575,M,00,0000*5E
$GPRMC,024758.60,A,2234.46316899,N,11431.84092001,E,0.196,289.7,071224,3.4,W,D*2E
$GNVTG,324.378,T,327.818,M,0.37812,N,0.70027,K,D*3B
$GNHDT,303.5065,T*1D
$GPGGA,024758.80,2234.46318612,N,11431.84090679,E,4,21,0.8,-4.5068,M,-1.3575,M,00,0000*5D
$GPRMC,024758.80,A,2234.46318612,N,11431.84090679,E,0.378,324.4,071224,3.4,W,D*2F
$GNVTG,301.223,T,304.662,M,0.33616,N,0.62256,K,D*38
$GNHDT,303.8975,T*18
$GPGGA,024759.00,2234.46319584,N,11431.84088953,E,4,21,0.8,-4.4654,M,-1.3576,M,01,0000*5D
$GPRMC,024759.00,A,2234.46319584,N,11431.84088953,E,0.336,301.2,071224,3.4,W,D*2E
$GNVTG,311.311,T,314.751,M,0.23166,N,0.42904,K,D*36
$GNHDT,304.0979,T*1B
$GPGGA,024759.20,2234.46320436,N,11431.84087909,E,4,21,0.8,-4.4448,M,-1.3576,M,01,0000*52
$GPRMC,024759.20,A,2234.46320436,N,11431.84087909,E,0.232,311.3,071224,3.4,W,D*2B
$GNVTG,288.800,T,292.239,M,0.24107,N,0.44645,K,D*34
$GNHDT,304.0466,T*18
$GPGGA,024759.40,2234.46320869,N,11431.84086539,E,4,21,0.8,-4.4646,M,-1.3576,M,01,0000*50
$GPRMC,024759.40,A,2234.46320869,N,11431.84086539,E,0.241,288.8,071224,3.4,W,D*2B
$GNVTG,297.187,T,300.626,M,0.41829,N,0.77468,K,D*37
$GNHDT,304.1068,T*13
$GPGGA,024759.60,2234.46321935,N,11431.84084306,E,4,21,0.8,-4.4360,M,-1.3576,M,00,0000*53
$GPRMC,024759.60,A,2234.46321935,N,11431.84084306,E,0.418,297.2,071224,3.4,W,D*26
$GNVTG,291.646,T,295.086,M,0.49133,N,0.90994,K,D*37
$GNHDT,304.1303,T*1D
$GPGGA,024759.80,2234.46322945,N,11431.84081564,E,4,20,0.8,-4.4448,M,-1.3576,M,00,0000*52
$GPRMC,024759.80,A,2234.46322945,N,11431.84081564,E,0.491,291.6,071224,3.4,W,D*28
$GNVTG,286.499,T,289.938,M,0.51516,N,0.95408,K,D*37
$GNHDT,304.4717,T*19
$GPGGA,024800.00,2234.46323761,N,11431.84078599,E,4,20,0.8,-4.4442,M,-1.3576,M,01,0000*5F
$GPRMC,024800.00,A,2234.46323761,N,11431.84078599,E,0.515,286.5,071224,3.4,W,D*26
$GNVTG,290.807,T,294.246,M,0.55416,N,1.02630,K,D*36
$GNHDT,304.3661,T*1E
$GPGGA,024800.20,2234.46324858,N,11431.84075490,E,4,20,0.8,-4.4486,M,-1.3576,M,01,0000*52
$GPRMC,024800.20,A,2234.46324858,N,11431.84075490,E,0.554,290.8,071224,3.4,W,D*2C
$GNVTG,293.469,T,296.909,M,0.71376,N,1.32188,K,D*33
$GNHDT,304.9413,T*13
$GPGGA,024800.40,2234.46326443,N,11431.84071559,E,4,19,0.8,-4.3339,M,-1.3576,M,01,0000*5E
$GPRMC,024800.40,A,2234.46326443,N,11431.84071559,E,0.714,293.5,071224,3.4,W,D*26
$GNVTG,289.251,T,292.690,M,0.58316,N,1.08001,K,D*3A
$GNHDT,305.3078,T*11
$GPGGA,024800.60,2234.46327515,N,11431.84068255,E,4,19,0.8,-4.3255,M,-1.3576,M,00,0000*56
$GPRMC,024800.60,A,2234.46327515,N,11431.84068255,E,0.583,289.3,071224,3.4,W,D*25
$GNVTG,283.913,T,287.353,M,0.46734,N,0.86551,K,D*3F
$GNHDT,305.6947,T*11
$GPGGA,024800.80,2234.46328141,N,11431.84065532,E,4,20,0.8,-4.3725,M,-1.3576,M,00,0000*51
$GPRMC,024800.80,A,2234.46328141,N,11431.84065532,E,0.467,283.9,071224,3.4,W,D*21
$GNVTG,296.370,T,299.810,M,0.45950,N,0.85100,K,D*3B
$GNHDT,306.2852,T*13
$GPGGA,024801.00,2234.46329279,N,11431.84063060,E,4,20,0.8,-4.3393,M,-1.3576,M,01,0000*5D
$GPRMC,024801.00,A,2234.46329279,N,11431.84063060,E,0.460,296.4,071224,3.4,W,D*2B
$GNVTG,296.014,T,299.453,M,0.24415,N,0.45216,K,D*32
$GNHDT,306.8378,T*1A
$GPGGA,024801.20,2234.46329876,N,11431.84061743,E,4,21,0.8,-4.4089,M,-1.3576,M,01,0000*50
$GPRMC,024801.20,A,2234.46329876,N,11431.84061743,E,0.244,296.0,071224,3.4,W,D*2C
$GNVTG,327.120,T,330.560,M,0.22018,N,0.40777,K,D*34
$GNHDT,307.2955,T*14
$GPGGA,024801.40,2234.46330907,N,11431.84061026,E,4,21,0.8,-4.4408,M,-1.3576,M,01,0000*50
$GPRMC,024801.40,A,2234.46330907,N,11431.84061026,E,0.220,327.1,071224,3.4,W,D*29
$GNVTG,329.449,T,332.888,M,0.26180,N,0.48485,K,D*3B
$GNHDT,307.4884,T*1F
$GPGGA,024801.60,2234.46332164,N,11431.84060227,E,4,21,0.8,-4.4684,M,-1.3576,M,00,0000*58
$GPRMC,024801.60,A,2234.46332164,N,11431.84060227,E,0.262,329.4,071224,3.4,W,D*2B
$GNVTG,316.805,T,320.244,M,0.23820,N,0.44114,K,D*3D
$GNHDT,307.6942,T*16
$GPGGA,024801.80,2234.46333132,N,11431.84059248,E,4,21,0.8,-4.4333,M,-1.3576,M,00,0000*5E
$GPRMC,024801.80,A,2234.46333132,N,11431.84059248,E,0.238,316.8,071224,3.4,W,D*2B
$GNVTG,310.239,T,313.679,M,0.48090,N,0.89062,K,D*3B
$GNHDT,307.8707,T*17
$GPGGA,024802.00,2234.46334863,N,11431.84057045,E,4,21,0.8,-4.4112,M,-1.3576,M,01,0000*5E
$GPRMC,024802.00,A,2234.46334863,N,11431.84057045,E,0.481,310.2,071224,3.4,W,D*23
$GNVTG,297.903,T,301.343,M,0.41358,N,0.76595,K,D*3B
$GNHDT,308.1815,T*1D
$GPGGA,024802.20,2234.46335942,N,11431.84054851,E,4,21,0.8,-4.3404,M,-1.3576,M,01,0000*54
$GPRMC,024802.20,A,2234.46335942,N,11431.84054851,E,0.414,297.9,071224,3.4,W,D*25
$GNVTG,291.319,T,294.758,M,0.57014,N,1.05591,K,D*32
$GNHDT,308.0760,T*11
$GPGGA,024802.40,2234.46337098,N,11431.84051662,E,4,21,0.8,-4.3335,M,-1.3576,M,01,0000*50
$GPRMC,024802.40,A,2234.46337098,N,11431.84051662,E,0.570,291.3,071224,3.4,W,D*2B
$GNVTG,290.005,T,293.445,M,0.62339,N,1.15452,K,D*30
$GNHDT,308.1218,T*1A
$GPGGA,024802.60,2234.46338287,N,11431.84048146,E,4,21,0.8,-4.2891,M,-1.3576,M,01,0000*5C
$GPRMC,024802.60,A,2234.46338287,N,11431.84048146,E,0.623,290.0,071224,3.4,W,D*24
$GNVTG,286.912,T,290.351,M,0.55742,N,1.03234,K,D*34
$GNHDT,308.0129,T*1A
$GPGGA,024802.80,2234.46339191,N,11431.84044945,E,4,21,0.8,-4.2739,M,-1.3576,M,01,0000*5D
$GPRMC,024802.80,A,2234.46339191,N,11431.84044945,E,0.557,286.9,071224,3.4,W,D*26
$GNVTG,281.673,T,285.113,M,0.41238,N,0.76373,K,D*37
$GNHDT,307.7346,T*19
$GPGGA,024803.00,2234.46339656,N,11431.84042520,E,4,21,0.8,-4.3308,M,-1.3576,M,02,0000*55
$GPRMC,024803.00,A,2234.46339656,N,11431.84042520,E,0.412,281.7,071224,3.4,W,D*23
$GNVTG,276.499,T,279.938,M,0.32697,N,0.60554,K,D*3A
$GNHDT,308.2032,T*13
$GPGGA,024803.20,2234.46339862,N,11431.84040570,E,4,21,0.8,-4.4073,M,-1.3576,M,02,0000*51
$GPRMC,024803.20,A,2234.46339862,N,11431.84040570,E,0.327,276.5,071224,3.4,W,D*24
$GNVTG,292.572,T,296.012,M,0.25586,N,0.47386,K,D*3D
$GNHDT,308.6808,T*16
$GPGGA,024803.40,2234.46340410,N,11431.84039152,E,4,20,0.8,-4.4886,M,-1.3576,M,02,0000*59
$GPRMC,024803.40,A,2234.46340410,N,11431.84039152,E,0.256,292.6,071224,3.4,W,D*21
$GNVTG,276.287,T,279.727,M,0.19496,N,0.36106,K,D*39
$GNHDT,309.1244,T*12
$GPGGA,024803.60,2234.46340529,N,11431.84037989,E,4,20,0.8,-4.5414,M,-1.3576,M,00,0000*54
$GPRMC,024803.60,A,2234.46340529,N,11431.84037989,E,0.195,276.3,071224,3.4,W,D*2B
$GNVTG,289.886,T,293.326,M,0.18273,N,0.33842,K,D*33
$GNHDT,309.9758,T*12
$GPGGA,024803.80,2234.46340875,N,11431.84036957,E,4,20,0.8,-4.5789,M,-1.3576,M,00,0000*5B
$GPRMC,024803.80,A,2234.46340875,N,11431.84036957,E,0.183,289.9,071224,3.4,W,D*2E
$GNVTG,293.804,T,297.244,M,0.31916,N,0.59108,K,D*3B
$GNHDT,310.8297,T*1D
$GPGGA,024804.00,2234.46341593,N,11431.84035205,E,4,20,0.8,-4.5628,M,-1.3576,M,01,0000*54
$GPRMC,024804.00,A,2234.46341593,N,11431.84035205,E,0.319,293.8,071224,3.4,W,D*21
$GNVTG,318.926,T,322.365,M,0.52741,N,0.97677,K,D*31
$GNHDT,310.5089,T*1D
$GPGGA,024804.20,2234.46343810,N,11431.84033124,E,4,20,0.8,-4.4701,M,-1.3576,M,01,0000*5F
$GPRMC,024804.20,A,2234.46343810,N,11431.84033124,E,0.527,318.9,071224,3.4,W,D*29
$GNVTG,323.618,T,327.057,M,0.42966,N,0.79573,K,D*31
$GNHDT,310.6431,T*19
$GPGGA,024804.40,2234.46345738,N,11431.84031595,E,4,22,0.7,-4.3966,M,-1.3576,M,01,0000*53
$GPRMC,024804.40,A,2234.46345738,N,11431.84031595,E,0.430,323.6,071224,3.4,W,D*20
$GNVTG,314.728,T,318.168,M,0.23040,N,0.42671,K,D*35
$GNHDT,310.6103,T*1D
$GPGGA,024804.60,2234.46346642,N,11431.84030612,E,4,22,0.7,-4.3706,M,-1.3576,M,00,0000*5A
$GPRMC,024804.60,A,2234.46346642,N,11431.84030612,E,0.230,314.7,071224,3.4,W,D*23
$GNVTG,310.002,T,313.441,M,0.15842,N,0.29340,K,D*3E
$GNHDT,310.8326,T*16
$GPGGA,024804.80,2234.46347210,N,11431.84029883,E,4,22,0.7,-4.3383,M,-1.3576,M,00,0000*51
$GPRMC,024804.80,A,2234.46347210,N,11431.84029883,E,0.158,310.0,071224,3.4,W,D*2F
$GNVTG,320.084,T,323.523,M,0.33700,N,0.62412,K,D*37
$GNHDT,310.5516,T*1E
$GPGGA,024805.00,2234.46348651,N,11431.84028585,E,4,21,0.8,-4.3378,M,-1.3576,M,01,0000*55
$GPRMC,024805.00,A,2234.46348651,N,11431.84028585,E,0.337,320.1,071224,3.4,W,D*2B
$GNVTG,283.262,T,286.702,M,0.29557,N,0.54739,K,D*3E
$GNHDT,310.8499,T*15
$GPGGA,024805.20,2234.46349029,N,11431.84026858,E,4,21,0.8,-4.3965,M,-1.3576,M,01,0000*5A
$GPRMC,024805.20,A,2234.46349029,N,11431.84026858,E,0.296,283.3,071224,3.4,W,D*22
$GNVTG,277.626,T,281.065,M,0.26608,N,0.49278,K,D*3A
$GNHDT,310.6361,T*1B
$GPGGA,024805.40,2234.46349226,N,11431.84025275,E,4,21,0.8,-4.4540,M,-1.3576,M,01,0000*5B
$GPRMC,024805.40,A,2234.46349226,N,11431.84025275,E,0.266,277.6,071224,3.4,W,D*2E
$GNVTG,287.598,T,291.038,M,0.41298,N,0.76485,K,D*3E
$GNHDT,311.2265,T*1B
$GPGGA,024805.60,2234.46349922,N,11431.84022912,E,4,21,0.8,-4.4900,M,-1.3576,M,00,0000*52
$GPRMC,024805.60,A,2234.46349922,N,11431.84022912,E,0.413,287.6,071224,3.4,W,D*25
$GNVTG,290.315,T,293.755,M,0.41365,N,0.76609,K,D*30
$GNHDT,311.3951,T*16
$GPGGA,024805.80,2234.46350722,N,11431.84020584,E,4,21,0.8,-4.5139,M,-1.3576,M,00,0000*58
$GPRMC,024805.80,A,2234.46350722,N,11431.84020584,E,0.414,290.3,071224,3.4,W,D*28
$GNVTG,293.761,T,297.201,M,0.30891,N,0.57209,K,D*35
$GNHDT,312.1575,T*1D
$GPGGA,024806.00,2234.46351416,N,11431.84018887,E,4,21,0.8,-4.4826,M,-1.3576,M,01,0000*54
$GPRMC,024806.00,A,2234.46351416,N,11431.84018887,E,0.309,293.8,071224,3.4,W,D*20
$GNVTG,309.236,T,312.676,M,0.13687,N,0.25349,K,D*30
$GNHDT,312.3821,T*13
$GPGGA,024806.20,2234.46351899,N,11431.84018250,E,4,21,0.8,-4.4641,M,-1.3576,M,01,0000*52
$GPRMC,024806.20,A,2234.46351899,N,11431.84018250,E,0.137,309.2,071224,3.4,W,D*2E
$GNVTG,314.768,T,318.207,M,0.38930,N,0.72098,K,D*3D
$GNHDT,313.2854,T*11
$GPGGA,024806.40,2234.46353427,N,11431.84016591,E,4,21,0.8,-4.4254,M,-1.3576,M,01,0000*5B
$GPRMC,024806.40,A,2234.46353427,N,11431.84016591,E,0.389,314.8,071224,3.4,W,D*26
$GNVTG,305.341,T,308.780,M,0.42817,N,0.79297,K,D*36
$GNHDT,313.1974,T*11
$GPGGA,024806.60,2234.46354808,N,11431.84014495,E,4,21,0.8,-4.3950,M,-1.3576,M,00,0000*51
$GPRMC,024806.60,A,2234.46354808,N,11431.84014495,E,0.428,305.3,071224,3.4,W,D*22
$GNVTG,304.707,T,308.146,M,0.48242,N,0.89345,K,D*3C
$GNHDT,313.2593,T*17
$GPGGA,024806.80,2234.46356339,N,11431.84012114,E,4,21,0.8,-4.3548,M,-1.3576,M,00,0000*5B
$GPRMC,024806.80,A,2234.46356339,N,11431.84012114,E,0.482,304.7,071224,3.4,W,D*28
$GNVTG,295.553,T,298.992,M,0.43182,N,0.79974,K,D*3C
$GNHDT,313.2125,T*1E
$GPGGA,024807.00,2234.46357377,N,11431.84009775,E,4,21,0.8,-4.3465,M,-1.3576,M,01,0000*5D
$GPRMC,024807.00,A,2234.46357377,N,11431.84009775,E,0.432,295.6,071224,3.4,W,D*22
$GNVTG,301.647,T,305.086,M,0.57038,N,1.05634,K,D*3B
$GNHDT,313.4175,T*1D
$GPGGA,024807.20,2234.46359046,N,11431.84006861,E,4,21,0.8,-4.3309,M,-1.3576,M,01,0000*58
$GPRMC,024807.20,A,2234.46359046,N,11431.84006861,E,0.570,301.6,071224,3.4,W,D*21
$GNVTG,294.812,T,298.252,M,0.31356,N,0.58072,K,D*30
$GNHDT,313.8487,T*19
$GPGGA,024807.40,2234.46359779,N,11431.84005152,E,4,22,0.7,-4.3880,M,-1.3576,M,01,0000*59
$GPRMC,024807.40,A,2234.46359779,N,11431.84005152,E,0.314,294.8,071224,3.4,W,D*21
$GNVTG,293.010,T,296.450,M,0.26971,N,0.49950,K,D*37
$GNHDT,314.3861,T*11
$GPGGA,024807.60,2234.46360367,N,11431.84003662,E,4,22,0.7,-4.4301,M,-1.3576,M,00,0000*5C
$GPRMC,024807.60,A,2234.46360367,N,11431.84003662,E,0.270,293.0,071224,3.4,W,D*2C
$GNVTG,294.357,T,297.796,M,0.35811,N,0.66322,K,D*3F
$GNHDT,314.7976,T*12
$GPGGA,024807.80,2234.46361190,N,11431.84001704,E,4,21,0.8,-4.4355,M,-1.3576,M,00,0000*57
$GPRMC,024807.80,A,2234.46361190,N,11431.84001704,E,0.358,294.4,071224,3.4,W,D*22
$GNVTG,291.877,T,295.316,M,0.38110,N,0.70579,K,D*37
$GNHDT,315.4070,T*1F
$GPGGA,024808.00,2234.46361982,N,11431.83999581,E,4,21,0.8,-4.4083,M,-1.3576,M,01,0000*52
$GPRMC,024808.00,A,2234.46361982,N,11431.83999581,E,0.381,291.9,071224,3.4,W,D*22
$GNVTG,295.914,T,299.354,M,0.55917,N,1.03558,K,D*3F
$GNHDT,315.4477,T*1C
$GPGGA,024808.20,2234.46363344,N,11431.83996562,E,4,21,0.8,-4.3597,M,-1.3576,M,01,0000*57
$GPRMC,024808.20,A,2234.46363344,N,11431.83996562,E,0.559,295.9,071224,3.4,W,D*27
$GNVTG,312.015,T,315.454,M,0.45856,N,0.84925,K,D*36
$GNHDT,315.4745,T*1E
$GPGGA,024808.40,2234.46365055,N,11431.83994516,E,4,21,0.8,-4.3813,M,-1.3576,M,01,0000*54
$GPRMC,024808.40,A,2234.46365055,N,11431.83994516,E,0.459,312.0,071224,3.4,W,D*23
$GNVTG,290.934,T,294.373,M,0.48334,N,0.89515,K,D*3D
$GNHDT,315.7527,T*1B
$GPGGA,024808.60,2234.46366018,N,11431.83991807,E,4,22,0.7,-4.3679,M,-1.3576,M,00,0000*5B
$GPRMC,024808.60,A,2234.46366018,N,11431.83991807,E,0.483,290.9,071224,3.4,W,D*26
$GNVTG,303.044,T,306.484,M,0.39779,N,0.73670,K,D*33
$GNHDT,315.8207,T*11
$GPGGA,024808.80,2234.46367227,N,11431.83989805,E,4,22,0.7,-4.3921,M,-1.3576,M,00,0000*53
$GPRMC,024808.80,A,2234.46367227,N,11431.83989805,E,0.398,303.0,071224,3.4,W,D*23
$GNVTG,298.384,T,301.823,M,0.50831,N,0.94138,K,D*37
$GNHDT,316.1353,T*1B
$GPGGA,024809.00,2234.46368574,N,11431.83987121,E,4,21,0.8,-4.4039,M,-1.3576,M,01,0000*5F
$GPRMC,024809.00,A,2234.46368574,N,11431.83987121,E,0.508,298.4,071224,3.4,W,D*2D
$GNVTG,297.752,T,301.191,M,0.56119,N,1.03932,K,D*3F
$GNHDT,316.5348,T*15
$GPGGA,024809.20,2234.46370031,N,11431.83984139,E,4,21,0.8,-4.4058,M,-1.3576,M,01,0000*5D
$GPRMC,024809.20,A,2234.46370031,N,11431.83984139,E,0.561,297.8,071224,3.4,W,D*24
$GNVTG,263.587,T,267.027,M,0.43840,N,0.81191,K,D*38
$GNHDT,317.2192,T*16
$GPGGA,024809.40,2234.46369758,N,11431.83981524,E,4,20,0.8,-4.4259,M,-1.3576,M,01,0000*54
$GPRMC,024809.40,A,2234.46369758,N,11431.83981524,E,0.438,263.6,071224,3.4,W,D*27
$GNVTG,293.152,T,296.592,M,0.47615,N,0.88183,K,D*3E
$GNHDT,317.7036,T*1C
$GPGGA,024809.60,2234.46370802,N,11431.83978896,E,4,20,0.8,-4.4499,M,-1.3576,M,00,0000*57
$GPRMC,024809.60,A,2234.46370802,N,11431.83978896,E,0.476,293.2,071224,3.4,W,D*2E
$GNVTG,278.681,T,282.121,M,0.29499,N,0.54633,K,D*38
$GNHDT,318.1872,T*1D
$GPGGA,024809.80,2234.46371050,N,11431.83977146,E,4,20,0.8,-4.4504,M,-1.3576,M,00,0000*59
$GPRMC,024809.80,A,2234.46371050,N,11431.83977146,E,0.295,278.7,071224,3.4,W,D*2E
$GNVTG,300.480,T,303.920,M,0.24433,N,0.45249,K,D*30
$GNHDT,318.5620,T*10
$GPGGA,024810.00,2234.46371741,N,11431.83975882,E,4,20,0.8,-4.4783,M,-1.3576,M,01,0000*51
$GPRMC,024810.00,A,2234.46371741,N,11431.83975882,E,0.244,300.5,071224,3.4,W,D*2A
$GNVTG,309.281,T,312.720,M,0.39975,N,0.74033,K,D*3E
$GNHDT,318.9356,T*18
$GPGGA,024810.20,2234.46373152,N,11431.83974024,E,4,20,0.8,-4.4197,M,-1.3576,M,01,0000*53
$GPRMC,024810.20,A,2234.46373152,N,11431.83974024,E,0.400,309.3,071224,3.4,W,D*22
$GNVTG,301.386,T,304.825,M,0.22550,N,0.41763,K,D*38
$GNHDT,319.2512,T*14
$GPGGA,024810.40,2234.46373806,N,11431.83972869,E,4,21,0.8,-4.4571,M,-1.3576,M,01,0000*57
$GPRMC,024810.40,A,2234.46373806,N,11431.83972869,E,0.226,301.4,071224,3.4,W,D*26
$GNVTG,309.534,T,312.974,M,0.47084,N,0.87200,K,D*38
$GNHDT,319.2789,T*14
$GPGGA,024810.60,2234.46375477,N,11431.83970689,E,4,20,0.8,-4.4174,M,-1.3576,M,00,0000*5A
$GPRMC,024810.60,A,2234.46375477,N,11431.83970689,E,0.471,309.5,071224,3.4,W,D*27
$GNVTG,304.090,T,307.529,M,0.54280,N,1.00526,K,D*37
$GNHDT,320.0553,T*19
$GPGGA,024810.80,2234.46377173,N,11431.83967991,E,4,20,0.8,-4.4006,M,-1.3576,M,00,0000*53
$GPRMC,024810.80,A,2234.46377173,N,11431.83967991,E,0.543,304.1,071224,3.4,W,D*23
$GNVTG,302.320,T,305.759,M,0.35499,N,0.65745,K,D*32
$GNHDT,320.4913,T*15
$GPGGA,024811.00,2234.46378231,N,11431.83966190,E,4,20,0.8,-4.4144,M,-1.3576,M,01,0000*5E
$GPRMC,024811.00,A,2234.46378231,N,11431.83966190,E,0.355,302.3,071224,3.4,W,D*2D
$GNVTG,309.409,T,312.849,M,0.50312,N,0.93178,K,D*3B
$GNHDT,320.5412,T*18
$GPGGA,024811.20,2234.46380012,N,11431.83963856,E,4,20,0.8,-4.3958,M,-1.3576,M,01,0000*5C
$GPRMC,024811.20,A,2234.46380012,N,11431.83963856,E,0.503,309.4,071224,3.4,W,D*24
$GNVTG,294.623,T,298.063,M,0.48334,N,0.89515,K,D*3E
$GNHDT,321.2544,T*1C
$GPGGA,024811.40,2234.46381135,N,11431.83961219,E,4,20,0.8,-4.4221,M,-1.3576,M,01,0000*5E
$GPRMC,024811.40,A,2234.46381135,N,11431.83961219,E,0.483,294.6,071224,3.4,W,D*2A
$GNVTG,274.266,T,277.705,M,0.14233,N,0.26359,K,D*37
$GNHDT,321.7393,T*15
$GPGGA,024811.60,2234.46381194,N,11431.83960367,E,4,21,0.8,-4.4359,M,-1.3576,M,00,0000*50
$GPRMC,024811.60,A,2234.46381194,N,11431.83960367,E,0.142,274.3,071224,3.4,W,D*29
$GNVTG,304.718,T,308.158,M,0.28862,N,0.53452,K,D*35
$GNHDT,322.1393,T*10
$GPGGA,024811.80,2234.46382110,N,11431.83958943,E,4,20,0.8,-4.4628,M,-1.3576,M,00,0000*54
$GPRMC,024811.80,A,2234.46382110,N,11431.83958943,E,0.289,304.7,071224,3.4,W,D*29
$GNVTG,307.939,T,311.379,M,0.19934,N,0.36918,K,D*32
$GNHDT,322.6726,T*1D
$GPGGA,024812.00,2234.46382793,N,11431.83957999,E,4,20,0.8,-4.4808,M,-1.3576,M,01,0000*57
$GPRMC,024812.00,A,2234.46382793,N,11431.83957999,E,0.199,307.9,071224,3.4,W,D*28
$GNVTG,305.958,T,309.398,M,0.26889,N,0.49799,K,D*35
$GNHDT,323.4556,T*1B
$GPGGA,024812.20,2234.46383673,N,11431.83956692,E,4,20,0.8,-4.5256,M,-1.3576,M,01,0000*5E
$GPRMC,024812.20,A,2234.46383673,N,11431.83956692,E,0.269,306.0,071224,3.4,W,D*25
$GNVTG,286.066,T,289.506,M,0.24737,N,0.45813,K,D*3A
$GNHDT,323.6662,T*1D
$GPGGA,024812.40,2234.46384055,N,11431.83955265,E,4,20,0.8,-4.5262,M,-1.3576,M,01,0000*55
$GPRMC,024812.40,A,2234.46384055,N,11431.83955265,E,0.247,286.1,071224,3.4,W,D*2D
$GNVTG,314.407,T,317.846,M,0.49411,N,0.91509,K,D*3F
$GNHDT,323.6223,T*1C
$GPGGA,024812.60,2234.46385983,N,11431.83953147,E,4,20,0.8,-4.5293,M,-1.3576,M,01,0000*5F
$GPRMC,024812.60,A,2234.46385983,N,11431.83953147,E,0.494,314.4,071224,3.4,W,D*2E
$GNVTG,304.994,T,308.433,M,0.44872,N,0.83103,K,D*30
$GNHDT,324.2390,T*16
$GPGGA,024812.80,2234.46387417,N,11431.83950940,E,4,20,0.8,-4.4983,M,-1.3577,M,00,0000*54
$GPRMC,024812.80,A,2234.46387417,N,11431.83950940,E,0.449,305.0,071224,3.4,W,D*2A
$GNVTG,318.455,T,321.894,M,0.41400,N,0.76672,K,D*30
$GNHDT,324.4585,T*12
$GPGGA,024813.00,2234.46389144,N,11431.83949292,E,4,20,0.8,-4.4520,M,-1.3577,M,01,0000*58
$GPRMC,024813.00,A,2234.46389144,N,11431.83949292,E,0.414,318.5,071224,3.4,W,D*23
$GNVTG,326.031,T,329.470,M,0.39226,N,0.72646,K,D*3B
$GNHDT,325.5038,T*11
$GPGGA,024813.20,2234.46390958,N,11431.83947976,E,4,20,0.8,-4.4585,M,-1.3577,M,01,0000*57
$GPRMC,024813.20,A,2234.46390958,N,11431.83947976,E,0.392,326.0,071224,3.4,W,D*22
$GNVTG,349.983,T,353.422,M,0.09567,N,0.17718,K,D*30
$GNHDT,325.5294,T*15
$GPGGA,024813.40,2234.46391483,N,11431.83947876,E,4,21,0.8,-4.4416,M,-1.3577,M,01,0000*50
$GPRMC,024813.40,A,2234.46391483,N,11431.83947876,E,0.096,350.0,071224,3.4,W,D*29
$GNVTG,309.170,T,312.609,M,0.04911,N,0.09094,K,D*32
$GNHDT,326.5554,T*1D
$GPGGA,024813.60,2234.46391656,N,11431.83947648,E,4,21,0.8,-4.4711,M,-1.3577,M,01,0000*5F
$GPRMC,024813.60,A,2234.46391656,N,11431.83947648,E,0.049,309.2,071224,3.4,W,D*2E
$GNVTG,322.846,T,326.285,M,0.29631,N,0.54877,K,D*3F
$GNHDT,326.4356,T*18
$GPGGA,024813.80,2234.46392973,N,11431.83946573,E,4,21,0.8,-4.4686,M,-1.3577,M,01,0000*5F
$GPRMC,024813.80,A,2234.46392973,N,11431.83946573,E,0.296,322.8,071224,3.4,W,D*22
$GNVTG,305.230,T,308.669,M,0.33865,N,0.62718,K,D*3C
$GNHDT,326.7292,T*12
$GPGGA,024814.00,2234.46394062,N,11431.83944913,E,4,20,0.8,-4.4860,M,-1.3577,M,02,0000*53
$GPRMC,024814.00,A,2234.46394062,N,11431.83944913,E,0.339,305.2,071224,3.4,W,D*21
$GNVTG,308.102,T,311.542,M,0.35595,N,0.65922,K,D*35
$GNHDT,327.0598,T*19
$GPGGA,024814.20,2234.46395286,N,11431.83943232,E,4,20,0.8,-4.4828,M,-1.3577,M,02,0000*5B
$GPRMC,024814.20,A,2234.46395286,N,11431.83943232,E,0.356,308.1,071224,3.4,W,D*22
$GNVTG,307.114,T,310.553,M,0.39519,N,0.73190,K,D*32
$GNHDT,327.3652,T*1F
$GPGGA,024814.40,2234.46396615,N,11431.83941340,E,4,20,0.8,-4.5079,M,-1.3577,M,02,0000*5B
$GPRMC,024814.40,A,2234.46396615,N,11431.83941340,E,0.395,307.1,071224,3.4,W,D*2F
$GNVTG,306.184,T,309.623,M,0.25440,N,0.47115,K,D*3C
$GNHDT,327.7081,T*13
$GPGGA,024814.60,2234.46397453,N,11431.83940107,E,4,20,0.8,-4.5121,M,-1.3577,M,00,0000*56
$GPRMC,024814.60,A,2234.46397453,N,11431.83940107,E,0.254,306.2,071224,3.4,W,D*22
$GNVTG,320.672,T,324.111,M,0.21715,N,0.40217,K,D*3E
$GNHDT,328.2354,T*12
$GPGGA,024814.80,2234.46398389,N,11431.83939281,E,4,20,0.8,-4.5097,M,-1.3577,M,00,0000*58
$GPRMC,024814.80,A,2234.46398389,N,11431.83939281,E,0.217,320.7,071224,3.4,W,D*26
$GNVTG,302.327,T,305.766,M,0.25190,N,0.46653,K,D*33
$GNHDT,328.6825,T*1B
$GPGGA,024815.00,2234.46399140,N,11431.83938003,E,4,20,0.8,-4.4498,M,-1.3577,M,01,0000*55
$GPRMC,024815.00,A,2234.46399140,N,11431.83938003,E,0.252,302.3,071224,3.4,W,D*25
$GNVTG,305.273,T,308.712,M,0.38861,N,0.71970,K,D*3B
$GNHDT,329.3597,T*1B
$GPGGA,024815.20,2234.46400391,N,11431.83936099,E,4,21,0.8,-4.3907,M,-1.3577,M,01,0000*5E
$GPRMC,024815.20,A,2234.46400391,N,11431.83936099,E,0.389,305.3,071224,3.4,W,D*23
$GNVTG,314.407,T,317.846,M,0.53921,N,0.99862,K,D*32
$GNHDT,328.9092,T*10
$GPGGA,024815.40,2234.46402495,N,11431.83933787,E,4,21,0.8,-4.3568,M,-1.3577,M,01,0000*51
$GPRMC,024815.40,A,2234.46402495,N,11431.83933787,E,0.539,314.4,071224,3.4,W,D*23
$GNVTG,297.714,T,301.154,M,0.58930,N,1.09139,K,D*30
$GNHDT,329.2825,T*1E
$GPGGA,024815.60,2234.46404022,N,11431.83930655,E,4,21,0.8,-4.3153,M,-1.3577,M,00,0000*5D
$GPRMC,024815.60,A,2234.46404022,N,11431.83930655,E,0.589,297.7,071224,3.4,W,D*20
$GNVTG,305.899,T,309.339,M,0.55870,N,1.03470,K,D*3B
$GNHDT,329.1605,T*11
$GPGGA,024815.80,2234.46405849,N,11431.83927938,E,4,21,0.8,-4.3112,M,-1.3577,M,00,0000*50
$GPRMC,024815.80,A,2234.46405849,N,11431.83927938,E,0.559,305.9,071224,3.4,W,D*21
$GNVTG,287.895,T,291.334,M,0.47116,N,0.87259,K,D*3B
$GNHDT,329.6432,T*10
$GPGGA,024816.00,2234.46406656,N,11431.83925247,E,4,21,0.8,-4.3566,M,-1.3577,M,01,0000*5F
$GPRMC,024816.00,A,2234.46406656,N,11431.83925247,E,0.471,287.9,071224,3.4,W,D*28
$GNVTG,273.848,T,277.287,M,0.46864,N,0.86792,K,D*3F
$GNHDT,330.4134,T*19
$GPGGA,024816.20,2234.46406831,N,11431.83922440,E,4,21,0.8,-4.3854,M,-1.3577,M,01,0000*58
$GPRMC,024816.20,A,2234.46406831,N,11431.83922440,E,0.469,273.8,071224,3.4,W,D*20
$GNVTG,275.088,T,278.527,M,0.42833,N,0.79327,K,D*33
$GNHDT,330.8200,T*11
$GPGGA,024816.40,2234.46407043,N,11431.83919879,E,4,21,0.8,-4.3989,M,-1.3577,M,01,0000*5D
$GPRMC,024816.40,A,2234.46407043,N,11431.83919879,E,0.428,275.1,071224,3.4,W,D*2E
$GNVTG,282.792,T,286.232,M,0.56415,N,1.04480,K,D*39
$GNHDT,331.3673,T*1B
$GPGGA,024816.60,2234.46407739,N,11431.83916577,E,4,21,0.8,-4.4006,M,-1.3577,M,00,0000*51
$GPRMC,024816.60,A,2234.46407739,N,11431.83916577,E,0.564,282.8,071224,3.4,W,D*22
$GNVTG,288.805,T,292.245,M,0.62189,N,1.15174,K,D*3E
$GNHDT,331.7720,T*18
$GPGGA,024816.80,2234.46408857,N,11431.83913043,E,4,21,0.8,-4.3867,M,-1.3577,M,00,0000*58
$GPRMC,024816.80,A,2234.46408857,N,11431.83913043,E,0.622,288.8,071224,3.4,W,D*28
$GNVTG,295.967,T,299.407,M,0.54075,N,1.00147,K,D*3F
$GNHDT,331.5412,T*18
$GPGGA,024817.00,2234.46410177,N,11431.83910124,E,4,22,0.7,-4.3331,M,-1.3577,M,01,0000*55
$GPRMC,024817.00,A,2234.46410177,N,11431.83910124,E,0.541,296.0,071224,3.4,W,D*21
$GNVTG,297.171,T,300.610,M,0.59457,N,1.10114,K,D*39
$GNHDT,331.3345,T*1B
$GPGGA,024817.20,2234.46411690,N,11431.83906949,E,4,22,0.7,-4.3605,M,-1.3577,M,01,0000*5E
$GPRMC,024817.20,A,2234.46411690,N,11431.83906949,E,0.595,297.2,071224,3.4,W,D*22
$GNVTG,283.672,T,287.111,M,0.22708,N,0.42056,K,D*34
$GNHDT,331.6116,T*1A
$GPGGA,024817.40,2234.46411989,N,11431.83905625,E,4,22,0.7,-4.4481,M,-1.3577,M,01,0000*50
$GPRMC,024817.40,A,2234.46411989,N,11431.83905625,E,0.227,283.7,071224,3.4,W,D*2B
$GNVTG,302.034,T,305.473,M,0.37497,N,0.69444,K,D*3D
$GNHDT,331.9337,T*14
$GPGGA,024817.60,2234.46413098,N,11431.83903717,E,4,22,0.7,-4.4979,M,-1.3577,M,00,0000*54
$GPRMC,024817.60,A,2234.46413098,N,11431.83903717,E,0.375,302.0,071224,3.4,W,D*2D
$GNVTG,280.205,T,283.644,M,0.24230,N,0.44874,K,D*36
$GNHDT,332.6389,T*1D
$GPGGA,024817.80,2234.46413337,N,11431.83902285,E,4,22,0.7,-4.5583,M,-1.3577,M,00,0000*5B
$GPRMC,024817.80,A,2234.46413337,N,11431.83902285,E,0.242,280.2,071224,3.4,W,D*26
$GNVTG,314.908,T,318.348,M,0.32003,N,0.59269,K,D*39
$GNHDT,333.0573,T*19
$GPGGA,024818.00,2234.46414597,N,11431.83900925,E,4,22,0.7,-4.5549,M,-1.3577,M,01,0000*53
$GPRMC,024818.00,A,2234.46414597,N,11431.83900925,E,0.320,314.9,071224,3.4,W,D*2B
$GNVTG,309.331,T,312.770,M,0.33599,N,0.62225,K,D*37
$GNHDT,333.6564,T*19
$GPGGA,024818.20,2234.46415784,N,11431.83899365,E,4,22,0.7,-4.5443,M,-1.3577,M,01,0000*54
$GPRMC,024818.20,A,2234.46415784,N,11431.83899365,E,0.336,309.3,071224,3.4,W,D*26
$GNVTG,315.035,T,318.474,M,0.52638,N,0.97486,K,D*3A
$GNHDT,333.6068,T*10
$GPGGA,024818.40,2234.46417860,N,11431.83897132,E,4,22,0.7,-4.5301,M,-1.3577,M,01,0000*5A
$GPRMC,024818.40,A,2234.46417860,N,11431.83897132,E,0.526,315.0,071224,3.4,W,D*20
$GNVTG,318.023,T,321.462,M,0.47708,N,0.88356,K,D*3F
$GNHDT,333.8897,T*16
$GPGGA,024818.60,2234.46419838,N,11431.83895216,E,4,22,0.7,-4.4516,M,-1.3577,M,00,0000*5C
$GPRMC,024818.60,A,2234.46419838,N,11431.83895216,E,0.477,318.0,071224,3.4,W,D*2E
$GNVTG,304.326,T,307.765,M,0.33060,N,0.61227,K,D*3E
$GNHDT,333.8571,T*13
$GPGGA,024818.80,2234.46420877,N,11431.83893577,E,4,22,0.7,-4.4667,M,-1.3577,M,00,0000*50
$GPRMC,024818.80,A,2234.46420877,N,11431.83893577,E,0.331,304.3,071224,3.4,W,D*2C
$GNVTG,317.686,T,321.125,M,0.19772,N,0.36618,K,D*33
$GNHDT,333.7551,T*1E
$GPGGA,024819.00,2234.46421692,N,11431.83892778,E,4,22,0.7,-4.4443,M,-1.3577,M,01,0000*54
$GPRMC,024819.00,A,2234.46421692,N,11431.83892778,E,0.198,317.7,071224,3.4,W,D*2A
$GNVTG,262.992,T,266.431,M,0.20769,N,0.38464,K,D*3F
$GNHDT,334.2838,T*1E
$GPGGA,024819.20,2234.46421551,N,11431.83891541,E,4,22,0.7,-4.5133,M,-1.3577,M,01,0000*52
$GPRMC,024819.20,A,2234.46421551,N,11431.83891541,E,0.208,263.0,071224,3.4,W,D*20
$GNVTG,315.502,T,318.942,M,0.35738,N,0.66188,K,D*36
$GNHDT,334.1890,T*1F
$GPGGA,024819.40,2234.46422972,N,11431.83890037,E,4,22,0.7,-4.5374,M,-1.3577,M,01,0000*5E
$GPRMC,024819.40,A,2234.46422972,N,11431.83890037,E,0.357,315.5,071224,3.4,W,D*23
$GNVTG,307.862,T,311.302,M,0.36173,N,0.66992,K,D*30
$GNHDT,334.5356,T*1A
$GPGGA,024819.60,2234.46424209,N,11431.83888323,E,4,21,0.8,-4.5500,M,-1.3577,M,00,0000*5A
$GPRMC,024819.60,A,2234.46424209,N,11431.83888323,E,0.362,307.9,071224,3.4,W,D*26
$GNVTG,311.420,T,314.860,M,0.41624,N,0.77088,K,D*30
$GNHDT,334.5797,T*13
$GPGGA,024819.80,2234.46425744,N,11431.83886449,E,4,21,0.8,-4.5632,M,-1.3577,M,00,0000*5E
$GPRMC,024819.80,A,2234.46425744,N,11431.83886449,E,0.416,311.4,071224,3.4,W,D*2E
$GNVTG,298.924,T,302.364,M,0.21124,N,0.39121,K,D*38
$GNHDT,335.1302,T*1E
$GPGGA,024820.00,2234.46426314,N,11431.83885340,E,4,21,0.8,-4.5809,M,-1.3577,M,01,0000*54
$GPRMC,024820.00,A,2234.46426314,N,11431.83885340,E,0.211,298.9,071224,3.4,W,D*2F
$GNVTG,294.916,T,298.356,M,0.17885,N,0.33123,K,D*39
$GNHDT,335.3593,T*12
$GPGGA,024820.20,2234.46426734,N,11431.83884366,E,4,22,0.7,-4.5858,M,-1.3577,M,01,0000*5D
$GPRMC,024820.20,A,2234.46426734,N,11431.83884366,E,0.179,294.9,071224,3.4,W,D*2F
$GNVTG,299.826,T,303.265,M,0.25092,N,0.46470,K,D*3A
$GNHDT,336.1604,T*1E
$GPGGA,024820.40,2234.46427430,N,11431.83883059,E,4,22,0.7,-4.4897,M,-1.3577,M,01,0000*57
$GPRMC,024820.40,A,2234.46427430,N,11431.83883059,E,0.251,299.8,071224,3.4,W,D*22
$GNVTG,335.026,T,338.465,M,0.24240,N,0.44893,K,D*34
$GNHDT,335.3325,T*19
$GPGGA,024820.60,2234.46428655,N,11431.83882445,E,4,24,0.7,-4.4816,M,-1.3577,M,00,0000*5D
$GPRMC,024820.60,A,2234.46428655,N,11431.83882445,E,0.242,335.0,071224,3.4,W,D*2B
$GNVTG,314.718,T,318.157,M,0.45356,N,0.84000,K,D*34
$GNHDT,335.8100,T*17
$GPGGA,024820.80,2234.46430434,N,11431.83880510,E,4,24,0.7,-4.4257,M,-1.3577,M,00,0000*53
$GPRMC,024820.80,A,2234.46430434,N,11431.83880510,E,0.454,314.7,071224,3.4,W,D*2F
$GNVTG,316.757,T,320.196,M,0.57627,N,1.06725,K,D*30
$GNHDT,335.6110,T*18
$GPGGA,024821.00,2234.46432774,N,11431.83878140,E,4,24,0.7,-4.3810,M,-1.3577,M,01,0000*56
$GPRMC,024821.00,A,2234.46432774,N,11431.83878140,E,0.576,316.8,071224,3.4,W,D*29
$GNVTG,306.974,T,310.413,M,0.66723,N,1.23572,K,D*35
$GNHDT,336.2268,T*13
$GPGGA,024821.20,2234.46435011,N,11431.83874940,E,4,24,0.7,-4.3361,M,-1.3577,M,01,0000*5E
$GPRMC,024821.20,A,2234.46435011,N,11431.83874940,E,0.667,307.0,071224,3.4,W,D*27
$GNVTG,307.501,T,310.940,M,0.54051,N,1.00102,K,D*30
$GNHDT,336.0589,T*19
$GPGGA,024821.40,2234.46436846,N,11431.83872366,E,4,24,0.7,-4.3668,M,-1.3577,M,01,0000*55
$GPRMC,024821.40,A,2234.46436846,N,11431.83872366,E,0.541,307.5,071224,3.4,W,D*22
$GNVTG,291.541,T,294.980,M,0.49579,N,0.91821,K,D*39
$GNHDT,335.9909,T*17
$GPGGA,024821.60,2234.46437860,N,11431.83869598,E,4,24,0.7,-4.3552,M,-1.3577,M,00,0000*54
$GPRMC,024821.60,A,2234.46437860,N,11431.83869598,E,0.496,291.5,071224,3.4,W,D*2D
$GNVTG,275.776,T,279.216,M,0.51370,N,0.95136,K,D*3F
$GNHDT,336.9167,T*14
$GPGGA,024821.80,2234.46438149,N,11431.83866530,E,4,24,0.7,-4.3753,M,-1.3577,M,00,0000*59
$GPRMC,024821.80,A,2234.46438149,N,11431.83866530,E,0.514,275.8,071224,3.4,W,D*2F
$GNVTG,272.226,T,275.666,M,0.41065,N,0.76052,K,D*3F
$GNHDT,336.8986,T*12
$GPGGA,024822.00,2234.46438237,N,11431.83864067,E,4,24,0.7,-4.4248,M,-1.3577,M,01,0000*54
$GPRMC,024822.00,A,2234.46438237,N,11431.83864067,E,0.411,272.2,071224,3.4,W,D*22
$GNVTG,274.199,T,277.638,M,0.43645,N,0.80831,K,D*35
$GNHDT,336.7831,T*10
$GPGGA,024822.20,2234.46438416,N,11431.83861454,E,4,23,0.7,-4.4209,M,-1.3577,M,01,0000*50
$GPRMC,024822.20,A,2234.46438416,N,11431.83861454,E,0.436,274.2,071224,3.4,W,D*27
$GNVTG,305.415,T,308.854,M,0.46635,N,0.86367,K,D*32
$GNHDT,336.8293,T*1D
$GPGGA,024822.40,2234.46439922,N,11431.83859173,E,4,23,0.7,-4.5091,M,-1.3577,M,01,0000*54
$GPRMC,024822.40,A,2234.46439922,N,11431.83859173,E,0.466,305.4,071224,3.4,W,D*25
$GNVTG,289.914,T,293.354,M,0.39171,N,0.72544,K,D*30
$GNHDT,337.1364,T*1C
$GPGGA,024822.60,2234.46440666,N,11431.83856962,E,4,23,0.7,-4.5510,M,-1.3577,M,00,0000*5D
$GPRMC,024822.60,A,2234.46440666,N,11431.83856962,E,0.392,289.9,071224,3.4,W,D*25
$GNVTG,311.237,T,314.677,M,0.32854,N,0.60845,K,D*3A
$GNHDT,337.1923,T*15
$GPGGA,024822.80,2234.46441873,N,11431.83855479,E,4,23,0.7,-4.5620,M,-1.3577,M,00,0000*5C
$GPRMC,024822.80,A,2234.46441873,N,11431.83855479,E,0.329,311.2,071224,3.4,W,D*2F
$GNVTG,300.602,T,304.041,M,0.44276,N,0.82000,K,D*34
$GNHDT,338.3318,T*1A
$GPGGA,024823.00,2234.46443130,N,11431.83853191,E,4,24,0.7,-4.5299,M,-1.3577,M,01,0000*5C
$GPRMC,024823.00,A,2234.46443130,N,11431.83853191,E,0.443,300.6,071224,3.4,W,D*20
$GNVTG,310.919,T,314.358,M,0.31592,N,0.58508,K,D*3F
$GNHDT,338.4107,T*11
$GPGGA,024823.20,2234.46444283,N,11431.83851758,E,4,23,0.7,-4.4605,M,-1.3577,M,01,0000*54
$GPRMC,024823.20,A,2234.46444283,N,11431.83851758,E,0.316,310.9,071224,3.4,W,D*26
$GNVTG,291.580,T,295.020,M,0.24276,N,0.44960,K,D*39
$GNHDT,338.8424,T*19
$GPGGA,024823.40,2234.46444781,N,11431.83850403,E,4,23,0.7,-4.4330,M,-1.3577,M,01,0000*5A
$GPRMC,024823.40,A,2234.46444781,N,11431.83850403,E,0.243,291.6,071224,3.4,W,D*2D
$GNVTG,305.642,T,309.081,M,0.36160,N,0.66968,K,D*38
$GNHDT,338.7604,T*16
$GPGGA,024823.60,2234.46445956,N,11431.83848639,E,4,23,0.7,-4.3886,M,-1.3577,M,00,0000*5F
$GPRMC,024823.60,A,2234.46445956,N,11431.83848639,E,0.362,305.6,071224,3.4,W,D*26
$GNVTG,309.093,T,312.532,M,0.12362,N,0.22894,K,D*3D
$GNHDT,337.9941,T*19
$GPGGA,024823.80,2234.46446390,N,11431.83848063,E,4,23,0.7,-4.3684,M,-1.3577,M,00,0000*57
$GPRMC,024823.80,A,2234.46446390,N,11431.83848063,E,0.124,309.1,071224,3.4,W,D*29
$GNVTG,311.354,T,314.794,M,0.38839,N,0.71929,K,D*38
$GNHDT,337.0030,T*1F
$GPGGA,024824.00,2234.46447821,N,11431.83846313,E,4,22,0.7,-4.3825,M,-1.3577,M,01,0000*57
$GPRMC,024824.00,A,2234.46447821,N,11431.83846313,E,0.388,311.4,071224,3.4,W,D*24
$GNVTG,294.939,T,298.378,M,0.43248,N,0.80095,K,D*36
$GNHDT,337.3690,T*10
$GPGGA,024824.20,2234.46448837,N,11431.83843959,E,4,23,0.7,-4.4306,M,-1.3577,M,01,0000*50
$GPRMC,024824.20,A,2234.46448837,N,11431.83843959,E,0.432,294.9,071224,3.4,W,D*28
$GNVTG,285.709,T,289.148,M,0.57213,N,1.05958,K,D*35
$GNHDT,337.6606,T*1A
$GPGGA,024824.40,2234.46449701,N,11431.83840653,E,4,23,0.7,-4.4885,M,-1.3577,M,01,0000*5B
$GPRMC,024824.40,A,2234.46449701,N,11431.83840653,E,0.572,285.7,071224,3.4,W,D*28
$GNVTG,286.668,T,290.107,M,0.58167,N,1.07726,K,D*39
$GNHDT,338.0864,T*19
$GPGGA,024824.60,2234.46450631,N,11431.83837308,E,4,23,0.7,-4.5159,M,-1.3577,M,00,0000*50
$GPRMC,024824.60,A,2234.46450631,N,11431.83837308,E,0.582,286.7,071224,3.4,W,D*27
$GNVTG,270.347,T,273.787,M,0.36856,N,0.68257,K,D*33
$GNHDT,338.2586,T*1A
$GPGGA,024824.80,2234.46450643,N,11431.83835096,E,4,22,0.7,-4.5333,M,-1.3577,M,00,0000*52
$GPRMC,024824.80,A,2234.46450643,N,11431.83835096,E,0.369,270.3,071224,3.4,W,D*24
$GNVTG,291.819,T,295.258,M,0.53861,N,0.99751,K,D*39
$GNHDT,338.6266,T*17
$GPGGA,024825.00,2234.46451759,N,11431.83832094,E,4,22,0.7,-4.4731,M,-1.3577,M,01,0000*53
$GPRMC,024825.00,A,2234.46451759,N,11431.83832094,E,0.539,291.8,071224,3.4,W,D*24
$GNVTG,296.039,T,299.478,M,0.35950,N,0.66580,K,D*31
$GNHDT,338.3257,T*10
$GPGGA,024825.20,2234.46452639,N,11431.83830155,E,4,21,0.8,-4.3991,M,-1.3577,M,01,0000*54
$GPRMC,024825.20,A,2234.46452639,N,11431.83830155,E,0.360,296.0,071224,3.4,W,D*29
$GNVTG,305.081,T,308.520,M,0.43730,N,0.80988,K,D*39
$GNHDT,338.1802,T*18
$GPGGA,024825.40,2234.46454040,N,11431.83828007,E,4,21,0.8,-4.3948,M,-1.3577,M,01,0000*57
$GPRMC,024825.40,A,2234.46454040,N,11431.83828007,E,0.437,305.1,071224,3.4,W,D*21
$GNVTG,311.279,T,314.718,M,0.46117,N,0.85409,K,D*3A
$GNHDT,338.1652,T*13
$GPGGA,024825.60,2234.46455736,N,11431.83825927,E,4,21,0.8,-4.3831,M,-1.3577,M,00,0000*5A
$GPRMC,024825.60,A,2234.46455736,N,11431.83825927,E,0.461,311.3,071224,3.4,W,D*26
$GNVTG,308.885,T,312.325,M,0.34074,N,0.63104,K,D*36
$GNHDT,338.1256,T*13
$GPGGA,024825.80,2234.46456929,N,11431.83824335,E,4,22,0.7,-4.4569,M,-1.3577,M,00,0000*54
$GPRMC,024825.80,A,2234.46456929,N,11431.83824335,E,0.341,308.9,071224,3.4,W,D*24
$GNVTG,298.264,T,301.704,M,0.25311,N,0.46876,K,D*35
$GNHDT,338.3654,T*17
$GPGGA,024826.00,2234.46457597,N,11431.83822996,E,4,22,0.7,-4.4760,M,-1.3577,M,01,0000*58
$GPRMC,024826.00,A,2234.46457597,N,11431.83822996,E,0.253,298.3,071224,3.4,W,D*22
$GNVTG,303.968,T,307.407,M,0.49141,N,0.91009,K,D*30
$GNHDT,338.4456,T*10
$GPGGA,024826.20,2234.46459128,N,11431.83820550,E,4,23,0.7,-4.5215,M,-1.3577,M,01,0000*57
$GPRMC,024826.20,A,2234.46459128,N,11431.83820550,E,0.491,304.0,071224,3.4,W,D*25
$GNVTG,298.346,T,301.785,M,0.37833,N,0.70066,K,D*39
$GNHDT,338.5532,T*12
$GPGGA,024826.40,2234.46460129,N,11431.83818551,E,4,23,0.7,-4.4897,M,-1.3577,M,01,0000*51
$GPRMC,024826.40,A,2234.46460129,N,11431.83818551,E,0.378,298.3,071224,3.4,W,D*25
$GNVTG,293.641,T,297.080,M,0.47163,N,0.87345,K,D*3D
$GNHDT,338.8547,T*1D
$GPGGA,024826.60,2234.46461183,N,11431.83815958,E,4,23,0.7,-4.4613,M,-1.3577,M,01,0000*58
$GPRMC,024826.60,A,2234.46461183,N,11431.83815958,E,0.472,293.6,071224,3.4,W,D*2D
$GNVTG,296.104,T,299.543,M,0.30166,N,0.55867,K,D*3B
$GNHDT,338.9119,T*13
$GPGGA,024826.80,2234.46461923,N,11431.83814332,E,4,22,0.7,-4.4629,M,-1.3578,M,00,0000*55
$GPRMC,024826.80,A,2234.46461923,N,11431.83814332,E,0.302,296.1,071224,3.4,W,D*24
$GNVTG,307.593,T,311.032,M,0.31826,N,0.58941,K,D*3E
$GNHDT,339.1874,T*18
$GPGGA,024827.00,2234.46463006,N,11431.83812818,E,4,22,0.7,-4.4895,M,-1.3578,M,01,0000*5D
$GPRMC,024827.00,A,2234.46463006,N,11431.83812818,E,0.318,307.6,071224,3.4,W,D*21
$GNVTG,321.904,T,325.343,M,0.18780,N,0.34781,K,D*3A
$GNHDT,338.8770,T*1B
$GPGGA,024827.20,2234.46463829,N,11431.83812122,E,4,22,0.7,-4.5071,M,-1.3578,M,01,0000*59
$GPRMC,024827.20,A,2234.46463829,N,11431.83812122,E,0.188,321.9,071224,3.4,W,D*26
$GNVTG,316.758,T,320.198,M,0.09454,N,0.17508,K,D*30
$GNHDT,338.6875,T*1F
$GPGGA,024827.40,2234.46464213,N,11431.83811734,E,4,21,0.8,-4.5664,M,-1.3578,M,01,0000*57
$GPRMC,024827.40,A,2234.46464213,N,11431.83811734,E,0.095,316.8,071224,3.4,W,D*2E
$GNVTG,315.061,T,318.500,M,0.35302,N,0.65380,K,D*38
$GNHDT,339.1115,T*16
$GPGGA,024827.60,2234.46465606,N,11431.83810237,E,4,21,0.8,-4.5473,M,-1.3578,M,00,0000*56
$GPRMC,024827.60,A,2234.46465606,N,11431.83810237,E,0.353,315.1,071224,3.4,W,D*29
$GNVTG,309.077,T,312.516,M,0.22444,N,0.41567,K,D*35
$GNHDT,338.5074,T*15
$GPGGA,024827.80,2234.46466395,N,11431.83809191,E,4,22,0.7,-4.5037,M,-1.3578,M,00,0000*5B
$GPRMC,024827.80,A,2234.46466395,N,11431.83809191,E,0.224,309.1,071224,3.4,W,D*20
$GNVTG,314.525,T,317.964,M,0.66005,N,1.22242,K,D*32
$GNHDT,338.9948,T*1F
$GPGGA,024828.00,2234.46468975,N,11431.83806366,E,4,22,0.7,-4.4863,M,-1.3578,M,01,0000*5A
$GPRMC,024828.00,A,2234.46468975,N,11431.83806366,E,0.660,314.5,071224,3.4,W,D*24
$GNVTG,320.337,T,323.777,M,0.54479,N,1.00896,K,D*36
$GNHDT,338.3647,T*15
$GPGGA,024828.20,2234.46471313,N,11431.83804279,E,4,22,0.7,-4.4342,M,-1.3578,M,01,0000*5F
$GPRMC,024828.20,A,2234.46471313,N,11431.83804279,E,0.545,320.3,071224,3.4,W,D*2C
$GNVTG,303.070,T,306.509,M,0.55289,N,1.02394,K,D*38
$GNHDT,338.8028,T*11
$GPGGA,024828.40,2234.46472995,N,11431.83801497,E,4,22,0.7,-4.4260,M,-1.3578,M,01,0000*5C
$GPRMC,024828.40,A,2234.46472995,N,11431.83801497,E,0.553,303.1,071224,3.4,W,D*2A
$GNVTG,301.269,T,304.709,M,0.33376,N,0.61812,K,D*30
$GNHDT,338.3427,T*11
$GPGGA,024828.60,2234.46473961,N,11431.83799785,E,4,23,0.7,-4.4129,M,-1.3578,M,00,0000*54
$GPRMC,024828.60,A,2234.46473961,N,11431.83799785,E,0.334,301.3,071224,3.4,W,D*2B
$GNVTG,287.453,T,290.892,M,0.23633,N,0.43767,K,D*39
$GNHDT,338.5364,T*17
$GPGGA,024828.80,2234.46474356,N,11431.83798432,E,4,23,0.7,-4.4409,M,-1.3578,M,00,0000*5A
$GPRMC,024828.80,A,2234.46474356,N,11431.83798432,E,0.236,287.5,071224,3.4,W,D*28
$GNVTG,241.731,T,245.170,M,0.12490,N,0.23132,K,D*30
$GNHDT,338.3862,T*1C
$GPGGA,024829.00,2234.46474026,N,11431.83797771,E,4,23,0.7,-4.4794,M,-1.3578,M,01,0000*5A
$GPRMC,024829.00,A,2234.46474026,N,11431.83797771,E,0.125,241.7,071224,3.4,W,D*27
$GNVTG,280.246,T,283.685,M,0.24485,N,0.45345,K,D*3C
$GNHDT,338.6427,T*14
$GPGGA,024829.20,2234.46474269,N,11431.83796325,E,4,23,0.7,-4.5245,M,-1.3578,M,01,0000*5D
$GPRMC,024829.20,A,2234.46474269,N,11431.83796325,E,0.245,280.2,071224,3.4,W,D*25
$GNVTG,298.541,T,301.981,M,0.43280,N,0.80155,K,D*3D
$GNHDT,338.6136,T*11
$GPGGA,024829.40,2234.46475422,N,11431.83794043,E,4,23,0.7,-4.5231,M,-1.3578,M,01,0000*51
$GPRMC,024829.40,A,2234.46475422,N,11431.83794043,E,0.433,298.5,071224,3.4,W,D*23
$GNVTG,310.096,T,313.535,M,0.59813,N,1.10774,K,D*35
$GNHDT,338.6004,T*11
$GPGGA,024829.60,2234.46477569,N,11431.83791296,E,4,24,0.7,-4.4863,M,-1.3578,M,00,0000*5A
$GPRMC,024829.60,A,2234.46477569,N,11431.83791296,E,0.598,310.1,071224,3.4,W,D*27
$GNVTG,309.976,T,313.415,M,0.55321,N,1.02455,K,D*3C
$GNHDT,338.4840,T*1B
$GPGGA,024829.80,2234.46479551,N,11431.83788751,E,4,24,0.7,-4.4572,M,-1.3578,M,00,0000*5A
$GPRMC,024829.80,A,2234.46479551,N,11431.83788751,E,0.553,310.0,071224,3.4,W,D*2C
$GNVTG,314.473,T,317.912,M,0.53490,N,0.99064,K,D*38
$GNHDT,338.5256,T*17
$GPGGA,024830.00,2234.46481640,N,11431.83786460,E,4,23,0.7,-4.4381,M,-1.3578,M,01,0000*5D
$GPRMC,024830.00,A,2234.46481640,N,11431.83786460,E,0.535,314.5,071224,3.4,W,D*26
$GNVTG,295.470,T,298.909,M,0.21240,N,0.39336,K,D*3F
$GNHDT,338.3181,T*18
$GPGGA,024830.20,2234.46482149,N,11431.83785309,E,4,23,0.7,-4.4274,M,-1.3578,M,01,0000*52
$GPRMC,024830.20,A,2234.46482149,N,11431.83785309,E,0.212,295.5,071224,3.4,W,D*28
$GNVTG,279.380,T,282.820,M,0.11183,N,0.20710,K,D*33
$GNHDT,338.2907,T*1F
$GPGGA,024830.40,2234.46482251,N,11431.83784647,E,4,23,0.7,-4.4502,M,-1.3578,M,01,0000*56
$GPRMC,024830.40,A,2234.46482251,N,11431.83784647,E,0.112,279.4,071224,3.4,W,D*2A
$GNVTG,253.608,T,257.047,M,0.18773,N,0.34767,K,D*3A
$GNHDT,338.7393,T*1D
$GPGGA,024830.60,2234.46481955,N,11431.83783566,E,4,23,0.7,-4.4564,M,-1.3578,M,00,0000*5E
$GPRMC,024830.60,A,2234.46481955,N,11431.83783566,E,0.188,253.6,071224,3.4,W,D*2A
$GNVTG,304.365,T,307.804,M,0.35025,N,0.64867,K,D*3D
$GNHDT,338.6213,T*15
$GPGGA,024830.80,2234.46483057,N,11431.83781830,E,4,23,0.7,-4.4555,M,-1.3578,M,00,0000*57
$GPRMC,024830.80,A,2234.46483057,N,11431.83781830,E,0.350,304.4,071224,3.4,W,D*27
$GNVTG,301.386,T,304.826,M,0.47192,N,0.87400,K,D*3E
$GNHDT,338.1762,T*11
$GPGGA,024831.00,2234.46484428,N,11431.83779412,E,4,23,0.7,-4.4236,M,-1.3578,M,01,0000*5D
$GPRMC,024831.00,A,2234.46484428,N,11431.83779412,E,0.472,301.4,071224,3.4,W,D*2C
$GNVTG,293.741,T,297.180,M,0.68442,N,1.26755,K,D*39
$GNHDT,338.4642,T*17
$GPGGA,024831.20,2234.46485964,N,11431.83775651,E,4,23,0.7,-4.3881,M,-1.3578,M,01,0000*53
$GPRMC,024831.20,A,2234.46485964,N,11431.83775651,E,0.684,293.7,071224,3.4,W,D*21
$GNVTG,305.226,T,308.665,M,0.68810,N,1.27436,K,D*34
$GNHDT,338.1548,T*1B
$GPGGA,024831.40,2234.46488176,N,11431.83772277,E,4,23,0.7,-4.3518,M,-1.3578,M,01,0000*59
$GPRMC,024831.40,A,2234.46488176,N,11431.83772277,E,0.688,305.2,071224,3.4,W,D*21
$GNVTG,297.929,T,301.369,M,0.63632,N,1.17846,K,D*37
$GNHDT,338.2207,T*14
$GPGGA,024831.60,2234.46489838,N,11431.83768902,E,4,22,0.7,-4.3413,M,-1.3578,M,00,0000*51
$GPRMC,024831.60,A,2234.46489838,N,11431.83768902,E,0.636,297.9,071224,3.4,W,D*27
$GNVTG,295.717,T,299.157,M,0.48164,N,0.89199,K,D*39
$GNHDT,338.1204,T*14
$GPGGA,024831.80,2234.46491003,N,11431.83766297,E,4,22,0.7,-4.3574,M,-1.3578,M,00,0000*5F
$GPRMC,024831.80,A,2234.46491003,N,11431.83766297,E,0.482,295.7,071224,3.4,W,D*28
$GNVTG,260.618,T,264.058,M,0.35897,N,0.66481,K,D*33
$GNHDT,338.0970,T*1D
$GPGGA,024832.00,2234.46490677,N,11431.83764171,E,4,22,0.7,-4.4191,M,-1.3578,M,01,0000*50
$GPRMC,024832.00,A,2234.46490677,N,11431.83764171,E,0.359,260.6,071224,3.4,W,D*24
$GNVTG,285.926,T,289.366,M,0.29224,N,0.54123,K,D*34
$GNHDT,337.8117,T*13
$GPGGA,024832.20,2234.46491124,N,11431.83762484,E,4,22,0.7,-4.4432,M,-1.3578,M,01,0000*57
$GPRMC,024832.20,A,2234.46491124,N,11431.83762484,E,0.292,285.9,071224,3.4,W,D*2D
$GNVTG,247.043,T,250.483,M,0.23078,N,0.42740,K,D*3D
$GNHDT,338.1480,T*1E
$GPGGA,024832.40,2234.46490622,N,11431.83761209,E,4,22,0.7,-4.5315,M,-1.3578,M,01,0000*52
$GPRMC,024832.40,A,2234.46490622,N,11431.83761209,E,0.231,247.0,071224,3.4,W,D*25
$GNVTG,288.865,T,292.305,M,0.33021,N,0.61155,K,D*3B
$GNHDT,338.7401,T*11
$GPGGA,024832.60,2234.46491217,N,11431.83759333,E,4,22,0.7,-4.5585,M,-1.3578,M,00,0000*5E
