,3.4,W,D*29
$GNVTG,90.407,T,93.841,M,0.26510,N,0.49096,K,D*37
$GNHDT,220.6423,T*18
$GPGGA,075151.80,2234.24175928,N,11432.13158920,E,4,20,0.8,0.7392,M,-1.3345,M,01,0000*7E
$GPRMC,075151.80,A,2234.24175928,N,11432.13158920,E,0.265,90.4,051224,3.4,W,D*17
$GNVTG,59.579,T,63.012,M,0.26003,N,0.48158,K,D*3E
$GNHDT,219.8076,T*18
$GPGGA,075152.00,2234.24176662,N,11432.13160266,E,4,20,0.8,0.7046,M,-1.3345,M,02,0000*7C
$GPRMC,075152.00,A,2234.24176662,N,11432.13160266,E,0.260,59.6,051224,3.4,W,D*1E
$GNVTG,72.682,T,76.116,M,0.27207,N,0.50387,K,D*3F
$GNHDT,219.9371,T*1D
$GPGGA,075152.20,2234.24177114,N,11432.13161826,E,4,20,0.8,0.6996,M,-1.3345,M,02,0000*73
$GPRMC,075152.20,A,2234.24177114,N,11432.13161826,E,0.272,72.7,051224,3.4,W,D*1F
$GNVTG,107.833,T,111.267,M,0.27906,N,0.51682,K,D*36
$GNHDT,219.9363,T*1E
$GPGGA,075152.40,2234.24176637,N,11432.13163420,E,4,21,0.7,0.6855,M,-1.3345,M,02,0000*7A
$GPRMC,075152.40,A,2234.24176637,N,11432.13163420,E,0.279,107.8,051224,3.4,W,D*21
$GNVTG,148.880,T,152.314,M,0.28198,N,0.52223,K,D*3B
$GNHDT,219.9435,T*1A
$GPGGA,075152.60,2234.24175292,N,11432.13164295,E,4,21,0.7,0.7570,M,-1.3345,M,02,0000*74
$GPRMC,075152.60,A,2234.24175292,N,11432.13164295,E,0.282,148.9,051224,3.4,W,D*2A
$GNVTG,121.634,T,125.067,M,0.31396,N,0.58144,K,D*3E
$GNHDT,220.0978,T*1D
$GPGGA,075152.80,2234.24174374,N,11432.13165899,E,4,20,0.8,0.8573,M,-1.3345,M,00,0000*75
$GPRMC,075152.80,A,2234.24174374,N,11432.13165899,E,0.314,121.6,051224,3.4,W,D*25
$GNVTG,124.283,T,127.717,M,0.34344,N,0.63605,K,D*31
$GNHDT,219.9371,T*1D
$GPGGA,075153.00,2234.24173295,N,11432.13167603,E,4,20,0.8,0.9147,M,-1.3345,M,01,0000*79
$GPRMC,075153.00,A,2234.24173295,N,11432.13167603,E,0.343,124.3,051224,3.4,W,D*28
$GNVTG,132.043,T,135.476,M,0.38954,N,0.72143,K,D*3D
$GNHDT,220.1905,T*16
$GPGGA,075153.20,2234.24171841,N,11432.13169339,E,4,20,0.8,0.8770,M,-1.3345,M,01,0000*7B
$GPRMC,075153.20,A,2234.24171841,N,11432.13169339,E,0.390,132.0,051224,3.4,W,D*23
$GNVTG,65.513,T,68.946,M,0.21804,N,0.40380,K,D*39
$GNHDT,219.4645,T*12
$GPGGA,075153.40,2234.24172345,N,11432.13170530,E,4,20,0.8,0.8552,M,-1.3345,M,01,0000*74
$GPRMC,075153.40,A,2234.24172345,N,11432.13170530,E,0.218,65.5,051224,3.4,W,D*19
$GNVTG,60.404,T,63.838,M,0.22552,N,0.41766,K,D*38
$GNHDT,219.0895,T*15
$GPGGA,075153.60,2234.24172966,N,11432.13171707,E,4,21,0.7,0.7974,M,-1.3345,M,01,0000*73
$GPRMC,075153.60,A,2234.24172966,N,11432.13171707,E,0.226,60.4,051224,3.4,W,D*1E
$GNVTG,63.221,T,66.654,M,0.20437,N,0.37849,K,D*38
$GNHDT,218.7464,T*11
$GPGGA,075153.80,2234.24173479,N,11432.13172803,E,4,20,0.8,0.7546,M,-1.3345,M,00,0000*75
$GPRMC,075153.80,A,2234.24173479,N,11432.13172803,E,0.204,63.2,051224,3.4,W,D*1F
$GNVTG,115.619,T,119.053,M,0.13473,N,0.24952,K,D*36
$GNHDT,218.1873,T*1D
$GPGGA,075154.00,2234.24173154,N,11432.13173532,E,4,20,0.8,0.7648,M,-1.3345,M,01,0000*72
$GPRMC,075154.00,A,2234.24173154,N,11432.13173532,E,0.135,115.6,051224,3.4,W,D*21
$GNVTG,140.538,T,143.972,M,0.22967,N,0.42534,K,D*35
$GNHDT,218.3191,T*1A
$GPGGA,075154.20,2234.24172166,N,11432.13174408,E,4,20,0.8,0.8035,M,-1.3345,M,01,0000*7C
$GPRMC,075154.20,A,2234.24172166,N,11432.13174408,E,0.230,140.5,051224,3.4,W,D*29
$GNVTG,173.096,T,176.530,M,0.26720,N,0.49486,K,D*32
$GNHDT,218.3013,T*11
$GPGGA,075154.40,2234.24170687,N,11432.13174601,E,4,20,0.8,0.8904,M,-1.3345,M,01,0000*70
$GPRMC,075154.40,A,2234.24170687,N,11432.13174601,E,0.267,173.1,051224,3.4,W,D*28
$GNVTG,150.389,T,153.823,M,0.35163,N,0.65122,K,D*30
$GNHDT,218.9552,T*1B
$GPGGA,075154.60,2234.24168983,N,11432.13175644,E,4,20,0.8,0.9281,M,-1.3345,M,00,0000*76
$GPRMC,075154.60,A,2234.24168983,N,11432.13175644,E,0.352,150.4,051224,3.4,W,D*2B
$GNVTG,130.407,T,133.840,M,0.12050,N,0.22317,K,D*37
$GNHDT,218.8369,T*14
$GPGGA,075154.80,2234.24168547,N,11432.13176195,E,4,20,0.8,0.9643,M,-1.3345,M,00,0000*7E
$GPRMC,075154.80,A,2234.24168547,N,11432.13176195,E,0.121,130.4,051224,3.4,W,D*29
$GNVTG,99.255,T,102.689,M,0.09380,N,0.17372,K,D*0C
$GNHDT,219.1783,T*1C
$GPGGA,075155.00,2234.24168463,N,11432.13176750,E,4,20,0.8,0.9617,M,-1.3345,M,01,0000*7F
$GPRMC,075155.00,A,2234.24168463,N,11432.13176750,E,0.094,99.3,051224,3.4,W,D*12
$GNVTG,11.086,T,14.520,M,0.19034,N,0.35251,K,D*3B
$GNHDT,218.7716,T*17
$GPGGA,075155.20,2234.24169504,N,11432.13176970,E,4,20,0.8,0.8899,M,-1.3345,M,01,0000*79
$GPRMC,075155.20,A,2234.24169504,N,11432.13176970,E,0.190,11.1,051224,3.4,W,D*1A
$GNVTG,339.325,T,342.758,M,0.07496,N,0.13883,K,D*37
$GNHDT,218.3928,T*10
$GPGGA,075155.40,2234.24169895,N,11432.13176811,E,4,21,0.7,0.8348,M,-1.3345,M,01,0000*75
$GPRMC,075155.40,A,2234.24169895,N,11432.13176811,E,0.075,339.3,051224,3.4,W,D*2E
$GNVTG,108.709,T,112.143,M,0.07901,N,0.14633,K,D*37
$GNHDT,218.4873,T*18
$GPGGA,075155.60,2234.24169754,N,11432.13177260,E,4,21,0.7,0.8194,M,-1.3345,M,01,0000*7B
$GPRMC,075155.60,A,2234.24169754,N,11432.13177260,E,0.079,108.7,051224,3.4,W,D*2B
$GNVTG,194.053,T,197.487,M,0.12182,N,0.22560,K,D*3D
$GNHDT,218.0231,T*10
$GPGGA,075155.80,2234.24169095,N,11432.13177083,E,4,21,0.7,0.8535,M,-1.3345,M,00,0000*7E
$GPRMC,075155.80,A,2234.24169095,N,11432.13177083,E,0.122,194.1,051224,3.4,W,D*2C
$GNVTG,185.313,T,188.746,M,0.20500,N,0.37967,K,D*3A
$GNHDT,217.1985,T*1A
$GPGGA,075156.00,2234.24167957,N,11432.13176969,E,4,21,0.7,0.8700,M,-1.3345,M,01,0000*75
$GPRMC,075156.00,A,2234.24167957,N,11432.13176969,E,0.205,185.3,051224,3.4,W,D*26
$GNVTG,156.041,T,159.474,M,0.25187,N,0.46645,K,D*39
$GNHDT,217.8062,T*13
$GPGGA,075156.20,2234.24166674,N,11432.13177583,E,4,20,0.7,0.8813,M,-1.3345,M,01,0000*7D
$GPRMC,075156.20,A,2234.24166674,N,11432.13177583,E,0.252,156.0,051224,3.4,W,D*2D
$GNVTG,132.434,T,135.868,M,0.09644,N,0.17861,K,D*3C
$GNHDT,217.2464,T*1B
$GPGGA,075156.40,2234.24166312,N,11432.13178010,E,4,20,0.7,0.9340,M,-1.3345,M,01,0000*72
$GPRMC,075156.40,A,2234.24166312,N,11432.13178010,E,0.096,132.4,051224,3.4,W,D*22
$GNVTG,98.781,T,102.215,M,0.16954,N,0.31398,K,D*0D
$GNHDT,217.6752,T*19
$GPGGA,075156.60,2234.24166167,N,11432.13179016,E,4,21,0.7,0.9230,M,-1.3345,M,01,0000*70
$GPRMC,075156.60,A,2234.24166167,N,11432.13179016,E,0.170,98.8,051224,3.4,W,D*13
$GNVTG,71.807,T,75.241,M,0.15552,N,0.28802,K,D*32
$GNHDT,217.8485,T*1E
$GPGGA,075156.80,2234.24166438,N,11432.13179903,E,4,21,0.7,0.8843,M,-1.3345,M,00,0000*72
$GPRMC,075156.80,A,2234.24166438,N,11432.13179903,E,0.156,71.8,051224,3.4,W,D*1C
$GNVTG,84.707,T,88.141,M,0.13173,N,0.24396,K,D*3D
$GNHDT,217.5402,T*1C
$GPGGA,075157.00,2234.24166506,N,11432.13180690,E,4,21,0.7,0.8655,M,-1.3345,M,01,0000*7C
$GPRMC,075157.00,A,2234.24166506,N,11432.13180690,E,0.132,84.7,051224,3.4,W,D*1D
$GNVTG,154.192,T,157.626,M,0.09252,N,0.17135,K,D*3E
$GNHDT,217.1558,T*16
$GPGGA,075157.20,2234.24166041,N,11432.13180932,E,4,21,0.7,0.8638,M,-1.3345,M,01,0000*74
$GPRMC,075157.20,A,2234.24166041,N,11432.13180932,E,0.093,154.2,051224,3.4,W,D*2D
$GNVTG,148.536,T,151.969,M,0.17660,N,0.32706,K,D*30
$GNHDT,216.9320,T*16
$GPGGA,075157.40,2234.24165202,N,11432.13181485,E,4,21,0.7,0.8706,M,-1.3345,M,01,0000*78
$GPRMC,075157.40,A,2234.24165202,N,11432.13181485,E,0.177,148.5,051224,3.4,W,D*2C
$GNVTG,135.555,T,138.989,M,0.08234,N,0.15249,K,D*3E
$GNHDT,216.6863,T*15
$GPGGA,075157.60,2234.24164874,N,11432.13181831,E,4,20,0.7,0.8783,M,-1.3345,M,01,0000*7F
$GPRMC,075157.60,A,2234.24164874,N,11432.13181831,E,0.082,135.6,051224,3.4,W,D*25
$GNVTG,173.838,T,177.271,M,0.16288,N,0.30165,K,D*3F
$GNHDT,216.8022,T*16
$GPGGA,075157.80,2234.24163971,N,11432.13181936,E,4,21,0.7,0.8566,M,-1.3345,M,00,0000*7D
$GPRMC,075157.80,A,2234.24163971,N,11432.13181936,E,0.163,173.8,051224,3.4,W,D*2C
$GNVTG,79.087,T,82.521,M,0.15249,N,0.28241,K,D*33
$GNHDT,216.6610,T*1F
$GPGGA,075158.00,2234.24164132,N,11432.13182835,E,4,21,0.7,0.8744,M,-1.3345,M,01,0000*70
$GPRMC,075158.00,A,2234.24164132,N,11432.13182835,E,0.152,79.1,051224,3.4,W,D*12
$GNVTG,90.026,T,93.460,M,0.06867,N,0.12717,K,D*30
$GNHDT,216.7949,T*1D
$GPGGA,075158.20,2234.24164132,N,11432.13183247,E,4,20,0.7,0.8533,M,-1.3345,M,01,0000*7F
$GPRMC,075158.20,A,2234.24164132,N,11432.13183247,E,0.069,90.0,051224,3.4,W,D*11
$GNVTG,79.650,T,83.083,M,0.18152,N,0.33618,K,D*35
$GNHDT,217.1082,T*14
$GPGGA,075158.40,2234.24164314,N,11432.13184319,E,4,20,0.7,0.8664,M,-1.3345,M,01,0000*73
$GPRMC,075158.40,A,2234.24164314,N,11432.13184319,E,0.182,79.6,051224,3.4,W,D*19
$GNVTG,202.054,T,205.487,M,0.09409,N,0.17425,K,D*34
$GNHDT,216.8316,T*12
$GPGGA,075158.60,2234.24163828,N,11432.13184107,E,4,20,0.7,0.8563,M,-1.3345,M,01,0000*7B
$GPRMC,075158.60,A,2234.24163828,N,11432.13184107,E,0.094,202.1,051224,3.4,W,D*2A
$GNVTG,212.776,T,216.210,M,0.06732,N,0.12468,K,D*30
$GNHDT,216.4292,T*13
$GPGGA,075158.80,2234.24163512,N,11432.13183888,E,4,20,0.7,0.8442,M,-1.3345,M,00,0000*7B
$GPRMC,075158.80,A,2234.24163512,N,11432.13183888,E,0.067,212.8,051224,3.4,W,D*2D
$GNVTG,249.417,T,252.850,M,0.07459,N,0.13815,K,D*3C
$GNHDT,215.7143,T*1C
$GPGGA,075159.00,2234.24163366,N,11432.13183469,E,4,21,0.7,0.8538,M,-1.3345,M,01,0000*78
$GPRMC,075159.00,A,2234.24163366,N,11432.13183469,E,0.075,249.4,051224,3.4,W,D*23
$GNVTG,133.575,T,137.008,M,0.03550,N,0.06574,K,D*30
$GNHDT,215.9012,T*17
$GPGGA,075159.20,2234.24163229,N,11432.13183623,E,4,21,0.7,0.8758,M,-1.3345,M,01,0000*78
$GPRMC,075159.20,A,2234.24163229,N,11432.13183623,E,0.035,133.6,051224,3.4,W,D*2F
$GNVTG,153.483,T,156.917,M,0.09620,N,0.17816,K,D*39
$GNHDT,215.8848,T*11
$GPGGA,075159.40,2234.24162750,N,11432.13183881,E,4,21,0.7,0.9085,M,-1.3345,M,01,0000*74
$GPRMC,075159.40,A,2234.24162750,N,11432.13183881,E,0.096,153.5,051224,3.4,W,D*29
$GNVTG,90.929,T,94.362,M,0.13792,N,0.25542,K,D*33
$GNHDT,215.8070,T*12
$GPGGA,075159.60,2234.24162737,N,11432.13184709,E,4,21,0.7,0.9416,M,-1.3345,M,01,0000*71
$GPRMC,075159.60,A,2234.24162737,N,11432.13184709,E,0.138,90.9,051224,3.4,W,D*15
$GNVTG,134.527,T,137.960,M,0.12266,N,0.22716,K,D*35
$GNHDT,215.9349,T*1A
$GPGGA,075159.80,2234.24162258,N,11432.13185234,E,4,21,0.7,0.9741,M,-1.3345,M,00,0000*79
$GPRMC,075159.80,A,2234.24162258,N,11432.13185234,E,0.123,134.5,051224,3.4,W,D*24
$GNVTG,169.410,T,172.843,M,0.11912,N,0.22061,K,D*35
$GNHDT,215.6956,T*11
$GPGGA,075200.00,2234.24161605,N,11432.13185365,E,4,21,0.7,0.9374,M,-1.3345,M,01,0000*77
$GPRMC,075200.00,A,2234.24161605,N,11432.13185365,E,0.119,169.4,051224,3.4,W,D*29
$GNVTG,215.682,T,219.116,M,0.23750,N,0.43984,K,D*3F
$GNHDT,215.4440,T*19
$GPGGA,075200.20,2234.24160529,N,11432.13184534,E,4,20,0.7,0.8667,M,-1.3345,M,01,0000*7D
$GPRMC,075200.20,A,2234.24160529,N,11432.13184534,E,0.237,215.7,051224,3.4,W,D*20
$GNVTG,206.102,T,209.536,M,0.12906,N,0.23903,K,D*33
$GNHDT,215.1526,T*1D
$GPGGA,075200.40,2234.24159883,N,11432.13184193,E,4,20,0.7,0.8479,M,-1.3345,M,01,0000*78
$GPRMC,075200.40,A,2234.24159883,N,11432.13184193,E,0.129,206.1,051224,3.4,W,D*20
$GNVTG,107.552,T,110.986,M,0.02999,N,0.05554,K,D*31
$GNHDT,215.0267,T*1E
$GPGGA,075200.60,2234.24159833,N,11432.13184364,E,4,20,0.7,0.8283,M,-1.3345,M,01,0000*78
$GPRMC,075200.60,A,2234.24159833,N,11432.13184364,E,0.030,107.6,051224,3.4,W,D*2F
$GNVTG,97.308,T,100.742,M,0.17330,N,0.32095,K,D*06
$GNHDT,215.0782,T*10
$GPGGA,075200.80,2234.24159710,N,11432.13185396,E,4,20,0.7,0.8190,M,-1.3345,M,00,0000*74
$GPRMC,075200.80,A,2234.24159710,N,11432.13185396,E,0.173,97.3,051224,3.4,W,D*18
$GNVTG,127.401,T,130.835,M,0.12715,N,0.23548,K,D*3D
$GNHDT,214.8743,T*14
$GPGGA,075201.00,2234.24159280,N,11432.13186003,E,4,20,0.7,0.8668,M,-1.3345,M,01,0000*7C
$GPRMC,075201.00,A,2234.24159280,N,11432.13186003,E,0.127,127.4,051224,3.4,W,D*2D
$GNVTG,100.043,T,103.477,M,0.27276,N,0.50516,K,D*39
$GNHDT,214.7847,T*10
$GPGGA,075201.20,2234.24159014,N,11432.13187615,E,4,20,0.7,0.9008,M,-1.3345,M,01,0000*70
$GPRMC,075201.20,A,2234.24159014,N,11432.13187615,E,0.273,100.0,051224,3.4,W,D*23
$GNVTG,106.236,T,109.670,M,0.20650,N,0.38244,K,D*39
$GNHDT,214.5356,T*19
$GPGGA,075201.40,2234.24158692,N,11432.13188805,E,4,20,0.7,0.8939,M,-1.3345,M,01,0000*75
$GPRMC,075201.40,A,2234.24158692,N,11432.13188805,E,0.207,106.2,051224,3.4,W,D*2B
$GNVTG,110.540,T,113.974,M,0.10982,N,0.20339,K,D*39
$GNHDT,214.0824,T*12
$GPGGA,075201.60,2234.24158478,N,11432.13189422,E,4,20,0.7,0.8502,M,-1.3345,M,01,0000*7D
$GPRMC,075201.60,A,2234.24158478,N,11432.13189422,E,0.110,110.5,051224,3.4,W,D*22
$GNVTG,126.227,T,129.661,M,0.16377,N,0.30330,K,D*36
$GNHDT,213.8357,T*12
$GPGGA,075201.80,2234.24157938,N,11432.13190215,E,4,20,0.7,0.8387,M,-1.3345,M,01,0000*74
$GPRMC,075201.80,A,2234.24157938,N,11432.13190215,E,0.164,126.2,051224,3.4,W,D*21
$GNVTG,87.736,T,91.170,M,0.11804,N,0.21861,K,D*3B
$GNHDT,213.2848,T*1D
$GPGGA,075202.00,2234.24157964,N,11432.13190923,E,4,21,0.7,0.8300,M,-1.3345,M,02,0000*75
$GPRMC,075202.00,A,2234.24157964,N,11432.13190923,E,0.118,87.7,051224,3.4,W,D*19
$GNVTG,107.180,T,110.614,M,0.13068,N,0.24202,K,D*3E
$GNHDT,213.2856,T*12
$GPGGA,075202.20,2234.24157749,N,11432.13191673,E,4,21,0.7,0.7764,M,-1.3345,M,02,0000*74
$GPRMC,075202.20,A,2234.24157749,N,11432.13191673,E,0.131,107.2,051224,3.4,W,D*26
$GNVTG,65.908,T,69.342,M,0.15853,N,0.29359,K,D*3E
$GNHDT,213.4999,T*16
$GPGGA,075202.40,2234.24158110,N,11432.13192541,E,4,20,0.7,0.8047,M,-1.3345,M,02,0000*7E
$GPRMC,075202.40,A,2234.24158110,N,11432.13192541,E,0.159,65.9,051224,3.4,W,D*14
$GNVTG,46.944,T,50.377,M,0.16039,N,0.29705,K,D*31
$GNHDT,213.7200,T*1E
$GPGGA,075202.60,2234.24158720,N,11432.13193245,E,4,21,0.7,0.8351,M,-1.3345,M,02,0000*7E
$GPRMC,075202.60,A,2234.24158720,N,11432.13193245,E,0.160,46.9,051224,3.4,W,D*1A
$GNVTG,81.162,T,84.595,M,0.18065,N,0.33456,K,D*3C
$GNHDT,214.2772,T*1C
$GPGGA,075202.80,2234.24158875,N,11432.13194316,E,4,21,0.7,0.8728,M,-1.3345,M,00,0000*77
$GPRMC,075202.80,A,2234.24158875,N,11432.13194316,E,0.181,81.2,051224,3.4,W,D*14
$GNVTG,83.862,T,87.296,M,0.09489,N,0.17574,K,D*31
$GNHDT,214.3463,T*1E
$GPGGA,075203.00,2234.24158931,N,11432.13194883,E,4,21,0.7,0.9088,M,-1.3345,M,01,0000*75
$GPRMC,075203.00,A,2234.24158931,N,11432.13194883,E,0.095,83.9,051224,3.4,W,D*16
$GNVTG,78.483,T,81.917,M,0.04245,N,0.07862,K,D*32
$GNHDT,214.0548,T*15
$GPGGA,075203.20,2234.24158979,N,11432.13195132,E,4,21,0.7,0.8842,M,-1.3345,M,01,0000*76
$GPRMC,075203.20,A,2234.24158979,N,11432.13195132,E,0.042,78.5,051224,3.4,W,D*18
$GNVTG,247.866,T,251.299,M,0.10383,N,0.19229,K,D*3D
$GNHDT,213.1992,T*18
$GPGGA,075203.40,2234.24158761,N,11432.13194555,E,4,21,0.7,0.8863,M,-1.3345,M,01,0000*70
$GPRMC,075203.40,A,2234.24158761,N,11432.13194555,E,0.104,247.9,051224,3.4,W,D*2C
$GNVTG,308.998,T,312.432,M,0.03802,N,0.07041,K,D*35
$GNHDT,213.0456,T*1C
$GPGGA,075203.60,2234.24158894,N,11432.13194378,E,4,21,0.7,0.8506,M,-1.3345,M,01,0000*70
$GPRMC,075203.60,A,2234.24158894,N,11432.13194378,E,0.038,309.0,051224,3.4,W,D*2E
$GNVTG,277.456,T,280.890,M,0.03259,N,0.06035,K,D*3B
$GNHDT,212.5886,T*19
$GPGGA,075203.80,2234.24158918,N,11432.13194184,E,4,21,0.7,0.8504,M,-1.3345,M,00,0000*79
$GPRMC,075203.80,A,2234.24158918,N,11432.13194184,E,0.033,277.5,051224,3.4,W,D*22
$GNVTG,113.180,T,116.614,M,0.03305,N,0.06121,K,D*36
$GNHDT,212.6153,T*1B
$GPGGA,075204.00,2234.24158845,N,11432.13194366,E,4,21,0.7,0.8630,M,-1.3345,M,01,0000*74
$GPRMC,075204.00,A,2234.24158845,N,11432.13194366,E,0.033,113.2,051224,3.4,W,D*2C
$GNVTG,117.014,T,120.448,M,0.07647,N,0.14162,K,D*33
$GNHDT,212.7621,T*18
$GPGGA,075204.20,2234.24158651,N,11432.13194775,E,4,21,0.7,0.8794,M,-1.3345,M,01,0000*74
$GPRMC,075204.20,A,2234.24158651,N,11432.13194775,E,0.076,117.0,051224,3.4,W,D*24
$GNVTG,110.389,T,113.822,M,0.18559,N,0.34371,K,D*33
$GNHDT,213.5694,T*15
$GPGGA,075204.40,2234.24158291,N,11432.13195819,E,4,21,0.7,0.8885,M,-1.3345,M,01,0000*71
$GPRMC,075204.40,A,2234.24158291,N,11432.13195819,E,0.186,110.4,051224,3.4,W,D*23
$GNVTG,221.078,T,224.512,M,0.07777,N,0.14404,K,D*31
$GNHDT,213.3888,T*10
$GPGGA,075204.60,2234.24157964,N,11432.13195512,E,4,20,0.7,0.9243,M,-1.3345,M,01,0000*7B
$GPRMC,075204.60,A,2234.24157964,N,11432.13195512,E,0.078,221.1,051224,3.4,W,D*2D
$GNVTG,18.230,T,21.663,M,0.06289,N,0.11647,K,D*30
$GNHDT,213.2895,T*1D
$GPGGA,075204.80,2234.24158297,N,11432.13195631,E,4,20,0.7,0.9158,M,-1.3345,M,00,0000*77
$GPRMC,075204.80,A,2234.24158297,N,11432.13195631,E,0.063,18.2,051224,3.4,W,D*18
$GNVTG,4.068,T,7.502,M,0.01884,N,0.03489,K,D*31
$GNHDT,213.4005,T*1A
$GPGGA,075205.00,2234.24158402,N,11432.13195639,E,4,20,0.7,0.8670,M,-1.3345,M,01,0000*71
$GPRMC,075205.00,A,2234.24158402,N,11432.13195639,E,0.019,4.1,051224,3.4,W,D*20
$GNVTG,16.155,T,19.588,M,0.16874,N,0.31250,K,D*3A
$GNHDT,213.1702,T*1F
$GPGGA,075205.20,2234.24159305,N,11432.13195920,E,4,20,0.7,0.8429,M,-1.3345,M,01,0000*7B
$GPRMC,075205.20,A,2234.24159305,N,11432.13195920,E,0.169,16.2,051224,3.4,W,D*12
$GNVTG,351.266,T,354.700,M,0.09396,N,0.17401,K,D*3E
$GNHDT,212.8067,T*13
$GPGGA,075205.40,2234.24159823,N,11432.13195835,E,4,20,0.7,0.8233,M,-1.3345,M,01,0000*7A
$GPRMC,075205.40,A,2234.24159823,N,11432.13195835,E,0.094,351.3,051224,3.4,W,D*2C
$GNVTG,204.263,T,207.696,M,0.03326,N,0.06159,K,D*3A
$GNHDT,212.7949,T*19
$GPGGA,075205.60,2234.24159654,N,11432.13195753,E,4,20,0.7,0.8087,M,-1.3345,M,01,0000*74
$GPRMC,075205.60,A,2234.24159654,N,11432.13195753,E,0.033,204.3,051224,3.4,W,D*23
$GNVTG,170.607,T,174.041,M,0.09175,N,0.16992,K,D*37
$GNHDT,212.5951,T*12
$GPGGA,075205.80,2234.24159149,N,11432.13195843,E,4,20,0.7,0.8244,M,-1.3345,M,00,0000*73
$GPRMC,075205.80,A,2234.24159149,N,11432.13195843,E,0.092,170.6,051224,3.4,W,D*26
$GNVTG,177.203,T,180.637,M,0.23102,N,0.42785,K,D*3D
$GNHDT,212.7726,T*1E
$GPGGA,075206.00,2234.24157863,N,11432.13195910,E,4,20,0.7,0.8584,M,-1.3345,M,01,0000*7A
$GPRMC,075206.00,A,2234.24157863,N,11432.13195910,E,0.231,177.2,051224,3.4,W,D*2D
$GNVTG,165.622,T,169.055,M,0.11233,N,0.20804,K,D*3E
$GNHDT,212.6611,T*1A
$GPGGA,075206.20,2234.24157256,N,11432.13196078,E,4,20,0.7,0.8879,M,-1.3345,M,01,0000*7F
$GPRMC,075206.20,A,2234.24157256,N,11432.13196078,E,0.112,165.6,051224,3.4,W,D*22
$GNVTG,57.825,T,61.258,M,0.09158,N,0.16961,K,D*31
$GNHDT,213.0022,T*1B
$GPGGA,075206.40,2234.24157528,N,11432.13196543,E,4,20,0.7,0.8850,M,-1.3345,M,01,0000*71
$GPRMC,075206.40,A,2234.24157528,N,11432.13196543,E,0.092,57.8,051224,3.4,W,D*10
$GNVTG,30.040,T,33.474,M,0.30657,N,0.56777,K,D*3B
$GNHDT,212.8430,T*15
$GPGGA,075206.60,2234.24159008,N,11432.13197464,E,4,20,0.7,0.8725,M,-1.3345,M,01,0000*72
$GPRMC,075206.60,A,2234.24159008,N,11432.13197464,E,0.307,30.0,051224,3.4,W,D*18
$GNVTG,31.147,T,34.581,M,0.27308,N,0.50574,K,D*3E
$GNHDT,212.8334,T*16
$GPGGA,075206.80,2234.24160311,N,11432.13198312,E,4,20,0.7,0.8534,M,-1.3345,M,00,0000*77
$GPRMC,075206.80,A,2234.24160311,N,11432.13198312,E,0.273,31.1,051224,3.4,W,D*1C
$GNVTG,13.644,T,17.078,M,0.07867,N,0.14569,K,D*34
$GNHDT,212.6457,T*1A
$GPGGA,075207.00,2234.24160737,N,11432.13198423,E,4,20,0.7,0.8498,M,-1.3345,M,01,0000*7D
$GPRMC,075207.00,A,2234.24160737,N,11432.13198423,E,0.079,13.6,051224,3.4,W,D*1F
$GNVTG,42.036,T,45.469,M,0.22852,N,0.42321,K,D*38
$GNHDT,212.1623,T*1C
$GPGGA,075207.20,2234.24161683,N,11432.13199342,E,4,20,0.7,0.8452,M,-1.3345,M,01,0000*77
$GPRMC,075207.20,A,2234.24161683,N,11432.13199342,E,0.229,42.0,051224,3.4,W,D*16
$GNVTG,182.935,T,186.369,M,0.26632,N,0.49323,K,D*33
$GNHDT,212.5164,T*1C
$GPGGA,075207.40,2234.24160200,N,11432.13199260,E,4,22,0.7,0.8578,M,-1.3345,M,01,0000*75
$GPRMC,075207.40,A,2234.24160200,N,11432.13199260,E,0.266,182.9,051224,3.4,W,D*20
$GNVTG,189.856,T,193.290,M,0.23040,N,0.42670,K,D*31
$GNHDT,212.3536,T*19
$GPGGA,075207.60,2234.24158935,N,11432.13199023,E,4,22,0.7,0.9068,M,-1.3345,M,00,0000*70
$GPRMC,075207.60,A,2234.24158935,N,11432.13199023,E,0.230,189.9,051224,3.4,W,D*29
$GNVTG,188.440,T,191.873,M,0.18681,N,0.34596,K,D*37
$GNHDT,212.3927,T*15
$GPGGA,075207.80,2234.24157905,N,11432.13198859,E,4,22,0.7,0.9124,M,-1.3345,M,00,0000*7F
$GPRMC,075207.80,A,2234.24157905,N,11432.13198859,E,0.187,188.4,051224,3.4,W,D*2C
$GNVTG,192.412,T,195.845,M,0.05979,N,0.11072,K,D*36
$GNHDT,212.5123,T*1F
$GPGGA,075208.00,2234.24157579,N,11432.13198782,E,4,22,0.7,0.9561,M,-1.3345,M,01,0000*72
$GPRMC,075208.00,A,2234.24157579,N,11432.13198782,E,0.060,192.4,051224,3.4,W,D*26
$GNVTG,37.220,T,40.653,M,0.11515,N,0.21326,K,D*3D
$GNHDT,213.2873,T*15
$GPGGA,075208.20,2234.24158090,N,11432.13199200,E,4,21,0.7,0.9619,M,-1.3345,M,01,0000*7C
$GPRMC,075208.20,A,2234.24158090,N,11432.13199200,E,0.115,37.2,051224,3.4,W,D*1C
$GNVTG,311.575,T,315.009,M,0.09305,N,0.17232,K,D*38
$GNHDT,213.4136,T*1B
$GPGGA,075208.40,2234.24158435,N,11432.13198782,E,4,20,0.7,0.9165,M,-1.3345,M,01,0000*72
$GPRMC,075208.40,A,2234.24158435,N,11432.13198782,E,0.093,311.6,051224,3.4,W,D*23
$GNVTG,323.822,T,327.256,M,0.12487,N,0.23125,K,D*3A
$GNHDT,213.4274,T*1E
$GPGGA,075208.60,2234.24158997,N,11432.13198340,E,4,20,0.7,0.9055,M,-1.3345,M,01,0000*7D
$GPRMC,075208.60,A,2234.24158997,N,11432.13198340,E,0.125,323.8,051224,3.4,W,D*2D
$GNVTG,334.507,T,337.940,M,0.05165,N,0.09566,K,D*3F
$GNHDT,213.2447,T*1E
$GPGGA,075208.80,2234.24159256,N,11432.13198206,E,4,20,0.7,0.8725,M,-1.3345,M,00,0000*77
$GPRMC,075208.80,A,2234.24159256,N,11432.13198206,E,0.052,334.5,051224,3.4,W,D*2D
$GNVTG,185.352,T,188.786,M,0.07462,N,0.13820,K,D*37
$GNHDT,213.0894,T*1E
$GPGGA,075209.00,2234.24158842,N,11432.13198164,E,4,21,0.7,0.8777,M,-1.3345,M,01,0000*70
$GPRMC,075209.00,A,2234.24158842,N,11432.13198164,E,0.075,185.4,051224,3.4,W,D*21
$GNVTG,205.781,T,209.214,M,0.31490,N,0.58320,K,D*3E
$GNHDT,212.7937,T*10
$GPGGA,075209.20,2234.24157262,N,11432.13197342,E,4,21,0.7,0.8850,M,-1.3345,M,01,0000*76
$GPRMC,075209.20,A,2234.24157262,N,11432.13197342,E,0.315,205.8,051224,3.4,W,D*2F
$GNVTG,186.207,T,189.640,M,0.26559,N,0.49187,K,D*3E
$GNHDT,212.9678,T*1A
$GPGGA,075209.40,2234.24155790,N,11432.13197170,E,4,20,0.7,0.9003,M,-1.3345,M,01,0000*77
$GPRMC,075209.40,A,2234.24155790,N,11432.13197170,E,0.266,186.2,051224,3.4,W,D*27
$GNVTG,177.531,T,180.965,M,0.18435,N,0.34142,K,D*36
$GNHDT,213.1631,T*1E
$GPGGA,075209.60,2234.24154763,N,11432.13197217,E,4,20,0.7,0.9217,M,-1.3345,M,00,0000*7C
$GPRMC,075209.60,A,2234.24154763,N,11432.13197217,E,0.184,177.5,051224,3.4,W,D*2C
$GNVTG,86.127,T,89.560,M,0.09184,N,0.17008,K,D*3A
$GNHDT,213.1596,T*10
$GPGGA,075209.80,2234.24154797,N,11432.13197767,E,4,20,0.7,0.9319,M,-1.3345,M,00,0000*74
$GPRMC,075209.80,A,2234.24154797,N,11432.13197767,E,0.092,86.1,051224,3.4,W,D*16
$GNVTG,80.789,T,84.222,M,0.05597,N,0.10365,K,D*37
$GNHDT,213.4655,T*19
$GPGGA,075210.00,2234.24154847,N,11432.13198099,E,4,20,0.7,0.9319,M,-1.3345,M,01,0000*7E
$GPRMC,075210.00,A,2234.24154847,N,11432.13198099,E,0.056,80.8,051224,3.4,W,D*1A
$GNVTG,43.429,T,46.863,M,0.21274,N,0.39400,K,D*33
$GNHDT,213.7994,T*18
$GPGGA,075210.20,2234.24155709,N,11432.13198977,E,4,20,0.7,0.8803,M,-1.3345,M,01,0000*70
$GPRMC,075210.20,A,2234.24155709,N,11432.13198977,E,0.213,43.4,051224,3.4,W,D*15
$GNVTG,30.922,T,34.355,M,0.16486,N,0.30532,K,D*3C
$GNHDT,213.7530,T*1A
$GPGGA,075210.40,2234.24156497,N,11432.13199485,E,4,20,0.7,0.8567,M,-1.3345,M,01,0000*7F
$GPRMC,075210.40,A,2234.24156497,N,11432.13199485,E,0.165,30.9,051224,3.4,W,D*1E
$GNVTG,35.967,T,39.400,M,0.07557,N,0.13995,K,D*3F
$GNHDT,213.5032,T*1F
$GPGGA,075210.60,2234.24156838,N,11432.13199752,E,4,20,0.7,0.8883,M,-1.3345,M,01,0000*7A
$GPRMC,075210.60,A,2234.24156838,N,11432.13199752,E,0.076,36.0,051224,3.4,W,D*10
$GNVTG,137.558,T,140.992,M,0.09478,N,0.17553,K,D*35
$GNHDT,213.6795,T*16
$GPGGA,075210.80,2234.24156448,N,11432.13200136,E,4,20,0.7,0.8776,M,-1.3345,M,01,0000*7D
$GPRMC,075210.80,A,2234.24156448,N,11432.13200136,E,0.095,137.6,051224,3.4,W,D*29
$GNVTG,188.110,T,191.543,M,0.20702,N,0.38339,K,D*37
$GNHDT,213.6601,T*1A
$GPGGA,075211.00,2234.24155306,N,11432.13199961,E,4,22,0.7,0.8939,M,-1.3345,M,02,0000*77
$GPRMC,075211.00,A,2234.24155306,N,11432.13199961,E,0.207,188.1,051224,3.4,W,D*2D
$GNVTG,192.089,T,195.522,M,0.38790,N,0.71839,K,D*3A
$GNHDT,213.6187,T*13
$GPGGA,075211.20,2234.24153191,N,11432.13199473,E,4,22,0.7,0.8790,M,-1.3345,M,02,0000*7C
$GPRMC,075211.20,A,2234.24153191,N,11432.13199473,E,0.388,192.1,051224,3.4,W,D*26
$GNVTG,178.867,T,182.301,M,0.10980,N,0.20335,K,D*31
$GNHDT,213.4877,T*17
$GPGGA,075211.40,2234.24152579,N,11432.13199486,E,4,22,0.7,0.8774,M,-1.3345,M,02,0000*79
$GPRMC,075211.40,A,2234.24152579,N,11432.13199486,E,0.110,178.9,051224,3.4,W,D*26
$GNVTG,97.732,T,101.165,M,0.04105,N,0.07602,K,D*01
$GNHDT,213.6591,T*10
$GPGGA,075211.60,2234.24152548,N,11432.13199730,E,4,22,0.7,0.8597,M,-1.3345,M,00,0000*7A
$GPRMC,075211.60,A,2234.24152548,N,11432.13199730,E,0.041,97.7,051224,3.4,W,D*13
$GNVTG,39.866,T,43.300,M,0.25537,N,0.47294,K,D*34
$GNHDT,213.9160,T*15
$GPGGA,075211.80,2234.24153641,N,11432.13200713,E,4,22,0.7,0.8581,M,-1.3345,M,00,0000*7A
$GPRMC,075211.80,A,2234.24153641,N,11432.13200713,E,0.255,39.9,051224,3.4,W,D*19
$GNVTG,29.767,T,33.201,M,0.34971,N,0.64766,K,D*3B
$GNHDT,214.1541,T*1D
$GPGGA,075212.00,2234.24155333,N,11432.13201755,E,4,21,0.7,0.8371,M,-1.3345,M,01,0000*7F
$GPRMC,075212.00,A,2234.24155333,N,11432.13201755,E,0.350,29.8,051224,3.4,W,D*13
$GNVTG,23.008,T,26.442,M,0.17279,N,0.32002,K,D*3E
$GNHDT,213.9824,T*1C
$GPGGA,075212.20,2234.24156220,N,11432.13202160,E,4,21,0.7,0.8442,M,-1.3345,M,01,0000*79
$GPRMC,075212.20,A,2234.24156220,N,11432.13202160,E,0.173,23.0,051224,3.4,W,D*13
$GNVTG,67.196,T,70.630,M,0.18894,N,0.34992,K,D*3C
$GNHDT,214.3557,T*18
$GPGGA,075212.40,2234.24156628,N,11432.13203206,E,4,21,0.7,0.8177,M,-1.3345,M,01,0000*72
$GPRMC,075212.40,A,2234.24156628,N,11432.13203206,E,0.189,67.2,051224,3.4,W,D*1C
$GNVTG,92.882,T,96.315,M,0.14291,N,0.26468,K,D*38
$GNHDT,214.2987,T*18
$GPGGA,075212.60,2234.24156588,N,11432.13204063,E,4,21,0.7,0.8387,M,-1.3345,M,01,0000*72
$GPRMC,075212.60,A,2234.24156588,N,11432.13204063,E,0.143,92.9,051224,3.4,W,D*16
$GNVTG,145.845,T,149.278,M,0.09778,N,0.18109,K,D*30
$GNHDT,213.9562,T*13
$GPGGA,075212.80,2234.24156137,N,11432.13204392,E,4,21,0.7,0.8532,M,-1.3345,M,00,0000*78
$GPRMC,075212.80,A,2234.24156137,N,11432.13204392,E,0.098,145.8,051224,3.4,W,D*28
$GNVTG,111.332,T,114.765,M,0.21746,N,0.40274,K,D*38
$GNHDT,214.5147,T*1B
$GPGGA,075213.00,2234.24155696,N,11432.13205608,E,4,21,0.7,0.8553,M,-1.3345,M,01,0000*7F
$GPRMC,075213.00,A,2234.24155696,N,11432.13205608,E,0.217,111.3,051224,3.4,W,D*26
$GNVTG,136.101,T,139.535,M,0.04576,N,0.08474,K,D*3B
$GNHDT,214.5334,T*1D
$GPGGA,075213.20,2234.24155512,N,11432.13205798,E,4,21,0.7,0.8558,M,-1.3345,M,01,0000*71
$GPRMC,075213.20,A,2234.24155512,N,11432.13205798,E,0.046,136.1,051224,3.4,W,D*22
$GNVTG,65.046,T,68.479,M,0.22071,N,0.40875,K,D*35
$GNHDT,214.6186,T*15
$GPGGA,075213.40,2234.24156031,N,11432.13207000,E,4,21,0.7,0.8542,M,-1.3345,M,01,0000*7F
$GPRMC,075213.40,A,2234.24156031,N,11432.13207000,E,0.221,65.0,051224,3.4,W,D*12
$GNVTG,65.495,T,68.929,M,0.16077,N,0.29774,K,D*37
$GNHDT,214.9162,T*10
$GPGGA,075213.60,2234.24156403,N,11432.13207878,E,4,21,0.7,0.8472,M,-1.3345,M,00,0000*7C
$GPRMC,075213.60,A,2234.24156403,N,11432.13207878,E,0.161,65.5,051224,3.4,W,D*10
$GNVTG,43.545,T,46.979,M,0.24238,N,0.44889,K,D*38
$GNHDT,215.0089,T*1C
$GPGGA,075213.80,2234.24157383,N,11432.13208880,E,4,21,0.7,0.8754,M,-1.3345,M,00,0000*73
$GPRMC,075213.80,A,2234.24157383,N,11432.13208880,E,0.242,43.5,051224,3.4,W,D*1E
$GNVTG,69.148,T,72.582,M,0.22904,N,0.42417,K,D*39
$GNHDT,215.0516,T*1F
$GPGGA,075214.00,2234.24157837,N,11432.13210165,E,4,20,0.7,0.8633,M,-1.3345,M,01,0000*73
$GPRMC,075214.00,A,2234.24157837,N,11432.13210165,E,0.229,69.1,051224,3.4,W,D*1F
$GNVTG,48.809,T,52.243,M,0.16999,N,0.31482,K,D*35
$GNHDT,214.8928,T*17
$GPGGA,075214.20,2234.24158461,N,11432.13210933,E,4,20,0.7,0.8411,M,-1.3345,M,01,0000*78
$GPRMC,075214.20,A,2234.24158461,N,11432.13210933,E,0.170,48.8,051224,3.4,W,D*13
$GNVTG,159.397,T,162.831,M,0.15066,N,0.27901,K,D*3E
$GNHDT,215.0823,T*14
$GPGGA,075214.40,2234.24157675,N,11432.13211251,E,4,20,0.7,0.8456,M,-1.3345,M,01,0000*7B
$GPRMC,075214.40,A,2234.24157675,N,11432.13211251,E,0.151,159.4,051224,3.4,W,D*2D
$GNVTG,180.816,T,184.249,M,0.05930,N,0.10982,K,D*31
$GNHDT,214.9903,T*1F
$GPGGA,075214.60,2234.24157344,N,11432.13211246,E,4,20,0.7,0.8391,M,-1.3345,M,01,0000*74
$GPRMC,075214.60,A,2234.24157344,N,11432.13211246,E,0.059,180.8,051224,3.4,W,D*2F
$GNVTG,186.206,T,189.640,M,0.07789,N,0.14425,K,D*36
$GNHDT,215.2873,T*13
$GPGGA,075214.80,2234.24156913,N,11432.13211195,E,4,20,0.7,0.8416,M,-1.3345,M,00,0000*77
$GPRMC,075214.80,A,2234.24156913,N,11432.13211195,E,0.078,186.2,051224,3.4,W,D*2A
$GNVTG,36.996,T,40.430,M,0.14066,N,0.26050,K,D*3C
$GNHDT,215.5918,T*18
$GPGGA,075215.00,2234.24157539,N,11432.13211703,E,4,20,0.7,0.8351,M,-1.3345,M,01,0000*77
$GPRMC,075215.00,A,2234.24157539,N,11432.13211703,E,0.141,37.0,051224,3.4,W,D*1D
$GNVTG,22.880,T,26.314,M,0.13923,N,0.25786,K,D*3E
$GNHDT,215.6656,T*1E
$GPGGA,075215.20,2234.24158254,N,11432.13212028,E,4,20,0.7,0.8854,M,-1.3345,M,01,0000*75
$GPRMC,075215.20,A,2234.24158254,N,11432.13212028,E,0.139,22.9,051224,3.4,W,D*13
$GNVTG,328.772,T,332.206,M,0.04254,N,0.07879,K,D*33
$GNHDT,215.5865,T*13
$GPGGA,075215.40,2234.24158457,N,11432.13211896,E,4,20,0.7,0.8718,M,-1.3345,M,01,0000*7F
$GPRMC,075215.40,A,2234.24158457,N,11432.13211896,E,0.043,328.8,051224,3.4,W,D*2A
$GNVTG,188.921,T,192.354,M,0.09932,N,0.18394,K,D*3D
$GNHDT,215.7927,T*16
$GPGGA,075215.60,2234.24157910,N,11432.13211803,E,4,20,0.7,0.8959,M,-1.3345,M,01,0000*7B
$GPRMC,075215.60,A,2234.24157910,N,11432.13211803,E,0.099,188.9,051224,3.4,W,D*2B
$GNVTG,169.119,T,172.553,M,0.13686,N,0.25346,K,D*34
$GNHDT,216.2092,T*17
$GPGGA,075215.80,2234.24157161,N,11432.13211959,E,4,20,0.7,0.9223,M,-1.3345,M,00,0000*73
$GPRMC,075215.80,A,2234.24157161,N,11432.13211959,E,0.137,169.1,051224,3.4,W,D*27
$GNVTG,216.163,T,219.596,M,0.27605,N,0.51124,K,D*3C
$GNHDT,215.9516,T*16
$GPGGA,075216.00,2234.24155918,N,11432.13210981,E,4,20,0.7,0.9747,M,-1.3345,M,01,0000*7E
$GPRMC,075216.00,A,2234.24155918,N,11432.13210981,E,0.276,216.2,051224,3.4,W,D*22
$GNVTG,221.528,T,224.962,M,0.18738,N,0.34703,K,D*39
$GNHDT,215.9610,T*13
$GPGGA,075216.20,2234.24155136,N,11432.13210235,E,4,20,0.7,0.9202,M,-1.3345,M,01,0000*78
$GPRMC,075216.20,A,2234.24155136,N,11432.13210235,E,0.187,221.5,051224,3.4,W,D*2E
$GNVTG,180.560,T,183.994,M,0.08336,N,0.15439,K,D*38
$GNHDT,216.3658,T*16
$GPGGA,075216.40,2234.24154672,N,11432.13210230,E,4,21,0.7,0.9256,M,-1.3345,M,01,0000*7D
$GPRMC,075216.40,A,2234.24154672,N,11432.13210230,E,0.083,180.6,051224,3.4,W,D*25
$GNVTG,222.772,T,226.206,M,0.02517,N,0.04661,K,D*3E
$GNHDT,216.2834,T*13
$GPGGA,075216.60,2234.24154569,N,11432.13210128,E,4,21,0.7,0.9008,M,-1.3345,M,01,0000*75
$GPRMC,075216.60,A,2234.24154569,N,11432.13210128,E,0.025,222.8,051224,3.4,W,D*2D
$GNVTG,341.572,T,345.006,M,0.01914,N,0.03545,K,D*30
$GNHDT,216.3247,T*1C
$GPGGA,075216.80,2234.24154670,N,11432.13210091,E,4,21,0.7,0.9036,M,-1.3345,M,00,0000*7F
$GPRMC,075216.80,A,2234.24154670,N,11432.13210091,E,0.019,341.6,051224,3.4,W,D*2E
$GNVTG,207.189,T,210.623,M,0.13231,N,0.24504,K,D*3C
$GNHDT,216.2417,T*1E
$GPGGA,075217.00,2234.24154014,N,11432.13209728,E,4,21,0.7,0.8873,M,-1.3345,M,01,0000*76
$GPRMC,075217.00,A,2234.24154014,N,11432.13209728,E,0.132,207.2,051224,3.4,W,D*21
$GNVTG,197.457,T,200.890,M,0.27958,N,0.51778,K,D*3F
$GNHDT,216.2710,T*1A
$GPGGA,075217.20,2234.24152527,N,11432.13209225,E,4,21,0.7,0.8733,M,-1.3345,M,01,0000*74
$GPRMC,075217.20,A,2234.24152527,N,11432.13209225,E,0.280,197.5,051224,3.4,W,D*2F
$GNVTG,197.922,T,201.356,M,0.19325,N,0.35789,K,D*31
$GNHDT,216.2373,T*1B
$GPGGA,075217.40,2234.24151502,N,11432.13208868,E,4,21,0.7,0.8939,M,-1.3345,M,01,0000*70
$GPRMC,075217.40,A,2234.24151502,N,11432.13208868,E,0.193,197.9,051224,3.4,W,D*22
$GNVTG,194.246,T,197.680,M,0.22240,N,0.41188,K,D*37
$GNHDT,216.3579,T*16
$GPGGA,075217.60,2234.24150300,N,11432.13208539,E,4,21,0.7,0.9258,M,-1.3345,M,01,0000*73
$GPRMC,075217.60,A,2234.24150300,N,11432.13208539,E,0.222,194.2,051224,3.4,W,D*2D
$GNVTG,166.889,T,170.323,M,0.08046,N,0.14902,K,D*30
$GNHDT,216.2131,T*1F
$GPGGA,075217.80,2234.24149863,N,11432.13208649,E,4,21,0.7,0.8853,M,-1.3345,M,00,0000*7E
$GPRMC,075217.80,A,2234.24149863,N,11432.13208649,E,0.080,166.9,051224,3.4,W,D*2D
$GNVTG,80.974,T,84.407,M,0.21897,N,0.40554,K,D*30
$GNHDT,216.6043,T*1F
$GPGGA,075218.00,2234.24150055,N,11432.13209947,E,4,21,0.7,0.8769,M,-1.3345,M,01,0000*7B
$GPRMC,075218.00,A,2234.24150055,N,11432.13209947,E,0.219,81.0,051224,3.4,W,D*1C
$GNVTG,9.146,T,12.580,M,0.14362,N,0.26598,K,D*0E
$GNHDT,216.1115,T*1A
$GPGGA,075218.20,2234.24150845,N,11432.13210084,E,4,20,0.7,0.8594,M,-1.3345,M,01,0000*7F
$GPRMC,075218.20,A,2234.24150845,N,11432.13210084,E,0.144,9.1,051224,3.4,W,D*23
$GNVTG,89.317,T,92.751,M,0.19540,N,0.36188,K,D*39
$GNHDT,216.6959,T*1D
$GPGGA,075218.40,2234.24150858,N,11432.13211257,E,4,20,0.7,0.8400,M,-1.3345,M,01,0000*74
$GPRMC,075218.40,A,2234.24150858,N,11432.13211257,E,0.195,89.3,051224,3.4,W,D*12
$GNVTG,72.855,T,76.289,M,0.15117,N,0.27997,K,D*36
$GNHDT,216.3222,T*1F
$GPGGA,075218.60,2234.24151107,N,11432.13212124,E,4,20,0.7,0.8512,M,-1.3345,M,01,0000*72
$GPRMC,075218.60,A,2234.24151107,N,11432.13212124,E,0.151,72.9,051224,3.4,W,D*10
$GNVTG,144.820,T,148.254,M,0.18490,N,0.34244,K,D*3C
$GNHDT,216.3813,T*17
$GPGGA,075218.80,2234.24150264,N,11432.13212764,E,4,20,0.7,0.8690,M,-1.3345,M,00,0000*71
$GPRMC,075218.80,A,2234.24150264,N,11432.13212764,E,0.185,144.8,051224,3.4,W,D*27
$GNVTG,185.496,T,188.930,M,0.20880,N,0.38670,K,D*3C
$GNHDT,215.9833,T*1C
$GPGGA,075219.00,2234.24149106,N,11432.13212644,E,4,20,0.7,0.9084,M,-1.3345,M,01,0000*77
$GPRMC,075219.00,A,2234.24149106,N,11432.13212644,E,0.209,185.5,051224,3.4,W,D*25
$GNVTG,172.697,T,176.130,M,0.20947,N,0.38794,K,D*3F
$GNHDT,216.3616,T*1C
$GPGGA,075219.20,2234.24147947,N,11432.13212803,E,4,20,0.7,0.9084,M,-1.3345,M,01,0000*7B
$GPRMC,075219.20,A,2234.24147947,N,11432.13212803,E,0.209,172.7,051224,3.4,W,D*23
$GNVTG,166.560,T,169.994,M,0.10387,N,0.19237,K,D*33
$GNHDT,216.1441,T*1E
$GPGGA,075219.40,2234.24147384,N,11432.13212948,E,4,21,0.7,0.8908,M,-1.3345,M,01,0000*7B
$GPRMC,075219.40,A,2234.24147384,N,11432.13212948,E,0.104,166.6,051224,3.4,W,D*24
$GNVTG,48.320,T,51.754,M,0.10761,N,0.19930,K,D*34
$GNHDT,216.0587,T*14
$GPGGA,075219.60,2234.24147783,N,11432.13213431,E,4,21,0.7,0.8902,M,-1.3345,M,01,0000*72
$GPRMC,075219.60,A,2234.24147783,N,11432.13213431,E,0.108,48.3,051224,3.4,W,D*13
$GNVTG,57.574,T,61.008,M,0.13114,N,0.24287,K,D*3E
$GNHDT,216.1994,T*1B
$GPGGA,075219.80,2234.24148175,N,11432.13214095,E,4,21,0.7,0.8895,M,-1.3345,M,00,0000*7F
$GPRMC,075219.80,A,2234.24148175,N,11432.13214095,E,0.131,57.6,051224,3.4,W,D*11
$GNVTG,45.972,T,49.405,M,0.16642,N,0.30821,K,D*36
$GNHDT,216.3060,T*1B
$GPGGA,075220.00,2234.24148820,N,11432.13214813,E,4,21,0.7,0.8572,M,-1.3345,M,01,0000*77
$GPRMC,075220.00,A,2234.24148820,N,11432.13214813,E,0.166,46.0,051224,3.4,W,D*18
$GNVTG,110.813,T,114.246,M,0.08506,N,0.15753,K,D*38
$GNHDT,216.4400,T*1E
$GPGGA,075220.20,2234.24148651,N,11432.13215291,E,4,20,0.7,0.8768,M,-1.3345,M,01,0000*74
$GPRMC,075220.20,A,2234.24148651,N,11432.13215291,E,0.085,110.8,051224,3.4,W,D*25
$GNVTG,154.725,T,158.159,M,0.09552,N,0.17690,K,D*3B
$GNHDT,216.6140,T*1D
$GPGGA,075220.40,2234.24148170,N,11432.13215535,E,4,20,0.7,0.9036,M,-1.3345,M,01,0000*72
$GPRMC,075220.40,A,2234.24148170,N,11432.13215535,E,0.096,154.7,051224,3.4,W,D*23
$GNVTG,190.360,T,193.793,M,0.27954,N,0.51770,K,D*3A
$GNHDT,216.7935,T*16
$GPGGA,075220.60,2234.24146637,N,11432.13215234,E,4,20,0.7,0.9201,M,-1.3345,M,00,0000*7B
$GPRMC,075220.60,A,2234.24146637,N,11432.13215234,E,0.280,190.4,051224,3.4,W,D*23
$GNVTG,192.495,T,195.928,M,0.26966,N,0.49941,K,D*38
$GNHDT,216.9396,T*1B
$GPGGA,075220.80,2234.24145169,N,11432.13214884,E,4,20,0.7,0.9297,M,-1.3345,M,00,0000*75
$GPRMC,075220.80,A,2234.24145169,N,11432.13214884,E,0.270,192.5,051224,3.4,W,D*2E
$GNVTG,175.763,T,179.197,M,0.07137,N,0.13218,K,D*32
$GNHDT,216.8107,T*10
$GPGGA,075221.00,2234.24144773,N,11432.13214915,E,4,20,0.7,0.9546,M,-1.3345,M,01,0000*73
$GPRMC,075221.00,A,2234.24144773,N,11432.13214915,E,0.071,175.8,051224,3.4,W,D*25
$GNVTG,8.902,T,12.335,M,0.05129,N,0.09499,K,D*0F
$GNHDT,216.6698,T*1F
$GPGGA,075221.20,2234.24145055,N,11432.13214963,E,4,21,0.7,0.8679,M,-1.3345,M,01,0000*7D
$GPRMC,075221.20,A,2234.24145055,N,11432.13214963,E,0.051,8.9,051224,3.4,W,D*2C
$GNVTG,23.411,T,26.845,M,0.10987,N,0.20349,K,D*3B
$GNHDT,215.9903,T*1E
$GPGGA,075221.40,2234.24145617,N,11432.13215225,E,4,20,0.7,0.8564,M,-1.3345,M,01,0000*7D
$GPRMC,075221.40,A,2234.24145617,N,11432.13215225,E,0.110,23.4,051224,3.4,W,D*12
$GNVTG,75.049,T,78.483,M,0.11499,N,0.21296,K,D*3D
$GNHDT,216.1817,T*11
$GPGGA,075221.60,2234.24145782,N,11432.13215892,E,4,20,0.7,0.8065,M,-1.3345,M,00,0000*71
$GPRMC,075221.60,A,2234.24145782,N,11432.13215892,E,0.115,75.0,051224,3.4,W,D*19
$GNVTG,70.638,T,74.071,M,0.15119,N,0.28001,K,D*31
$GNHDT,216.3328,T*14
$GPGGA,075221.80,2234.24146062,N,11432.13216748,E,4,20,0.7,0.7989,M,-1.3345,M,00,0000*7A
$GPRMC,075221.80,A,2234.24146062,N,11432.13216748,E,0.151,70.6,051224,3.4,W,D*15
$GNVTG,155.455,T,158.889,M,0.12579,N,0.23296,K,D*3C
$GNHDT,216.7832,T*10
$GPGGA,075222.00,2234.24145424,N,11432.13217062,E,4,20,0.7,0.7955,M,-1.3345,M,01,0000*7A
$GPRMC,075222.00,A,2234.24145424,N,11432.13217062,E,0.126,155.5,051224,3.4,W,D*20
$GNVTG,227.336,T,230.770,M,0.08267,N,0.15311,K,D*34
$GNHDT,216.6492,T*17
$GPGGA,075222.20,2234.24145112,N,11432.13216697,E,4,20,0.7,0.8291,M,-1.3345,M,01,0000*79
$GPRMC,075222.20,A,2234.24145112,N,11432.13216697,E,0.083,227.3,051224,3.4,W,D*21
$GNVTG,107.881,T,111.314,M,0.12544,N,0.23232,K,D*3C
$GNHDT,217.2939,T*1E
$GPGGA,075222.40,2234.24144897,N,11432.13217413,E,4,21,0.7,0.8285,M,-1.3345,M,01,0000*71
$GPRMC,075222.40,A,2234.24144897,N,11432.13217413,E,0.125,107.9,051224,3.4,W,D*2B
$GNVTG,67.208,T,70.642,M,0.08996,N,0.16660,K,D*3D
$GNHDT,217.1484,T*16
$GPGGA,075222.60,2234.24145091,N,11432.13217911,E,4,21,0.7,0.8514,M,-1.3345,M,01,0000*7C
$GPRMC,075222.60,A,2234.24145091,N,11432.13217911,E,0.090,67.2,051224,3.4,W,D*1A
$GNVTG,23.858,T,27.292,M,0.14391,N,0.26653,K,D*3A
$GNHDT,216.5382,T*12
$GPGGA,075222.80,2234.24145825,N,11432.13218261,E,4,21,0.7,0.8343,M,-1.3345,M,00,0000*73
$GPRMC,075222.80,A,2234.24145825,N,11432.13218261,E,0.144,23.9,051224,3.4,W,D*13
$GNVTG,34.542,T,37.976,M,0.14487,N,0.26831,K,D*30
$GNHDT,216.1777,T*18
$GPGGA,075223.00,2234.24146490,N,11432.13218754,E,4,21,0.7,0.8317,M,-1.3345,M,01,0000*78
$GPRMC,075223.00,A,2234.24146490,N,11432.13218754,E,0.145,34.5,051224,3.4,W,D*13
$GNVTG,52.704,T,56.138,M,0.12154,N,0.22509,K,D*3A
$GNHDT,216.3886,T*1B
$GPGGA,075223.20,2234.24146901,N,11432.13219334,E,4,21,0.7,0.8158,M,-1.3345,M,01,0000*75
$GPRMC,075223.20,A,2234.24146901,N,11432.13219334,E,0.122,52.7,051224,3.4,W,D*14
$GNVTG,81.358,T,84.792,M,0.04321,N,0.08003,K,D*30
$GNHDT,216.3539,T*12
$GPGGA,075223.40,2234.24146937,N,11432.13219590,E,4,21,0.7,0.8083,M,-1.3345,M,01,0000*79
$GPRMC,075223.40,A,2234.24146937,N,11432.13219590,E,0.043,81.4,051224,3.4,W,D*14
$GNVTG,74.818,T,78.252,M,0.12149,N,0.22501,K,D*3B
$GNHDT,216.8139,T*1D
$GPGGA,075223.60,2234.24147114,N,11432.13220294,E,4,21,0.7,0.8337,M,-1.3345,M,01,0000*76
$GPRMC,075223.60,A,2234.24147114,N,11432.13220294,E,0.121,74.8,051224,3.4,W,D*14
$GNVTG,55.043,T,58.477,M,0.02706,N,0.05011,K,D*30
$GNHDT,216.7633,T*1F
$GPGGA,075223.80,2234.24147201,N,11432.13220427,E,4,21,0.7,0.8832,M,-1.3345,M,01,0000*7F
$GPRMC,075223.80,A,2234.24147201,N,11432.13220427,E,0.027,55.0,051224,3.4,W,D*1F
$GNVTG,82.507,T,85.941,M,0.09923,N,0.18378,K,D*35
$GNHDT,217.1623,T*19
$GPGGA,075224.00,2234.24147273,N,11432.13221018,E,4,21,0.7,0.8828,M,-1.3345,M,02,0000*74
$GPRMC,075224.00,A,2234.24147273,N,11432.13221018,E,0.099,82.5,051224,3.4,W,D*16
$GNVTG,101.160,T,104.594,M,0.01797,N,0.03328,K,D*30
$GNHDT,217.3125,T*1A
$GPGGA,075224.20,2234.24147254,N,11432.13221124,E,4,21,0.7,0.8996,M,-1.3345,M,02,0000*79
$GPRMC,075224.20,A,2234.24147254,N,11432.13221124,E,0.018,101.2,051224,3.4,W,D*2B
$GNVTG,57.389,T,60.823,M,0.00888,N,0.01644,K,D*38
$GNHDT,217.0913,T*14
$GPGGA,075224.40,2234.24147280,N,11432.13221169,E,4,21,0.7,0.9295,M,-1.3345,M,02,0000*76
$GPRMC,075224.40,A,2234.24147280,N,11432.13221169,E,0.009,57.4,051224,3.4,W,D*19
$GNVTG,230.149,T,233.582,M,0.04572,N,0.08468,K,D*3E
$GNHDT,216.9619,T*19
$GPGGA,075224.60,2234.24147117,N,11432.13220958,E,4,21,0.7,0.9327,M,-1.3345,M,02,0000*7A
$GPRMC,075224.60,A,2234.24147117,N,11432.13220958,E,0.046,230.1,051224,3.4,W,D*20
$GNVTG,209.881,T,213.315,M,0.19582,N,0.36267,K,D*34
$GNHDT,216.8509,T*1A
$GPGGA,075224.80,2234.24146170,N,11432.13220372,E,4,20,0.7,0.9539,M,-1.3345,M,00,0000*7C
$GPRMC,075224.80,A,2234.24146170,N,11432.13220372,E,0.196,209.9,051224,3.4,W,D*22
$GNVTG,225.092,T,228.525,M,0.14674,N,0.27176,K,D*39
$GNHDT,216.8608,T*18
$GPGGA,075225.00,2234.24145593,N,11432.13219749,E,4,20,0.7,0.9749,M,-1.3345,M,01,0000*7D
$GPRMC,075225.00,A,2234.24145593,N,11432.13219749,E,0.147,225.1,051224,3.4,W,D*2D
$GNVTG,206.882,T,210.315,M,0.17985,N,0.33309,K,D*32
$GNHDT,216.8821,T*1D
$GPGGA,075225.20,2234.24144699,N,11432.13219260,E,4,20,0.7,0.9341,M,-1.3345,M,01,0000*75
$GPRMC,075225.20,A,2234.24144699,N,11432.13219260,E,0.180,206.9,051224,3.4,W,D*2B
$GNVTG,172.738,T,176.172,M,0.17399,N,0.32223,K,D*33
$GNHDT,217.0862,T*13
$GPGGA,075225.40,2234.24143736,N,11432.13219392,E,4,20,0.7,0.9140,M,-1.3345,M,01,0000*7F
$GPRMC,075225.40,A,2234.24143736,N,11432.13219392,E,0.174,172.7,051224,3.4,W,D*27
$GNVTG,146.803,T,150.236,M,0.12262,N,0.22710,K,D*30
$GNHDT,217.4627,T*18
$GPGGA,075225.60,2234.24143164,N,11432.13219795,E,4,20,0.7,0.9192,M,-1.3345,M,01,0000*70
$GPRMC,075225.60,A,2234.24143164,N,11432.13219795,E,0.123,146.8,051224,3.4,W,D*2D
$GNVTG,6.499,T,9.933,M,0.09559,N,0.17704,K,D*3F
$GNHDT,216.9487,T*1C
$GPGGA,075225.80,2234.24143694,N,11432.13219860,E,4,20,0.7,0.9478,M,-1.3345,M,00,0000*73
$GPRMC,075225.80,A,2234.24143694,N,11432.13219860,E,0.096,6.5,051224,3.4,W,D*29
$GNVTG,250.775,T,254.208,M,0.07884,N,0.14602,K,D*31
$GNHDT,217.0250,T*18
$GPGGA,075226.00,2234.24143549,N,11432.13219414,E,4,20,0.7,0.9197,M,-1.3345,M,01,0000*71
$GPRMC,075226.00,A,2234.24143549,N,11432.13219414,E,0.079,250.8,051224,3.4,W,D*23
$GNVTG,256.040,T,259.474,M,0.19574,N,0.36252,K,D*3A
$GNHDT,217.0522,T*1A
$GPGGA,075226.20,2234.24143286,N,11432.13218273,E,4,20,0.7,0.8942,M,-1.3345,M,01,0000*70
$GPRMC,075226.20,A,2234.24143286,N,11432.13218273,E,0.196,256.0,051224,3.4,W,D*2D
$GNVTG,199.699,T,203.132,M,0.10688,N,0.19794,K,D*3B
$GNHDT,216.9591,T*1A
$GPGGA,075226.40,2234.24142725,N,11432.13218057,E,4,20,0.7,0.9087,M,-1.3345,M,01,0000*7E
$GPRMC,075226.40,A,2234.24142725,N,11432.13218057,E,0.107,199.7,051224,3.4,W,D*2D
$GNVTG,197.093,T,200.526,M,0.36107,N,0.66870,K,D*32
$GNHDT,217.0559,T*16
$GPGGA,075226.60,2234.24140801,N,11432.13217420,E,4,20,0.7,0.9268,M,-1.3345,M,01,0000*7F
$GPRMC,075226.60,A,2234.24140801,N,11432.13217420,E,0.361,197.1,051224,3.4,W,D*25
$GNVTG,199.214,T,202.648,M,0.27866,N,0.51608,K,D*33
$GNHDT,217.4486,T*11
$GPGGA,075226.80,2234.24139334,N,11432.13216869,E,4,20,0.7,0.9793,M,-1.3345,M,00,0000*72
$GPRMC,075226.80,A,2234.24139334,N,11432.13216869,E,0.279,199.2,051224,3.4,W,D*2D
$GNVTG,253.158,T,256.591,M,0.11170,N,0.20687,K,D*31
$GNHDT,217.1636,T*1D
$GPGGA,075227.00,2234.24139154,N,11432.13216228,E,4,20,0.7,1.0070,M,-1.3345,M,01,0000*73
$GPRMC,075227.00,A,2234.24139154,N,11432.13216228,E,0.112,253.2,051224,3.4,W,D*24
$GNVTG,74.105,T,77.539,M,0.08887,N,0.16459,K,D*30
$GNHDT,217.5610,T*1D
$GPGGA,075227.20,2234.24139289,N,11432.13216741,E,4,20,0.7,0.9005,M,-1.3345,M,01,0000*72
$GPRMC,075227.20,A,2234.24139289,N,11432.13216741,E,0.089,74.1,051224,3.4,W,D*18
$GNVTG,3.910,T,7.344,M,0.26023,N,0.48195,K,D*33
$GNHDT,217.3108,T*15
$GPGGA,075227.40,2234.24140737,N,11432.13216847,E,4,20,0.7,0.8704,M,-1.3345,M,01,0000*74
$GPRMC,075227.40,A,2234.24140737,N,11432.13216847,E,0.260,3.9,051224,3.4,W,D*24
$GNVTG,27.070,T,30.503,M,0.15757,N,0.29182,K,D*3E
$GNHDT,217.0615,T*1D
$GPGGA,075227.60,2234.24141519,N,11432.13217278,E,4,20,0.7,0.8208,M,-1.3345,M,00,0000*76
$GPRMC,075227.60,A,2234.24141519,N,11432.13217278,E,0.158,27.1,051224,3.4,W,D*18
$GNVTG,41.585,T,45.019,M,0.03844,N,0.07119,K,D*39
$GNHDT,216.8573,T*17
$GPGGA,075227.80,2234.24141679,N,11432.13217431,E,4,20,0.7,0.8419,M,-1.3345,M,00,0000*70
$GPRMC,075227.80,A,2234.24141679,N,11432.13217431,E,0.038,41.6,051224,3.4,W,D*18
$GNVTG,198.315,T,201.748,M,0.24263,N,0.44935,K,D*39
$GNHDT,216.6801,T*11
$GPGGA,075228.00,2234.24140395,N,11432.13216973,E,4,20,0.7,0.8577,M,-1.3345,M,01,0000*73
$GPRMC,075228.00,A,2234.24140395,N,11432.13216973,E,0.243,198.3,051224,3.4,W,D*2D
$GNVTG,178.630,T,182.063,M,0.25938,N,0.48038,K,D*3F
$GNHDT,216.9217,T*13
$GPGGA,075228.20,2234.24138949,N,11432.13217010,E,4,20,0.7,0.8658,M,-1.3345,M,01,0000*76
$GPRMC,075228.20,A,2234.24138949,N,11432.13217010,E,0.259,178.6,051224,3.4,W,D*26
$GNVTG,182.140,T,185.574,M,0.16888,N,0.31276,K,D*32
$GNHDT,217.1040,T*1A
$GPGGA,075228.40,2234.24138009,N,11432.13216973,E,4,20,0.7,0.8836,M,-1.3345,M,01,0000*76
$GPRMC,075228.40,A,2234.24138009,N,11432.13216973,E,0.169,182.1,051224,3.4,W,D*22
$GNVTG,54.436,T,57.869,M,0.16664,N,0.30862,K,D*31
$GNHDT,217.6898,T*10
$GPGGA,075228.60,2234.24138549,N,11432.13217786,E,4,20,0.7,0.8909,M,-1.3345,M,01,0000*7D
$GPRMC,075228.60,A,2234.24138549,N,11432.13217786,E,0.167,54.4,051224,3.4,W,D*15
$GNVTG,35.092,T,38.525,M,0.39275,N,0.72737,K,D*30
$GNHDT,217.7882,T*1A
$GPGGA,075228.80,2234.24140340,N,11432.13219142,E,4,20,0.7,0.8642,M,-1.3345,M,00,0000*72
$GPRMC,075228.80,A,2234.24140340,N,11432.13219142,E,0.393,35.1,051224,3.4,W,D*10
$GNVTG,19.936,T,23.369,M,0.28370,N,0.52541,K,D*38
$GNHDT,217.9147,T*14
$GPGGA,075229.00,2234.24141827,N,11432.13219722,E,4,20,0.7,0.8373,M,-1.3345,M,01,0000*76
$GPRMC,075229.00,A,2234.24141827,N,11432.13219722,E,0.284,19.9,051224,3.4,W,D*13
$GNVTG,20.515,T,23.948,M,0.27283,N,0.50528,K,D*39
$GNHDT,217.9186,T*19
$GPGGA,075229.20,2234.24143252,N,11432.13220296,E,4,20,0.7,0.8331,M,-1.3345,M,01,0000*78
$GPRMC,075229.20,A,2234.24143252,N,11432.13220296,E,0.273,20.5,051224,3.4,W,D*15
$GNVTG,259.721,T,263.155,M,0.04215,N,0.07807,K,D*3E
$GNHDT,217.7385,T*16
$GPGGA,075229.40,2234.24143210,N,11432.13220047,E,4,20,0.7,0.8379,M,-1.3345,M,01,0000*7A
$GPRMC,075229.40,A,2234.24143210,N,11432.13220047,E,0.042,259.7,051224,3.4,W,D*25
$GNVTG,210.486,T,213.920,M,0.13675,N,0.25326,K,D*3C
$GNHDT,217.5403,T*1D
$GPGGA,075229.60,2234.24142553,N,11432.13219631,E,4,21,0.7,0.8462,M,-1.3345,M,00,0000*79
$GPRMC,075229.60,A,2234.24142553,N,11432.13219631,E,0.137,210.5,051224,3.4,W,D*27
$GNVTG,190.971,T,194.405,M,0.16585,N,0.30716,K,D*3E
$GNHDT,217.8840,T*1B
$GPGGA,075229.80,2234.24141645,N,11432.13219441,E,4,20,0.7,0.9018,M,-1.3345,M,00,0000*7C
$GPRMC,075229.80,A,2234.24141645,N,11432.13219441,E,0.166,191.0,051224,3.4,W,D*20
$GNVTG,200.114,T,203.548,M,0.10548,N,0.19535,K,D*35
$GNHDT,218.1197,T*1E
$GPGGA,075230.00,2234.24141093,N,11432.13219224,E,4,20,0.7,0.9297,M,-1.3345,M,01,0000*70
$GPRMC,075230.00,A,2234.24141093,N,11432.13219224,E,0.105,200.1,051224,3.4,W,D*27
$GNVTG,47.683,T,51.117,M,0.18166,N,0.33644,K,D*3B
$GNHDT,218.5392,T*1D
$GPGGA,075230.20,2234.24141775,N,11432.13220030,E,4,20,0.7,0.9078,M,-1.3345,M,01,0000*73
$GPRMC,075230.20,A,2234.24141775,N,11432.13220030,E,0.182,47.7,051224,3.4,W,D*1F
$GNVTG,24.124,T,27.557,M,0.15785,N,0.29233,K,D*3C
$GNHDT,218.6919,T*17
$GPGGA,075230.40,2234.24142578,N,11432.13220417,E,4,20,0.7,0.8875,M,-1.3345,M,01,0000*7C
$GPRMC,075230.40,A,2234.24142578,N,11432.13220417,E,0.158,24.1,051224,3.4,W,D*10
$GNVTG,355.777,T,359.211,M,0.13763,N,0.25488,K,D*32
$GNHDT,218.4810,T*1D
$GPGGA,075230.60,2234.24143343,N,11432.13220356,E,4,20,0.7,0.8693,M,-1.3345,M,00,0000*74
$GPRMC,075230.60,A,2234.24143343,N,11432.13220356,E,0.138,355.8,051224,3.4,W,D*25
$GNVTG,24.891,T,28.325,M,0.10393,N,0.19247,K,D*31
$GNHDT,218.4042,T*12
$GPGGA,075230.80,2234.24143869,N,11432.13220619,E,4,20,0.7,0.8787,M,-1.3345,M,00,0000*73
$GPRMC,075230.80,A,2234.24143869,N,11432.13220619,E,0.104,24.9,051224,3.4,W,D*1D
$GNVTG,245.720,T,249.153,M,0.14232,N,0.26357,K,D*35
$GNHDT,218.1712,T*15
$GPGGA,075231.00,2234.24143542,N,11432.13219840,E,4,20,0.7,0.9210,M,-1.3345,M,01,0000*7D
$GPRMC,075231.00,A,2234.24143542,N,11432.13219840,E,0.142,245.7,051224,3.4,W,D*21
$GNVTG,201.091,T,204.524,M,0.34531,N,0.63952,K,D*3D
$GNHDT,218.3677,T*15
$GPGGA,075231.20,2234.24141746,N,11432.13219094,E,4,20,0.7,0.9081,M,-1.3345,M,01,0000*70
$GPRMC,075231.20,A,2234.24141746,N,11432.13219094,E,0.345,201.1,051224,3.4,W,D*25
$GNVTG,250.112,T,253.546,M,0.10724,N,0.19860,K,D*38
$GNHDT,218.4211,T*16
$GPGGA,075231.40,2234.24141543,N,11432.13218489,E,4,20,0.7,0.9327,M,-1.3345,M,01,0000*77
$GPRMC,075231.40,A,2234.24141543,N,11432.13218489,E,0.107,250.1,051224,3.4,W,D*2D
$GNVTG,211.858,T,215.292,M,0.07058,N,0.13072,K,D*3D
$GNHDT,218.8689,T*1F
$GPGGA,075231.60,2234.24141209,N,11432.13218265,E,4,20,0.7,0.9092,M,-1.3345,M,01,0000*75
$GPRMC,075231.60,A,2234.24141209,N,11432.13218265,E,0.071,211.9,051224,3.4,W,D*2F
$GNVTG,15.291,T,18.725,M,0.13028,N,0.24128,K,D*3A
$GNHDT,219.1481,T*1D
$GPGGA,075231.80,2234.24141909,N,11432.13218472,E,4,20,0.7,0.8994,M,-1.3345,M,00,0000*7F
$GPRMC,075231.80,A,2234.24141909,N,11432.13218472,E,0.130,15.3,051224,3.4,W,D*12
$GNVTG,6.970,T,10.403,M,0.19377,N,0.35886,K,D*0D
$GNHDT,219.1199,T*11
$GPGGA,075232.00,2234.24142981,N,11432.13218613,E,4,20,0.7,0.8996,M,-1.3345,M,01,0000*71
$GPRMC,075232.00,A,2234.24142981,N,11432.13218613,E,0.194,7.0,051224,3.4,W,D*21
$GNVTG,330.842,T,334.276,M,0.08741,N,0.16187,K,D*32
$GNHDT,219.0167,T*11
$GPGGA,075232.20,2234.24143407,N,11432.13218357,E,4,20,0.7,0.8567,M,-1.3345,M,01,0000*76
$GPRMC,075232.20,A,2234.24143407,N,11432.13218357,E,0.087,330.8,051224,3.4,W,D*28
$GNVTG,231.558,T,234.992,M,0.13880,N,0.25705,K,D*30
$GNHDT,218.9751,T*1A
$GPGGA,075232.40,2234.24142926,N,11432.13217705,E,4,20,0.7,0.8555,M,-1.3345,M,01,0000*72
$GPRMC,075232.40,A,2234.24142926,N,11432.13217705,E,0.139,231.6,051224,3.4,W,D*27
$GNVTG,215.332,T,218.766,M,0.27798,N,0.51481,K,D*3A
$GNHDT,218.9756,T*1D
$GPGGA,075232.60,2234.24141662,N,11432.13216740,E,4,20,0.7,0.8793,M,-1.3345,M,01,0000*74
$GPRMC,075232.60,A,2234.24141662,N,11432.13216740,E,0.278,215.3,051224,3.4,W,D*2C
$GNVTG,195.015,T,198.449,M,0.21838,N,0.40445,K,D*39
$GNHDT,219.0223,T*12
$GPGGA,075232.80,2234.24140486,N,11432.13216400,E,4,20,0.7,0.8945,M,-1.3345,M,00,0000*70
$GPRMC,075232.80,A,2234.24140486,N,11432.13216400,E,0.218,195.0,051224,3.4,W,D*22
$GNVTG,224.702,T,228.136,M,0.12254,N,0.22695,K,D*3F
$GNHDT,218.8577,T*1D
$GPGGA,075233.00,2234.24140000,N,11432.13215883,E,4,20,0.7,0.9023,M,-1.3345,M,01,0000*7E
$GPRMC,075233.00,A,2234.24140000,N,11432.13215883,E,0.123,224.7,051224,3.4,W,D*20
$GNVTG,53.408,T,56.841,M,0.17043,N,0.31563,K,D*3F
$GNHDT,219.1808,T*10
$GPGGA,075233.20,2234.24140567,N,11432.13216704,E,4,20,0.7,0.8961,M,-1.3345,M,01,0000*75
$GPRMC,075233.20,A,2234.24140567,N,11432.13216704,E,0.170,53.4,051224,3.4,W,D*12
$GNVTG,350.058,T,353.492,M,0.18292,N,0.33877,K,D*31
$GNHDT,219.0711,T*16
$GPGGA,075233.40,2234.24141571,N,11432.13216514,E,4,20,0.7,0.8607,M,-1.3345,M,01,0000*79
$GPRMC,075233.40,A,2234.24141571,N,11432.13216514,E,0.183,350.1,051224,3.4,W,D*28
$GNVTG,19.286,T,22.720,M,0.21811,N,0.40393,K,D*3F
$GNHDT,219.5407,T*17
$GPGGA,075233.60,2234.24142719,N,11432.13216947,E,4,20,0.7,0.8390,M,-1.3345,M,01,0000*75
$GPRMC,075233.60,A,2234.24142719,N,11432.13216947,E,0.218,19.3,051224,3.4,W,D*12
$GNVTG,345.958,T,349.392,M,0.07586,N,0.14050,K,D*34
$GNHDT,219.7153,T*11
$GPGGA,075233.80,2234.24143129,N,11432.13216836,E,4,21,0.7,0.8380,M,-1.3345,M,00,0000*79
$GPRMC,075233.80,A,2234.24143129,N,11432.13216836,E,0.076,346.0,051224,3.4,W,D*2F
$GNVTG,200.836,T,204.270,M,0.04605,N,0.08528,K,D*34
$GNHDT,219.4954,T*1D
$GPGGA,075234.00,2234.24142889,N,11432.13216738,E,4,21,0.7,0.9041,M,-1.3345,M,01,0000*7B
$GPRMC,075234.00,A,2234.24142889,N,11432.13216738,E,0.046,200.8,051224,3.4,W,D*2B
$GNVTG,208.943,T,212.377,M,0.32232,N,0.59694,K,D*3B
$GNHDT,219.3707,T*12
$GPGGA,075234.20,2234.24141317,N,11432.13215802,E,4,21,0.7,0.9007,M,-1.3345,M,01,0000*71
$GPRMC,075234.20,A,2234.24141317,N,11432.13215802,E,0.322,208.9,051224,3.4,W,D*2B
$GNVTG,191.294,T,194.727,M,0.16814,N,0.31140,K,D*3D
$GNHDT,219.3791,T*1D
$GPGGA,075234.40,2234.24140397,N,11432.13215604,E,4,21,0.7,0.9452,M,-1.3345,M,01,0000*72
$GPRMC,075234.40,A,2234.24140397,N,11432.13215604,E,0.168,191.3,051224,3.4,W,D*29
$GNVTG,208.341,T,211.775,M,0.12629,N,0.23389,K,D*3E
$GNHDT,219.0184,T*1C
$GPGGA,075234.60,2234.24139778,N,11432.13215244,E,4,21,0.7,0.9247,M,-1.3345,M,01,0000*79
$GPRMC,075234.60,A,2234.24139778,N,11432.13215244,E,0.126,208.3,051224,3.4,W,D*29
$GNVTG,36.024,T,39.457,M,0.24142,N,0.44711,K,D*31
$GNHDT,218.8828,T*1A
$GPGGA,075234.80,2234.24140866,N,11432.13216096,E,4,21,0.7,0.8778,M,-1.3345,M,00,0000*7E
$GPRMC,075234.80,A,2234.24140866,N,11432.13216096,E,0.241,36.0,051224,3.4,W,D*19
$GNVTG,37.987,T,41.420,M,0.31927,N,0.59128,K,D*30
$GNHDT,218.9086,T*17
$GPGGA,075235.00,2234.24142269,N,11432.13217276,E,4,21,0.7,0.8362,M,-1.3345,M,01,0000*73
$GPRMC,075235.00,A,2234.24142269,N,11432.13217276,E,0.319,38.0,051224,3.4,W,D*18
$GNVTG,33.723,T,37.156,M,0.26236,N,0.48589,K,D*33
$GNHDT,218.9371,T*1C
$GPGGA,075235.20,2234.24143486,N,11432.13218150,E,4,21,0.7,0.8199,M,-1.3345,M,01,0000*79
$GPRMC,075235.20,A,2234.24143486,N,11432.13218150,E,0.262,33.7,051224,3.4,W,D*15
$GNVTG,99.555,T,102.988,M,0.10023,N,0.18562,K,D*0F
$GNHDT,219.5762,T*17
$GPGGA,075235.40,2234.24143393,N,11432.13218743,E,4,20,0.7,0.8325,M,-1.3345,M,01,0000*7C
$GPRMC,075235.40,A,2234.24143393,N,11432.13218743,E,0.100,99.6,051224,3.4,W,D*12
$GNVTG,222.024,T,225.458,M,0.19024,N,0.35233,K,D*3A
$GNHDT,219.2547,T*15
$GPGGA,075235.60,2234.24142605,N,11432.13217979,E,4,20,0.7,0.8693,M,-1.3345,M,01,0000*75
$GPRMC,075235.60,A,2234.24142605,N,11432.13217979,E,0.190,222.0,051224,3.4,W,D*2E
$GNVTG,216.999,T,220.432,M,0.28027,N,0.51907,K,D*34
$GNHDT,219.4140,T*10
$GPGGA,075235.80,2234.24141357,N,11432.13216967,E,4,20,0.7,0.9398,M,-1.3345,M,00,0000*7A
$GPRMC,075235.80,A,2234.24141357,N,11432.13216967,E,0.280,217.0,051224,3.4,W,D*2B
$GNVTG,220.158,T,223.591,M,0.23789,N,0.44058,K,D*30
$GNHDT,219.5884,T*10
$GPGGA,075236.00,2234.24140344,N,11432.13216046,E,4,20,0.7,0.9640,M,-1.3345,M,01,0000*79
$GPRMC,075236.00,A,2234.24140344,N,11432.13216046,E,0.238,220.2,051224,3.4,W,D*2C
$GNVTG,265.241,T,268.674,M,0.19232,N,0.35618,K,D*35
$GNHDT,219.4984,T*10
$GPGGA,075236.20,2234.24140255,N,11432.13214895,E,4,20,0.7,0.9616,M,-1.3345,M,01,0000*7D
$GPRMC,075236.20,A,2234.24140255,N,11432.13214895,E,0.192,265.2,051224,3.4,W,D*29
$GNVTG,348.066,T,351.500,M,0.16349,N,0.30279,K,D*33
$GNHDT,219.4421,T*12
$GPGGA,075236.40,2234.24141146,N,11432.13214692,E,4,20,0.7,0.9605,M,-1.3345,M,01,0000*70
$GPRMC,075236.40,A,2234.24141146,N,11432.13214692,E,0.163,348.1,051224,3.4,W,D*25
$GNVTG,5.802,T,9.236,M,0.18134,N,0.33585,K,D*3E
$GNHDT,219.4917,T*1A
$GPGGA,075236.60,2234.24142152,N,11432.13214802,E,4,20,0.7,0.9153,M,-1.3345,M,00,0000*76
$GPRMC,075236.60,A,2234.24142152,N,11432.13214802,E,0.181,5.8,051224,3.4,W,D*29
$GNVTG,313.025,T,316.459,M,0.11997,N,0.22218,K,D*3E
$GNHDT,219.3618,T*1D
$GPGGA,075236.80,2234.24142608,N,11432.13214276,E,4,20,0.7,0.9436,M,-1.3345,M,00,0000*7F
$GPRMC,075236.80,A,2234.24142608,N,11432.13214276,E,0.120,313.0,051224,3.4,W,D*21
$GNVTG,214.213,T,217.646,M,0.25363,N,0.46973,K,D*31
$GNHDT,219.7503,T*10
$GPGGA,075237.00,2234.24141439,N,11432.13213420,E,4,20,0.7,0.9181,M,-1.3345,M,01,0000*7F
$GPRMC,075237.00,A,2234.24141439,N,11432.13213420,E,0.254,214.2,051224,3.4,W,D*2D
$GNVTG,218.640,T,222.074,M,0.56103,N,1.03903,K,D*39
$GNHDT,219.6580,T*1A
$GPGGA,075237.20,2234.24138996,N,11432.13211317,E,4,20,0.7,0.9049,M,-1.3345,M,01,0000*7F
$GPRMC,075237.20,A,2234.24138996,N,11432.13211317,E,0.561,218.6,051224,3.4,W,D*21
$GNVTG,209.776,T,213.209,M,0.36287,N,0.67203,K,D*36
$GNHDT,220.1523,T*1E
$GPGGA,075237.40,2234.24137240,N,11432.13210235,E,4,22,0.7,0.9134,M,-1.3345,M,01,0000*7F
$GPRMC,075237.40,A,2234.24137240,N,11432.13210235,E,0.363,209.8,051224,3.4,W,D*22
$GNVTG,231.593,T,235.027,M,0.14214,N,0.26324,K,D*35
$GNHDT,220.4310,T*1D
$GPGGA,075237.60,2234.24136748,N,11432.13209567,E,4,22,0.7,0.9265,M,-1.3345,M,01,0000*7E
$GPRMC,075237.60,A,2234.24136748,N,11432.13209567,E,0.142,231.6,051224,3.4,W,D*20
$GNVTG,344.739,T,348.173,M,0.06692,N,0.12393,K,D*3D
$GNHDT,220.6527,T*1D
$GPGGA,075237.80,2234.24137108,N,11432.13209461,E,4,21,0.7,0.9436,M,-1.3345,M,01,0000*77
$GPRMC,075237.80,A,2234.24137108,N,11432.13209461,E,0.067,344.7,051224,3.4,W,D*2E
$GNVTG,348.104,T,351.538,M,0.18089,N,0.33502,K,D*34
$GNHDT,220.5846,T*14
$GPGGA,075238.00,2234.24138095,N,11432.13209237,E,4,21,0.7,0.9185,M,-1.3345,M,02,0000*71
$GPRMC,075238.00,A,2234.24138095,N,11432.13209237,E,0.181,348.1,051224,3.4,W,D*25
$GNVTG,288.559,T,291.992,M,0.07097,N,0.13143,K,D*36
$GNHDT,220.3309,T*12
$GPGGA,075238.20,2234.24138221,N,11432.13208833,E,4,21,0.7,0.9393,M,-1.3345,M,02,0000*74
$GPRMC,075238.20,A,2234.24138221,N,11432.13208833,E,0.071,288.6,051224,3.4,W,D*21
$GNVTG,225.226,T,228.659,M,0.27311,N,0.50581,K,D*36
$GNHDT,220.3517,T*1B
$GPGGA,075238.40,2234.24137148,N,11432.13207669,E,4,21,0.7,0.8762,M,-1.3345,M,02,0000*74
$GPRMC,075238.40,A,2234.24137148,N,11432.13207669,E,0.273,225.2,051224,3.4,W,D*29
$GNVTG,218.147,T,221.580,M,0.32695,N,0.60551,K,D*31
$GNHDT,220.6050,T*18
$GPGGA,075238.60,2234.24135715,N,11432.13206457,E,4,21,0.7,0.8748,M,-1.3345,M,02,0000*7C
$GPRMC,075238.60,A,2234.24135715,N,11432.13206457,E,0.327,218.1,051224,3.4,W,D*24
$GNVTG,214.527,T,217.960,M,0.34822,N,0.64491,K,D*35
$GNHDT,220.6692,T*10
$GPGGA,075238.80,2234.24134116,N,11432.13205273,E,4,20,0.7,0.9110,M,-1.3345,M,00,0000*7C
$GPRMC,075238.80,A,2234.24134116,N,11432.13205273,E,0.348,214.5,051224,3.4,W,D*2C
$GNVTG,206.965,T,210.399,M,0.23199,N,0.42965,K,D*3A
$GNHDT,221.0483,T*15
$GPGGA,075239.00,2234.24132963,N,11432.13204641,E,4,20,0.7,0.9040,M,-1.3345,M,01,0000*78
$GPRMC,075239.00,A,2234.24132963,N,11432.13204641,E,0.232,207.0,051224,3.4,W,D*26
$GNVTG,12.037,T,15.471,M,0.13644,N,0.25269,K,D*37
$GNHDT,220.9730,T*16
$GPGGA,075239.20,2234.24133707,N,11432.13204812,E,4,20,0.7,0.8600,M,-1.3345,M,01,0000*7C
$GPRMC,075239.20,A,2234.24133707,N,11432.13204812,E,0.136,12.0,051224,3.4,W,D*10
$GNVTG,12.989,T,16.423,M,0.16027,N,0.29681,K,D*37
$GNHDT,221.1943,T*15
$GPGGA,075239.40,2234.24134577,N,11432.13205028,E,4,20,0.7,0.8563,M,-1.3345,M,01,0000*7E
$GPRMC,075239.40,A,2234.24134577,N,11432.13205028,E,0.160,13.0,051224,3.4,W,D*16
$GNVTG,27.739,T,31.172,M,0.31008,N,0.57428,K,D*30
$GNHDT,221.6250,T*1B
$GPGGA,075239.60,2234.24136107,N,11432.13205894,E,4,20,0.7,0.8183,M,-1.3345,M,00,0000*79
$GPRMC,075239.60,A,2234.24136107,N,11432.13205894,E,0.310,27.7,051224,3.4,W,D*1F
$GNVTG,39.173,T,42.606,M,0.18743,N,0.34713,K,D*3A
$GNHDT,221.4388,T*1D
$GPGGA,075239.80,2234.24136917,N,11432.13206605,E,4,20,0.7,0.7883,M,-1.3345,M,00,0000*7D
$GPRMC,075239.80,A,2234.24136917,N,11432.13206605,E,0.187,39.2,051224,3.4,W,D*1B
$GNVTG,178.281,T,181.714,M,0.12082,N,0.22376,K,D*3C
$GNHDT,221.5155,T*1E
$GPGGA,075240.00,2234.24136244,N,11432.13206627,E,4,20,0.7,0.8028,M,-1.3345,M,01,0000*71
$GPRMC,075240.00,A,2234.24136244,N,11432.13206627,E,0.121,178.3,051224,3.4,W,D*29
$GNVTG,201.284,T,204.718,M,0.27371,N,0.50691,K,D*36
$GNHDT,221.2206,T*1C
$GPGGA,075240.20,2234.24134822,N,11432.13206030,E,4,20,0.7,0.8317,M,-1.3345,M,01,0000*74
$GPRMC,075240.20,A,2234.24134822,N,11432.13206030,E,0.274,201.3,051224,3.4,W,D*2D
