.536,M,0.03686,N,0.06827,K,D*3C
$GNHDT,57.4504,T*2C
$GPGGA,015544.80,2234.03528196,N,11431.92808904,E,4,12,0.9,-4.4026,M,-1.3413,M,00,0000*5F
$GPRMC,015544.80,A,2234.03528196,N,11431.92808904,E,0.037,49.1,071224,3.4,W,D*13
$GNVTG,19.335,T,22.774,M,0.00228,N,0.00423,K,D*3C
$GNHDT,57.4854,T*24
$GPGGA,015545.00,2234.03528208,N,11431.92808908,E,4,12,0.9,-4.4018,M,-1.3413,M,01,0000*52
$GPRMC,015545.00,A,2234.03528208,N,11431.92808908,E,0.002,19.3,071224,3.4,W,D*13
$GNVTG,7.377,T,10.815,M,0.09099,N,0.16851,K,D*03
$GNHDT,57.7316,T*2A
$GPGGA,015545.20,2234.03528711,N,11431.92808978,E,4,12,0.9,-4.4042,M,-1.3413,M,01,0000*55
$GPRMC,015545.20,A,2234.03528711,N,11431.92808978,E,0.091,7.4,071224,3.4,W,D*29
$GNVTG,223.229,T,226.667,M,0.01501,N,0.02779,K,D*3D
$GNHDT,57.6244,T*2D
$GPGGA,015545.40,2234.03528650,N,11431.92808917,E,4,12,0.9,-4.4364,M,-1.3413,M,01,0000*59
$GPRMC,015545.40,A,2234.03528650,N,11431.92808917,E,0.015,223.2,071224,3.4,W,D*2C
$GNVTG,256.695,T,260.133,M,0.06984,N,0.12935,K,D*39
$GNHDT,57.5269,T*21
$GPGGA,015545.60,2234.03528560,N,11431.92808509,E,4,12,0.9,-4.4084,M,-1.3413,M,01,0000*55
$GPRMC,015545.60,A,2234.03528560,N,11431.92808509,E,0.070,256.7,071224,3.4,W,D*29
$GNVTG,60.782,T,64.221,M,0.06330,N,0.11724,K,D*37
$GNHDT,57.2174,T*29
$GPGGA,015545.80,2234.03528732,N,11431.92808840,E,4,12,0.9,-4.4171,M,-1.3413,M,00,0000*54
$GPRMC,015545.80,A,2234.03528732,N,11431.92808840,E,0.063,60.8,071224,3.4,W,D*18
$GNVTG,70.546,T,73.984,M,0.04229,N,0.07832,K,D*3A
$GNHDT,57.4662,T*2F
$GPGGA,015546.00,2234.03528811,N,11431.92809080,E,4,12,0.9,-4.4248,M,-1.3413,M,01,0000*5C
$GPRMC,015546.00,A,2234.03528811,N,11431.92809080,E,0.042,70.5,071224,3.4,W,D*17
$GNVTG,153.383,T,156.821,M,0.03077,N,0.05699,K,D*3E
$GNHDT,57.1202,T*28
$GPGGA,015546.20,2234.03528657,N,11431.92809162,E,4,12,0.9,-4.4086,M,-1.3413,M,01,0000*5F
$GPRMC,015546.20,A,2234.03528657,N,11431.92809162,E,0.031,153.4,071224,3.4,W,D*21
$GNVTG,16.840,T,20.279,M,0.07484,N,0.13860,K,D*3E
$GNHDT,57.3323,T*28
$GPGGA,015546.40,2234.03529057,N,11431.92809292,E,4,12,0.9,-4.4181,M,-1.3413,M,01,0000*54
$GPRMC,015546.40,A,2234.03529057,N,11431.92809292,E,0.075,16.8,071224,3.4,W,D*10
$GNVTG,224.961,T,228.399,M,0.09432,N,0.17469,K,D*38
$GNHDT,57.3044,T*2A
$GPGGA,015546.60,2234.03528685,N,11431.92808892,E,4,12,0.9,-4.4152,M,-1.3413,M,01,0000*5B
$GPRMC,015546.60,A,2234.03528685,N,11431.92808892,E,0.094,225.0,071224,3.4,W,D*24
$GNVTG,308.424,T,311.862,M,0.07759,N,0.14370,K,D*33
$GNHDT,57.8555,T*24
$GPGGA,015546.80,2234.03528954,N,11431.92808528,E,4,12,0.9,-4.4116,M,-1.3413,M,00,0000*5B
$GPRMC,015546.80,A,2234.03528954,N,11431.92808528,E,0.078,308.4,071224,3.4,W,D*2D
$GNVTG,14.111,T,17.549,M,0.02862,N,0.05301,K,D*3B
$GNHDT,58.1465,T*20
$GPGGA,015547.00,2234.03529108,N,11431.92808569,E,4,12,0.9,-4.4056,M,-1.3413,M,01,0000*53
$GPRMC,015547.00,A,2234.03529108,N,11431.92808569,E,0.029,14.1,071224,3.4,W,D*1E
$GNVTG,23.053,T,26.491,M,0.05755,N,0.10658,K,D*3F
$GNHDT,57.9770,T*20
$GPGGA,015547.20,2234.03529403,N,11431.92808705,E,4,12,0.9,-4.4178,M,-1.3413,M,01,0000*5A
$GPRMC,015547.20,A,2234.03529403,N,11431.92808705,E,0.058,23.1,071224,3.4,W,D*18
$GNVTG,325.395,T,328.834,M,0.07264,N,0.13452,K,D*33
$GNHDT,58.0801,T*2F
$GPGGA,015547.40,2234.03529737,N,11431.92808457,E,4,12,0.9,-4.4083,M,-1.3413,M,01,0000*59
$GPRMC,015547.40,A,2234.03529737,N,11431.92808457,E,0.073,325.4,071224,3.4,W,D*27
$GNVTG,122.799,T,126.238,M,0.02171,N,0.04020,K,D*31
$GNHDT,57.2270,T*2E
$GPGGA,015547.60,2234.03529671,N,11431.92808567,E,4,12,0.9,-4.4127,M,-1.3413,M,01,0000*55
$GPRMC,015547.60,A,2234.03529671,N,11431.92808567,E,0.022,122.8,071224,3.4,W,D*29
$GNVTG,55.702,T,59.140,M,0.03986,N,0.07382,K,D*3E
$GNHDT,57.2109,T*23
$GPGGA,015547.80,2234.03529796,N,11431.92808764,E,4,12,0.9,-4.4083,M,-1.3413,M,00,0000*5C
$GPRMC,015547.80,A,2234.03529796,N,11431.92808764,E,0.040,55.7,071224,3.4,W,D*14
$GNVTG,324.779,T,328.218,M,0.10564,N,0.19564,K,D*3F
$GNHDT,57.2096,T*24
$GPGGA,015548.00,2234.03530278,N,11431.92808399,E,4,12,0.9,-4.3970,M,-1.3413,M,01,0000*53
$GPRMC,015548.00,A,2234.03530278,N,11431.92808399,E,0.106,324.8,071224,3.4,W,D*21
$GNVTG,222.711,T,226.149,M,0.08250,N,0.15278,K,D*31
$GNHDT,57.3723,T*2C
$GPGGA,015548.20,2234.03529940,N,11431.92808063,E,4,12,0.9,-4.3798,M,-1.3413,M,01,0000*57
$GPRMC,015548.20,A,2234.03529940,N,11431.92808063,E,0.082,222.7,071224,3.4,W,D*28
$GNVTG,7.615,T,11.053,M,0.07065,N,0.13084,K,D*01
$GNHDT,57.2190,T*23
$GPGGA,015548.40,2234.03530330,N,11431.92808119,E,4,12,0.9,-4.4011,M,-1.3413,M,01,0000*59
$GPRMC,015548.40,A,2234.03530330,N,11431.92808119,E,0.071,7.6,071224,3.4,W,D*2F
$GNVTG,61.311,T,64.749,M,0.04495,N,0.08324,K,D*35
$GNHDT,57.2016,T*2C
$GPGGA,015548.60,2234.03530450,N,11431.92808356,E,4,12,0.9,-4.4251,M,-1.3413,M,01,0000*55
$GPRMC,015548.60,A,2234.03530450,N,11431.92808356,E,0.045,61.3,071224,3.4,W,D*17
$GNVTG,279.211,T,282.650,M,0.06993,N,0.12952,K,D*35
$GNHDT,57.4432,T*28
$GPGGA,015548.80,2234.03530513,N,11431.92807941,E,4,12,0.9,-4.3990,M,-1.3413,M,00,0000*5E
$GPRMC,015548.80,A,2234.03530513,N,11431.92807941,E,0.070,279.2,071224,3.4,W,D*20
$GNVTG,272.062,T,275.501,M,0.12175,N,0.22548,K,D*36
$GNHDT,57.7926,T*23
$GPGGA,015549.00,2234.03530537,N,11431.92807211,E,4,12,0.9,-4.4128,M,-1.3413,M,01,0000*52
$GPRMC,015549.00,A,2234.03530537,N,11431.92807211,E,0.122,272.1,071224,3.4,W,D*2F
$GNVTG,171.785,T,175.223,M,0.11004,N,0.20379,K,D*3E
$GNHDT,57.2401,T*2E
$GPGGA,015549.20,2234.03529930,N,11431.92807305,E,4,12,0.9,-4.4023,M,-1.3413,M,01,0000*5D
$GPRMC,015549.20,A,2234.03529930,N,11431.92807305,E,0.110,171.8,071224,3.4,W,D*22
$GNVTG,33.186,T,36.625,M,0.08636,N,0.15994,K,D*38
$GNHDT,57.5599,T*29
$GPGGA,015549.40,2234.03530333,N,11431.92807589,E,4,12,0.9,-4.4266,M,-1.3413,M,01,0000*5B
$GPRMC,015549.40,A,2234.03530333,N,11431.92807589,E,0.086,33.2,071224,3.4,W,D*14
$GNVTG,182.427,T,185.865,M,0.09067,N,0.16793,K,D*37
$GNHDT,57.0767,T*2F
$GPGGA,015549.60,2234.03529828,N,11431.92807566,E,4,12,0.9,-4.4074,M,-1.3413,M,01,0000*50
$GPRMC,015549.60,A,2234.03529828,N,11431.92807566,E,0.091,182.4,071224,3.4,W,D*25
$GNVTG,15.528,T,18.967,M,0.02773,N,0.05136,K,D*32
$GNHDT,57.5258,T*23
$GPGGA,015549.80,2234.03529977,N,11431.92807610,E,4,12,0.9,-4.4047,M,-1.3413,M,00,0000*56
$GPRMC,015549.80,A,2234.03529977,N,11431.92807610,E,0.028,15.5,071224,3.4,W,D*1E
$GNVTG,72.415,T,75.853,M,0.03516,N,0.06512,K,D*30
$GNHDT,57.5843,T*23
$GPGGA,015550.00,2234.03530036,N,11431.92807812,E,4,13,0.8,-4.4135,M,-1.3413,M,01,0000*5B
$GPRMC,015550.00,A,2234.03530036,N,11431.92807812,E,0.035,72.4,071224,3.4,W,D*1A
$GNVTG,250.798,T,254.236,M,0.04178,N,0.07737,K,D*33
$GNHDT,57.9583,T*2E
$GPGGA,015550.20,2234.03529959,N,11431.92807575,E,4,13,0.8,-4.4016,M,-1.3413,M,01,0000*5D
$GPRMC,015550.20,A,2234.03529959,N,11431.92807575,E,0.042,250.8,071224,3.4,W,D*22
$GNVTG,185.634,T,189.073,M,0.10791,N,0.19984,K,D*32
$GNHDT,57.3845,T*23
$GPGGA,015550.40,2234.03529361,N,11431.92807511,E,4,13,0.8,-4.4194,M,-1.3413,M,01,0000*53
$GPRMC,015550.40,A,2234.03529361,N,11431.92807511,E,0.108,185.6,071224,3.4,W,D*2D
$GNVTG,192.425,T,195.863,M,0.14744,N,0.27306,K,D*33
$GNHDT,57.3837,T*26
$GPGGA,015550.60,2234.03528558,N,11431.92807321,E,4,13,0.8,-4.4250,M,-1.3413,M,01,0000*52
$GPRMC,015550.60,A,2234.03528558,N,11431.92807321,E,0.147,192.4,071224,3.4,W,D*28
$GNVTG,206.689,T,210.128,M,0.19929,N,0.36909,K,D*3C
$GNHDT,57.1948,T*2D
$GPGGA,015550.80,2234.03527565,N,11431.92806784,E,4,13,0.8,-4.4386,M,-1.3413,M,00,0000*5C
$GPRMC,015550.80,A,2234.03527565,N,11431.92806784,E,0.199,206.7,071224,3.4,W,D*23
$GNVTG,142.651,T,146.090,M,0.08883,N,0.16450,K,D*3A
$GNHDT,57.1530,T*2E
$GPGGA,015551.00,2234.03527172,N,11431.92807107,E,4,13,0.8,-4.4368,M,-1.3413,M,01,0000*5A
$GPRMC,015551.00,A,2234.03527172,N,11431.92807107,E,0.089,142.7,071224,3.4,W,D*27
$GNVTG,63.378,T,66.817,M,0.03333,N,0.06173,K,D*3C
$GNHDT,57.3944,T*23
$GPGGA,015551.20,2234.03527255,N,11431.92807286,E,4,13,0.8,-4.4309,M,-1.3413,M,01,0000*53
$GPRMC,015551.20,A,2234.03527255,N,11431.92807286,E,0.033,63.4,071224,3.4,W,D*19
$GNVTG,60.517,T,63.956,M,0.03457,N,0.06403,K,D*36
$GNHDT,57.3435,T*28
$GPGGA,015551.40,2234.03527350,N,11431.92807467,E,4,13,0.8,-4.4167,M,-1.3413,M,01,0000*52
$GPRMC,015551.40,A,2234.03527350,N,11431.92807467,E,0.035,60.5,071224,3.4,W,D*16
$GNVTG,116.441,T,119.879,M,0.03658,N,0.06775,K,D*3B
$GNHDT,57.3116,T*2C
$GPGGA,015551.60,2234.03527259,N,11431.92807663,E,4,13,0.8,-4.3961,M,-1.3413,M,01,0000*57
$GPRMC,015551.60,A,2234.03527259,N,11431.92807663,E,0.037,116.4,071224,3.4,W,D*29
$GNVTG,171.255,T,174.694,M,0.08409,N,0.15574,K,D*33
$GNHDT,56.9484,T*29
$GPGGA,015551.80,2234.03526796,N,11431.92807740,E,4,13,0.8,-4.4102,M,-1.3413,M,00,0000*55
$GPRMC,015551.80,A,2234.03526796,N,11431.92807740,E,0.084,171.3,071224,3.4,W,D*2E
$GNVTG,196.537,T,199.975,M,0.10078,N,0.18664,K,D*3E
$GNHDT,56.7126,T*2A
$GPGGA,015552.00,2234.03526257,N,11431.92807568,E,4,13,0.8,-4.4101,M,-1.3413,M,01,0000*5C
$GPRMC,015552.00,A,2234.03526257,N,11431.92807568,E,0.101,196.5,071224,3.4,W,D*26
$GNVTG,214.457,T,217.895,M,0.16780,N,0.31076,K,D*32
$GNHDT,57.0749,T*23
$GPGGA,015552.20,2234.03525486,N,11431.92806998,E,4,13,0.8,-4.4248,M,-1.3413,M,01,0000*5B
$GPRMC,015552.20,A,2234.03525486,N,11431.92806998,E,0.168,214.5,071224,3.4,W,D*29
$GNVTG,190.628,T,194.067,M,0.17702,N,0.32784,K,D*38
$GNHDT,56.7854,T*26
$GPGGA,015552.40,2234.03524516,N,11431.92806802,E,4,13,0.8,-4.4432,M,-1.3413,M,01,0000*5D
$GPRMC,015552.40,A,2234.03524516,N,11431.92806802,E,0.177,190.6,071224,3.4,W,D*26
$GNVTG,166.390,T,169.828,M,0.09019,N,0.16702,K,D*3C
$GNHDT,56.3017,T*2D
$GPGGA,015552.60,2234.03524027,N,11431.92806929,E,4,13,0.8,-4.4410,M,-1.3413,M,01,0000*50
$GPRMC,015552.60,A,2234.03524027,N,11431.92806929,E,0.090,166.4,071224,3.4,W,D*28
$GNVTG,43.034,T,46.473,M,0.05657,N,0.10476,K,D*3F
$GNHDT,56.3695,T*21
$GPGGA,015552.80,2234.03524258,N,11431.92807161,E,4,13,0.8,-4.4513,M,-1.3413,M,01,0000*53
$GPRMC,015552.80,A,2234.03524258,N,11431.92807161,E,0.057,43.0,071224,3.4,W,D*10
$GNVTG,127.333,T,130.771,M,0.01824,N,0.03378,K,D*3C
$GNHDT,56.7416,T*2C
$GPGGA,015553.00,2234.03524196,N,11431.92807248,E,4,13,0.8,-4.4300,M,-1.3413,M,02,0000*54
$GPRMC,015553.00,A,2234.03524196,N,11431.92807248,E,0.018,127.3,071224,3.4,W,D*2B
$GNVTG,147.468,T,150.907,M,0.08836,N,0.16364,K,D*39
$GNHDT,56.2220,T*2A
$GPGGA,015553.20,2234.03523781,N,11431.92807533,E,4,13,0.8,-4.4251,M,-1.3413,M,02,0000*5F
$GPRMC,015553.20,A,2234.03523781,N,11431.92807533,E,0.088,147.5,071224,3.4,W,D*2C
$GNVTG,346.001,T,349.440,M,0.04241,N,0.07854,K,D*3B
$GNHDT,56.4123,T*2C
$GPGGA,015553.40,2234.03524010,N,11431.92807472,E,4,13,0.8,-4.4181,M,-1.3413,M,02,0000*5B
$GPRMC,015553.40,A,2234.03524010,N,11431.92807472,E,0.042,346.0,071224,3.4,W,D*26
$GNVTG,156.438,T,159.877,M,0.09740,N,0.18039,K,D*39
$GNHDT,56.0807,T*27
$GPGGA,015553.60,2234.03523513,N,11431.92807705,E,4,13,0.8,-4.4293,M,-1.3413,M,02,0000*5B
$GPRMC,015553.60,A,2234.03523513,N,11431.92807705,E,0.097,156.4,071224,3.4,W,D*29
$GNVTG,241.799,T,245.238,M,0.11163,N,0.20674,K,D*31
$GNHDT,56.2732,T*2C
$GPGGA,015553.80,2234.03523218,N,11431.92807115,E,4,13,0.8,-4.4335,M,-1.3413,M,00,0000*51
$GPRMC,015553.80,A,2234.03523218,N,11431.92807115,E,0.112,241.8,071224,3.4,W,D*29
$GNVTG,160.643,T,164.081,M,0.08457,N,0.15662,K,D*3C
$GNHDT,56.0874,T*23
$GPGGA,015554.00,2234.03522774,N,11431.92807283,E,4,13,0.8,-4.4303,M,-1.3413,M,01,0000*58
$GPRMC,015554.00,A,2234.03522774,N,11431.92807283,E,0.085,160.6,071224,3.4,W,D*25
$GNVTG,189.298,T,192.736,M,0.06310,N,0.11686,K,D*3F
$GNHDT,55.9765,T*26
$GPGGA,015554.20,2234.03522427,N,11431.92807222,E,4,13,0.8,-4.4362,M,-1.3413,M,01,0000*53
$GPRMC,015554.20,A,2234.03522427,N,11431.92807222,E,0.063,189.3,071224,3.4,W,D*23
$GNVTG,161.761,T,165.199,M,0.05243,N,0.09709,K,D*3A
$GNHDT,55.9613,T*26
$GPGGA,015554.40,2234.03522149,N,11431.92807320,E,4,13,0.8,-4.4599,M,-1.3413,M,01,0000*59
$GPRMC,015554.40,A,2234.03522149,N,11431.92807320,E,0.052,161.8,071224,3.4,W,D*24
$GNVTG,77.937,T,81.376,M,0.07395,N,0.13695,K,D*3E
$GNHDT,55.7904,T*21
$GPGGA,015554.60,2234.03522235,N,11431.92807754,E,4,13,0.8,-4.4455,M,-1.3413,M,00,0000*54
$GPRMC,015554.60,A,2234.03522235,N,11431.92807754,E,0.074,77.9,071224,3.4,W,D*1A
$GNVTG,264.172,T,267.610,M,0.05945,N,0.11011,K,D*35
$GNHDT,55.8946,T*28
$GPGGA,015554.80,2234.03522201,N,11431.92807399,E,4,13,0.8,-4.4357,M,-1.3413,M,00,0000*5D
$GPRMC,015554.80,A,2234.03522201,N,11431.92807399,E,0.059,264.2,071224,3.4,W,D*22
$GNVTG,76.455,T,79.893,M,0.04194,N,0.07767,K,D*38
$GNHDT,55.5259,T*20
$GPGGA,015555.00,2234.03522256,N,11431.92807644,E,4,13,0.8,-4.4538,M,-1.3413,M,01,0000*5D
$GPRMC,015555.00,A,2234.03522256,N,11431.92807644,E,0.042,76.5,071224,3.4,W,D*10
$GNVTG,30.154,T,33.592,M,0.06525,N,0.12085,K,D*3F
$GNHDT,55.7995,T*29
$GPGGA,015555.20,2234.03522571,N,11431.92807841,E,4,13,0.8,-4.4487,M,-1.3413,M,01,0000*53
$GPRMC,015555.20,A,2234.03522571,N,11431.92807841,E,0.065,30.2,071224,3.4,W,D*1B
$GNVTG,186.076,T,189.514,M,0.15595,N,0.28882,K,D*33
$GNHDT,55.1843,T*25
$GPGGA,015555.40,2234.03521706,N,11431.92807742,E,4,13,0.8,-4.4440,M,-1.3413,M,01,0000*53
$GPRMC,015555.40,A,2234.03521706,N,11431.92807742,E,0.156,186.1,071224,3.4,W,D*2E
$GNVTG,318.493,T,321.931,M,0.06169,N,0.11425,K,D*3C
$GNHDT,55.5621,T*2B
$GPGGA,015555.60,2234.03521964,N,11431.92807496,E,4,13,0.8,-4.4326,M,-1.3413,M,01,0000*56
$GPRMC,015555.60,A,2234.03521964,N,11431.92807496,E,0.062,318.5,071224,3.4,W,D*2B
$GNVTG,170.283,T,173.721,M,0.10776,N,0.19958,K,D*3D
$GNHDT,55.5193,T*25
$GPGGA,015555.80,2234.03521372,N,11431.92807606,E,4,13,0.8,-4.4521,M,-1.3413,M,01,0000*5F
$GPRMC,015555.80,A,2234.03521372,N,11431.92807606,E,0.108,170.3,071224,3.4,W,D*24
$GNVTG,134.629,T,138.068,M,0.03116,N,0.05772,K,D*35
$GNHDT,55.0957,T*20
$GPGGA,015556.00,2234.03521250,N,11431.92807739,E,4,13,0.8,-4.4504,M,-1.3413,M,02,0000*5C
$GPRMC,015556.00,A,2234.03521250,N,11431.92807739,E,0.031,134.6,071224,3.4,W,D*2D
$GNVTG,199.567,T,203.005,M,0.13108,N,0.24277,K,D*36
$GNHDT,54.7505,T*2D
$GPGGA,015556.20,2234.03520561,N,11431.92807475,E,4,13,0.8,-4.4405,M,-1.3413,M,02,0000*51
$GPRMC,015556.20,A,2234.03520561,N,11431.92807475,E,0.131,199.6,071224,3.4,W,D*26
$GNVTG,73.286,T,76.725,M,0.07373,N,0.13655,K,D*35
$GNHDT,54.8360,T*27
$GPGGA,015556.40,2234.03520679,N,11431.92807899,E,4,13,0.8,-4.4522,M,-1.3413,M,02,0000*57
$GPRMC,015556.40,A,2234.03520679,N,11431.92807899,E,0.074,73.3,071224,3.4,W,D*14
$GNVTG,88.448,T,91.886,M,0.04502,N,0.08338,K,D*3D
$GNHDT,54.7522,T*28
$GPGGA,015556.60,2234.03520686,N,11431.92808169,E,4,13,0.8,-4.4576,M,-1.3413,M,00,0000*5F
$GPRMC,015556.60,A,2234.03520686,N,11431.92808169,E,0.045,88.4,071224,3.4,W,D*1E
$GNVTG,9.868,T,13.306,M,0.04699,N,0.08702,K,D*0F
$GNHDT,54.6733,T*2B
$GPGGA,015556.80,2234.03520944,N,11431.92808218,E,4,13,0.8,-4.4395,M,-1.3413,M,00,0000*5E
$GPRMC,015556.80,A,2234.03520944,N,11431.92808218,E,0.047,9.9,071224,3.4,W,D*22
$GNVTG,200.795,T,204.234,M,0.06032,N,0.11171,K,D*32
$GNHDT,54.5842,T*21
$GPGGA,015557.00,2234.03520630,N,11431.92808089,E,4,13,0.8,-4.4528,M,-1.3413,M,01,0000*50
$GPRMC,015557.00,A,2234.03520630,N,11431.92808089,E,0.060,200.8,071224,3.4,W,D*22
$GNVTG,315.919,T,319.357,M,0.02151,N,0.03983,K,D*32
$GNHDT,54.4344,T*2D
$GPGGA,015557.20,2234.03520716,N,11431.92807999,E,4,13,0.8,-4.4539,M,-1.3413,M,01,0000*50
$GPRMC,015557.20,A,2234.03520716,N,11431.92807999,E,0.022,315.9,071224,3.4,W,D*20
$GNVTG,233.346,T,236.785,M,0.07740,N,0.14335,K,D*32
$GNHDT,54.5707,T*2F
$GPGGA,015557.40,2234.03520458,N,11431.92807626,E,4,13,0.8,-4.4511,M,-1.3413,M,01,0000*5E
$GPRMC,015557.40,A,2234.03520458,N,11431.92807626,E,0.077,233.3,071224,3.4,W,D*2B
$GNVTG,132.545,T,135.983,M,0.06818,N,0.12628,K,D*31
$GNHDT,54.3324,T*2C
$GPGGA,015557.60,2234.03520201,N,11431.92807928,E,4,13,0.8,-4.4634,M,-1.3413,M,00,0000*52
$GPRMC,015557.60,A,2234.03520201,N,11431.92807928,E,0.068,132.5,071224,3.4,W,D*28
$GNVTG,108.138,T,111.577,M,0.02663,N,0.04932,K,D*32
$GNHDT,54.3241,T*2E
$GPGGA,015557.80,2234.03520155,N,11431.92808080,E,4,13,0.8,-4.4765,M,-1.3413,M,00,0000*5F
$GPRMC,015557.80,A,2234.03520155,N,11431.92808080,E,0.027,108.1,071224,3.4,W,D*26
$GNVTG,243.861,T,247.300,M,0.07826,N,0.14495,K,D*36
$GNHDT,54.3909,T*29
$GPGGA,015558.00,2234.03519963,N,11431.92807658,E,4,13,0.8,-4.4534,M,-1.3413,M,01,0000*54
$GPRMC,015558.00,A,2234.03519963,N,11431.92807658,E,0.078,243.9,071224,3.4,W,D*24
$GNVTG,85.878,T,89.317,M,0.11657,N,0.21589,K,D*35
$GNHDT,53.8389,T*27
$GPGGA,015558.20,2234.03520010,N,11431.92808356,E,4,13,0.8,-4.4609,M,-1.3413,M,01,0000*58
$GPRMC,015558.20,A,2234.03520010,N,11431.92808356,E,0.117,85.9,071224,3.4,W,D*15
$GNVTG,336.286,T,339.725,M,0.08424,N,0.15601,K,D*32
$GNHDT,54.3480,T*25
$GPGGA,015558.40,2234.03520440,N,11431.92808153,E,4,13,0.8,-4.4589,M,-1.3413,M,01,0000*53
$GPRMC,015558.40,A,2234.03520440,N,11431.92808153,E,0.084,336.3,071224,3.4,W,D*2F
$GNVTG,74.349,T,77.788,M,0.03828,N,0.07089,K,D*35
$GNHDT,54.3453,T*2B
$GPGGA,015558.60,2234.03520497,N,11431.92808374,E,4,13,0.8,-4.4608,M,-1.3413,M,00,0000*57
$GPRMC,015558.60,A,2234.03520497,N,11431.92808374,E,0.038,74.3,071224,3.4,W,D*12
$GNVTG,233.960,T,237.399,M,0.11948,N,0.22128,K,D*3E
$GNHDT,54.2136,T*2C
$GPGGA,015558.80,2234.03520105,N,11431.92807794,E,4,13,0.8,-4.4379,M,-1.3413,M,00,0000*51
$GPRMC,015558.80,A,2234.03520105,N,11431.92807794,E,0.119,234.0,071224,3.4,W,D*20
$GNVTG,110.057,T,113.496,M,0.13597,N,0.25181,K,D*34
$GNHDT,54.0585,T*22
$GPGGA,015559.00,2234.03519845,N,11431.92808561,E,4,13,0.8,-4.4765,M,-1.3413,M,01,0000*50
$GPRMC,015559.00,A,2234.03519845,N,11431.92808561,E,0.136,110.1,071224,3.4,W,D*20
$GNVTG,302.601,T,306.040,M,0.04555,N,0.08436,K,D*37
$GNHDT,53.9946,T*2F
$GPGGA,015559.20,2234.03519982,N,11431.92808330,E,4,13,0.8,-4.4821,M,-1.3413,M,01,0000*55
$GPRMC,015559.20,A,2234.03519982,N,11431.92808330,E,0.046,302.6,071224,3.4,W,D*2A
$GNVTG,251.640,T,255.078,M,0.06914,N,0.12804,K,D*34
$GNHDT,54.0187,T*24
$GPGGA,015559.40,2234.03519861,N,11431.92807936,E,4,13,0.8,-4.4761,M,-1.3413,M,01,0000*57
$GPRMC,015559.40,A,2234.03519861,N,11431.92807936,E,0.069,251.6,071224,3.4,W,D*29
$GNVTG,122.794,T,126.233,M,0.03193,N,0.05913,K,D*32
$GNHDT,54.0505,T*2A
$GPGGA,015559.60,2234.03519764,N,11431.92808098,E,4,13,0.8,-4.4752,M,-1.3413,M,00,0000*5C
$GPRMC,015559.60,A,2234.03519764,N,11431.92808098,E,0.032,122.8,071224,3.4,W,D*24
$GNVTG,299.652,T,303.090,M,0.04973,N,0.09210,K,D*31
$GNHDT,54.0877,T*22
$GPGGA,015559.80,2234.03519901,N,11431.92807838,E,4,13,0.8,-4.4673,M,-1.3413,M,00,0000*50
$GPRMC,015559.80,A,2234.03519901,N,11431.92807838,E,0.050,299.7,071224,3.4,W,D*22
$GNVTG,145.819,T,149.257,M,0.03421,N,0.06335,K,D*33
$GNHDT,54.4074,T*2D
$GPGGA,015600.00,2234.03519744,N,11431.92807953,E,4,13,0.8,-4.4475,M,-1.3413,M,01,0000*51
$GPRMC,015600.00,A,2234.03519744,N,11431.92807953,E,0.034,145.8,071224,3.4,W,D*29
$GNVTG,21.956,T,25.395,M,0.05341,N,0.09892,K,D*30
$GNHDT,54.1276,T*28
$GPGGA,015600.20,2234.03520020,N,11431.92808073,E,4,13,0.8,-4.4598,M,-1.3413,M,01,0000*5A
$GPRMC,015600.20,A,2234.03520020,N,11431.92808073,E,0.053,22.0,071224,3.4,W,D*19
$GNVTG,85.780,T,89.219,M,0.11923,N,0.22081,K,D*30
$GNHDT,53.7229,T*23
$GPGGA,015600.40,2234.03520069,N,11431.92808787,E,4,13,0.8,-4.4746,M,-1.3413,M,01,0000*5C
$GPRMC,015600.40,A,2234.03520069,N,11431.92808787,E,0.119,85.8,071224,3.4,W,D*14
$GNVTG,355.286,T,358.725,M,0.08947,N,0.16570,K,D*3E
$GNHDT,54.0371,T*2F
$GPGGA,015600.60,2234.03520566,N,11431.92808743,E,4,13,0.8,-4.4582,M,-1.3413,M,01,0000*56
$GPRMC,015600.60,A,2234.03520566,N,11431.92808743,E,0.089,355.3,071224,3.4,W,D*29
$GNVTG,82.420,T,85.859,M,0.14307,N,0.26496,K,D*33
$GNHDT,53.4529,T*27
$GPGGA,015600.80,2234.03520671,N,11431.92809594,E,4,13,0.8,-4.4211,M,-1.3413,M,00,0000*58
$GPRMC,015600.80,A,2234.03520671,N,11431.92809594,E,0.143,82.4,071224,3.4,W,D*12
$GNVTG,176.276,T,179.714,M,0.14369,N,0.26611,K,D*3D
$GNHDT,53.2412,T*28
$GPGGA,015601.00,2234.03519872,N,11431.92809650,E,4,13,0.8,-4.3951,M,-1.3413,M,01,0000*54
$GPRMC,015601.00,A,2234.03519872,N,11431.92809650,E,0.144,176.3,071224,3.4,W,D*2D
$GNVTG,167.488,T,170.926,M,0.04166,N,0.07716,K,D*35
$GNHDT,53.1472,T*2D
$GPGGA,015601.20,2234.03519645,N,11431.92809704,E,4,13,0.8,-4.4158,M,-1.3413,M,01,0000*5A
$GPRMC,015601.20,A,2234.03519645,N,11431.92809704,E,0.042,167.5,071224,3.4,W,D*24
$GNVTG,163.940,T,167.378,M,0.08660,N,0.16038,K,D*39
$GNHDT,52.5794,T*23
$GPGGA,015601.40,2234.03519181,N,11431.92809848,E,4,13,0.8,-4.4175,M,-1.3413,M,01,0000*5B
$GPRMC,015601.40,A,2234.03519181,N,11431.92809848,E,0.087,163.9,071224,3.4,W,D*2B
$GNVTG,179.553,T,182.991,M,0.11239,N,0.20814,K,D*39
$GNHDT,52.5155,T*28
$GPGGA,015601.60,2234.03518554,N,11431.92809853,E,4,13,0.8,-4.4621,M,-1.3413,M,01,0000*58
$GPRMC,015601.60,A,2234.03518554,N,11431.92809853,E,0.112,179.6,071224,3.4,W,D*27
$GNVTG,191.589,T,195.028,M,0.13780,N,0.25521,K,D*3E
$GNHDT,51.9674,T*23
$GPGGA,015601.80,2234.03517802,N,11431.92809687,E,4,13,0.8,-4.4619,M,-1.3413,M,00,0000*5A
$GPRMC,015601.80,A,2234.03517802,N,11431.92809687,E,0.138,191.6,071224,3.4,W,D*21
$GNVTG,158.335,T,161.774,M,0.05983,N,0.11081,K,D*3D
$GNHDT,51.4401,T*2E
$GPGGA,015602.00,2234.03517492,N,11431.92809820,E,4,13,0.8,-4.4680,M,-1.3413,M,01,0000*56
$GPRMC,015602.00,A,2234.03517492,N,11431.92809820,E,0.060,158.3,071224,3.4,W,D*20
$GNVTG,80.652,T,84.090,M,0.13686,N,0.25346,K,D*38
$GNHDT,50.9378,T*2B
$GPGGA,015602.20,2234.03517616,N,11431.92810630,E,4,13,0.8,-4.4390,M,-1.3413,M,01,0000*59
$GPRMC,015602.20,A,2234.03517616,N,11431.92810630,E,0.137,80.7,071224,3.4,W,D*18
$GNVTG,153.205,T,156.643,M,0.07120,N,0.13187,K,D*33
$GNHDT,50.7662,T*2B
$GPGGA,015602.40,2234.03517262,N,11431.92810823,E,4,13,0.8,-4.4182,M,-1.3413,M,01,0000*55
$GPRMC,015602.40,A,2234.03517262,N,11431.92810823,E,0.071,153.2,071224,3.4,W,D*2C
$GNVTG,75.675,T,79.114,M,0.13811,N,0.25577,K,D*3C
$GNHDT,50.3757,T*28
$GPGGA,015602.60,2234.03517452,N,11431.92811626,E,4,13,0.8,-4.4232,M,-1.3413,M,01,0000*50
$GPRMC,015602.60,A,2234.03517452,N,11431.92811626,E,0.138,75.7,071224,3.4,W,D*1D
$GNVTG,191.175,T,194.614,M,0.16184,N,0.29973,K,D*31
$GNHDT,50.4090,T*23
$GPGGA,015602.80,2234.03516567,N,11431.92811438,E,4,13,0.8,-4.3952,M,-1.3413,M,01,0000*5F
$GPRMC,015602.80,A,2234.03516567,N,11431.92811438,E,0.162,191.2,071224,3.4,W,D*29
$GNVTG,157.031,T,160.470,M,0.12721,N,0.23559,K,D*32
$GNHDT,50.0673,T*2C
$GPGGA,015603.00,2234.03515914,N,11431.92811736,E,4,13,0.8,-4.3967,M,-1.3413,M,02,0000*55
$GPRMC,015603.00,A,2234.03515914,N,11431.92811736,E,0.127,157.0,071224,3.4,W,D*2F
$GNVTG,225.418,T,228.857,M,0.09723,N,0.18006,K,D*32
$GNHDT,50.4866,T*22
$GPGGA,015603.20,2234.03515534,N,11431.92811320,E,4,13,0.8,-4.4202,M,-1.3413,M,02,0000*55
$GPRMC,015603.20,A,2234.03515534,N,11431.92811320,E,0.097,225.4,071224,3.4,W,D*28
$GNVTG,238.197,T,241.635,M,0.14421,N,0.26708,K,D*30
$GNHDT,51.3693,T*20
$GPGGA,015603.40,2234.03515110,N,11431.92810585,E,4,13,0.8,-4.4308,M,-1.3413,M,02,0000*52
$GPRMC,015603.40,A,2234.03515110,N,11431.92810585,E,0.144,238.2,071224,3.4,W,D*21
$GNVTG,161.501,T,164.939,M,0.01402,N,0.02596,K,D*35
$GNHDT,51.2848,T*29
$GPGGA,015603.60,2234.03515036,N,11431.92810611,E,4,13,0.8,-4.4379,M,-1.3413,M,02,0000*5D
$GPRMC,015603.60,A,2234.03515036,N,11431.92810611,E,0.014,161.5,071224,3.4,W,D*24
$GNVTG,235.758,T,239.196,M,0.06306,N,0.11679,K,D*3B
$GNHDT,51.4078,T*24
$GPGGA,015603.80,2234.03514838,N,11431.92810298,E,4,13,0.8,-4.4430,M,-1.3413,M,00,0000*59
$GPRMC,015603.80,A,2234.03514838,N,11431.92810298,E,0.063,235.8,071224,3.4,W,D*27
$GNVTG,278.037,T,281.476,M,0.08161,N,0.15114,K,D*31
$GNHDT,51.5855,T*22
$GPGGA,015604.00,2234.03514902,N,11431.92809813,E,4,13,0.8,-4.4239,M,-1.3413,M,01,0000*51
$GPRMC,015604.00,A,2234.03514902,N,11431.92809813,E,0.082,278.0,071224,3.4,W,D*2F
$GNVTG,258.190,T,261.629,M,0.04179,N,0.07739,K,D*36
$GNHDT,51.5755,T*2D
$GPGGA,015604.20,2234.03514854,N,11431.92809568,E,4,13,0.8,-4.4266,M,-1.3413,M,01,0000*5A
$GPRMC,015604.20,A,2234.03514854,N,11431.92809568,E,0.042,258.2,071224,3.4,W,D*22
$GNVTG,257.957,T,261.396,M,0.17102,N,0.31673,K,D*3F
$GNHDT,52.0991,T*2D
$GPGGA,015604.40,2234.03514655,N,11431.92808564,E,4,13,0.8,-4.3992,M,-1.3413,M,01,0000*59
$GPRMC,015604.40,A,2234.03514655,N,11431.92808564,E,0.171,258.0,071224,3.4,W,D*25
$GNVTG,270.482,T,273.921,M,0.04514,N,0.08360,K,D*36
$GNHDT,52.3719,T*20
$GPGGA,015604.60,2234.03514657,N,11431.92808293,E,4,13,0.8,-4.4057,M,-1.3413,M,01,0000*51
$GPRMC,015604.60,A,2234.03514657,N,11431.92808293,E,0.045,270.5,071224,3.4,W,D*23
$GNVTG,237.205,T,240.643,M,0.07752,N,0.14357,K,D*3D
$GNHDT,52.1538,T*23
$GPGGA,015604.80,2234.03514423,N,11431.92807902,E,4,13,0.8,-4.4147,M,-1.3413,M,00,0000*53
$GPRMC,015604.80,A,2234.03514423,N,11431.92807902,E,0.078,237.2,071224,3.4,W,D*2A
$GNVTG,290.128,T,293.567,M,0.06279,N,0.11629,K,D*33
$GNHDT,52.3020,T*2D
$GPGGA,015605.00,2234.03514543,N,11431.92807548,E,4,13,0.8,-4.4176,M,-1.3413,M,01,0000*5C
$GPRMC,015605.00,A,2234.03514543,N,11431.92807548,E,0.063,290.1,071224,3.4,W,D*22
$GNVTG,40.234,T,43.672,M,0.11748,N,0.21758,K,D*3F
$GNHDT,52.4656,T*2D
$GPGGA,015605.20,2234.03515043,N,11431.92808003,E,4,13,0.8,-4.4298,M,-1.3413,M,01,0000*5C
$GPRMC,015605.20,A,2234.03515043,N,11431.92808003,E,0.117,40.2,071224,3.4,W,D*1F
$GNVTG,269.404,T,272.842,M,0.08525,N,0.15788,K,D*35
$GNHDT,52.6198,T*2A
$GPGGA,015605.40,2234.03515039,N,11431.92807492,E,4,13,0.8,-4.4257,M,-1.3413,M,01,0000*57
$GPRMC,015605.40,A,2234.03515039,N,11431.92807492,E,0.085,269.4,071224,3.4,W,D*22
$GNVTG,35.214,T,38.652,M,0.10988,N,0.20350,K,D*3F
$GNHDT,52.5436,T*28
$GPGGA,015605.60,2234.03515539,N,11431.92807872,E,4,13,0.8,-4.4273,M,-1.3413,M,01,0000*54
$GPRMC,015605.60,A,2234.03515539,N,11431.92807872,E,0.110,35.2,071224,3.4,W,D*17
$GNVTG,336.904,T,340.342,M,0.09168,N,0.16979,K,D*37
$GNHDT,52.9829,T*26
$GPGGA,015605.80,2234.03516009,N,11431.92807656,E,4,13,0.8,-4.4199,M,-1.3413,M,00,0000*51
$GPRMC,015605.80,A,2234.03516009,N,11431.92807656,E,0.092,336.9,071224,3.4,W,D*24
$GNVTG,116.729,T,120.167,M,0.09618,N,0.17813,K,D*3B
$GNHDT,52.4353,T*2D
$GPGGA,015606.00,2234.03515768,N,11431.92808172,E,4,13,0.8,-4.4151,M,-1.3413,M,01,0000*52
$GPRMC,015606.00,A,2234.03515768,N,11431.92808172,E,0.096,116.7,071224,3.4,W,D*28
$GNVTG,331.665,T,335.103,M,0.07562,N,0.14005,K,D*3D
$GNHDT,52.5706,T*28
$GPGGA,015606.20,2234.03516139,N,11431.92807956,E,4,13,0.8,-4.4164,M,-1.3413,M,01,0000*56
$GPRMC,015606.20,A,2234.03516139,N,11431.92807956,E,0.076,331.7,071224,3.4,W,D*23
$GNVTG,24.356,T,27.794,M,0.16512,N,0.30579,K,D*38
$GNHDT,52.7527,T*2B
$GPGGA,015606.40,2234.03516978,N,11431.92808365,E,4,13,0.8,-4.4292,M,-1.3413,M,01,0000*52
$GPRMC,015606.40,A,2234.03516978,N,11431.92808365,E,0.165,24.4,071224,3.4,W,D*1A
$GNVTG,56.114,T,59.552,M,0.07182,N,0.13300,K,D*3C
$GNHDT,52.4654,T*2F
$GPGGA,015606.60,2234.03517201,N,11431.92808723,E,4,13,0.8,-4.4235,M,-1.3413,M,01,0000*5F
$GPRMC,015606.60,A,2234.03517201,N,11431.92808723,E,0.072,56.1,071224,3.4,W,D*1D
$GNVTG,94.532,T,97.971,M,0.03860,N,0.07149,K,D*36
$GNHDT,52.4805,T*25
$GPGGA,015606.80,2234.03517184,N,11431.92808954,E,4,13,0.8,-4.4236,M,-1.3413,M,00,0000*53
$GPRMC,015606.80,A,2234.03517184,N,11431.92808954,E,0.039,94.5,071224,3.4,W,D*16
$GNVTG,352.456,T,355.894,M,0.12038,N,0.22295,K,D*3B
$GNHDT,52.8893,T*26
$GPGGA,015607.00,2234.03517849,N,11431.92808859,E,4,13,0.8,-4.4420,M,-1.3413,M,01,0000*5E
$GPRMC,015607.00,A,2234.03517849,N,11431.92808859,E,0.120,352.5,071224,3.4,W,D*2B
$GNVTG,359.824,T,3.262,M,0.01787,N,0.03310,K,D*34
$GNHDT,52.6694,T*21
$GPGGA,015607.20,2234.03517949,N,11431.92808859,E,4,13,0.8,-4.4302,M,-1.3413,M,01,0000*5A
$GPRMC,015607.20,A,2234.03517949,N,11431.92808859,E,0.018,359.8,071224,3.4,W,D*24
$GNVTG,250.743,T,254.181,M,0.07085,N,0.13121,K,D*3E
$GNHDT,52.7524,T*28
$GPGGA,015607.40,2234.03517818,N,11431.92808457,E,4,13,0.8,-4.4307,M,-1.3413,M,01,0000*5E
$GPRMC,015607.40,A,2234.03517818,N,11431.92808457,E,0.071,250.7,071224,3.4,W,D*2D
$GNVTG,30.228,T,33.666,M,0.06281,N,0.11632,K,D*3F
$GNHDT,52.7823,T*22
$GPGGA,015607.60,2234.03518121,N,11431.92808647,E,4,13,0.8,-4.4355,M,-1.3413,M,01,0000*54
$GPRMC,015607.60,A,2234.03518121,N,11431.92808647,E,0.063,30.2,071224,3.4,W,D*12
$GNVTG,2.761,T,6.199,M,0.03579,N,0.06628,K,D*3F
$GNHDT,53.0659,T*27
$GPGGA,015607.80,2234.03518320,N,11431.92808657,E,4,13,0.8,-4.4157,M,-1.3413,M,00,0000*59
$GPRMC,015607.80,A,2234.03518320,N,11431.92808657,E,0.036,2.8,071224,3.4,W,D*25
$GNVTG,27.242,T,30.680,M,0.05203,N,0.09637,K,D*3B
$GNHDT,53.1711,T*2B
$GPGGA,015608.00,2234.03518578,N,11431.92808800,E,4,13,0.8,-4.4272,M,-1.3413,M,01,0000*5C
$GPRMC,015608.00,A,2234.03518578,N,11431.92808800,E,0.052,27.2,071224,3.4,W,D*1A
$GNVTG,13.882,T,17.321,M,0.08914,N,0.16508,K,D*30
$GNHDT,53.1373,T*2B
$GPGGA,015608.20,2234.03519061,N,11431.92808929,E,4,13,0.8,-4.4366,M,-1.3413,M,01,0000*5C
$GPRMC,015608.20,A,2234.03519061,N,11431.92808929,E,0.089,13.9,071224,3.4,W,D*14
$GNVTG,341.172,T,344.610,M,0.07418,N,0.13738,K,D*3A
$GNHDT,53.1235,T*28
$GPGGA,015608.40,2234.03519452,N,11431.92808785,E,4,13,0.8,-4.4245,M,-1.3413,M,01,0000*56
$GPRMC,015608.40,A,2234.03519452,N,11431.92808785,E,0.074,341.2,071224,3.4,W,D*23
$GNVTG,39.546,T,42.984,M,0.06078,N,0.11256,K,D*3E
$GNHDT,53.5832,T*21
$GPGGA,015608.60,2234.03519713,N,11431.92809017,E,4,13,0.8,-4.4193,M,-1.3413,M,01,0000*57
$GPRMC,015608.60,A,2234.03519713,N,11431.92809017,E,0.061,39.5,071224,3.4,W,D*15
$GNVTG,319.813,T,323.251,M,0.10633,N,0.19692,K,D*3F
$GNHDT,53.5988,T*21
$GPGGA,015608.80,2234.03520166,N,11431.92808606,E,4,13,0.8,-4.4125,M,-1.3413,M,00,0000*5C
$GPRMC,015608.80,A,2234.03520166,N,11431.92808606,E,0.106,319.8,071224,3.4,W,D*2E
$GNVTG,77.356,T,80.794,M,0.06696,N,0.12400,K,D*32
$GNHDT,53.4983,T*2B
$GPGGA,015609.00,2234.03520248,N,11431.92808998,E,4,13,0.8,-4.4204,M,-1.3413,M,01,0000*53
$GPRMC,015609.00,A,2234.03520248,N,11431.92808998,E,0.067,77.4,071224,3.4,W,D*11
$GNVTG,345.557,T,348.996,M,0.06942,N,0.12857,K,D*34
$GNHDT,53.5294,T*27
$GPGGA,015609.20,2234.03520623,N,11431.92808894,E,4,13,0.8,-4.4251,M,-1.3413,M,01,0000*55
$GPRMC,015609.20,A,2234.03520623,N,11431.92808894,E,0.069,345.6,071224,3.4,W,D*29
$GNVTG,279.952,T,283.391,M,0.05552,N,0.10282,K,D*36
$GNHDT,53.8937,T*28
$GPGGA,015609.40,2234.03520676,N,11431.92808566,E,4,13,0.8,-4.4122,M,-1.3413,M,01,0000*54
$GPRMC,015609.40,A,2234.03520676,N,11431.92808566,E,0.056,280.0,071224,3.4,W,D*2D
$GNVTG,322.777,T,326.216,M,0.04941,N,0.09150,K,D*3B
$GNHDT,54.0075,T*28
$GPGGA,015609.60,2234.03520895,N,11431.92808386,E,4,13,0.8,-4.4174,M,-1.3413,M,01,0000*5E
$GPRMC,015609.60,A,2234.03520895,N,11431.92808386,E,0.049,322.8,071224,3.4,W,D*2B
$GNVTG,8.253,T,11.692,M,0.04601,N,0.08521,K,D*04
$GNHDT,54.0388,T*29
$GPGGA,015609.80,2234.03521149,N,11431.92808426,E,4,13,0.8,-4.3978,M,-1.3413,M,00,0000*56
$GPRMC,015609.80,A,2234.03521149,N,11431.92808426,E,0.046,8.3,071224,3.4,W,D*2E
$GNVTG,8.158,T,11.597,M,0.05291,N,0.09799,K,D*06
$GNHDT,54.2148,T*25
$GPGGA,015610.00,2234.03521441,N,11431.92808471,E,4,13,0.8,-4.4196,M,-1.3413,M,01,0000*57
$GPRMC,015610.00,A,2234.03521441,N,11431.92808471,E,0.053,8.2,071224,3.4,W,D*24
$GNVTG,14.705,T,18.144,M,0.03140,N,0.05814,K,D*39
$GNHDT,54.3622,T*2F
$GPGGA,015610.20,2234.03521610,N,11431.92808519,E,4,13,0.8,-4.4070,M,-1.3413,M,01,0000*55
$GPRMC,015610.20,A,2234.03521610,N,11431.92808519,E,0.031,14.7,071224,3.4,W,D*13
$GNVTG,23.703,T,27.141,M,0.08408,N,0.15572,K,D*3C
$GNHDT,54.2927,T*24
$GPGGA,015610.40,2234.03522040,N,11431.92808722,E,4,13,0.8,-4.4313,M,-1.3413,M,01,0000*5F
$GPRMC,015610.40,A,2234.03522040,N,11431.92808722,E,0.084,23.7,071224,3.4,W,D*15
$GNVTG,212.221,T,215.659,M,0.11344,N,0.21008,K,D*3C
$GNHDT,54.3360,T*2C
$GPGGA,015610.60,2234.03521505,N,11431.92808359,E,4,13,0.8,-4.4132,M,-1.3413,M,01,0000*53
$GPRMC,015610.60,A,2234.03521505,N,11431.92808359,E,0.113,212.2,071224,3.4,W,D*22
$GNVTG,309.411,T,312.849,M,0.04173,N,0.07728,K,D*38
$GNHDT,54.7843,T*22
$GPGGA,015610.80,2234.03521652,N,11431.92808165,E,4,13,0.8,-4.4112,M,-1.3413,M,00,0000*52
$GPRMC,015610.80,A,2234.03521652,N,11431.92808165,E,0.042,309.4,071224,3.4,W,D*28
$GNVTG,35.062,T,38.501,M,0.06286,N,0.11641,K,D*3C
$GNHDT,54.9096,T*2C
$GPGGA,015611.00,2234.03521939,N,11431.92808382,E,4,13,0.8,-4.4184,M,-1.3413,M,01,0000*5C
$GPRMC,015611.00,A,2234.03521939,N,11431.92808382,E,0.063,35.1,071224,3.4,W,D*12
$GNVTG,274.644,T,278.082,M,0.05472,N,0.10134,K,D*3B
$GNHDT,54.8386,T*2F
$GPGGA,015611.20,2234.03521964,N,11431.92808054,E,4,13,0.8,-4.3911,M,-1.3413,M,01,0000*5D
$GPRMC,015611.20,A,2234.03521964,N,11431.92808054,E,0.055,274.6,071224,3.4,W,D*25
$GNVTG,8.766,T,12.204,M,0.15133,N,0.28027,K,D*08
$GNHDT,55.2239,T*21
$GPGGA,015611.40,2234.03522798,N,11431.92808193,E,4,13,0.8,-4.3896,M,-1.3413,M,01,0000*51
$GPRMC,015611.40,A,2234.03522798,N,11431.92808193,E,0.151,8.8,071224,3.4,W,D*25
$GNVTG,0.795,T,4.233,M,0.01838,N,0.03403,K,D*33
$GNHDT,55.4081,T*26
$GPGGA,015611.60,2234.03522900,N,11431.92808194,E,4,13,0.8,-4.4077,M,-1.3413,M,01,0000*5B
$GPRMC,015611.60,A,2234.03522900,N,11431.92808194,E,0.018,0.8,071224,3.4,W,D*2B
$GNVTG,248.482,T,251.920,M,0.06755,N,0.12509,K,D*3B
$GNHDT,55.4870,T*20
$GPGGA,015611.80,2234.03522762,N,11431.92807817,E,4,13,0.8,-4.4143,M,-1.3413,M,00,0000*55
$GPRMC,015611.80,A,2234.03522762,N,11431.92807817,E,0.068,248.5,071224,3.4,W,D*26
$GNVTG,25.930,T,29.369,M,0.05143,N,0.09525,K,D*3A
$GNHDT,55.7725,T*2C
$GPGGA,015612.00,2234.03523020,N,11431.92807952,E,4,13,0.8,-4.4299,M,-1.3413,M,01,0000*5B
$GPRMC,015612.00,A,2234.03523020,N,11431.92807952,E,0.051,25.9,071224,3.4,W,D*12
$GNVTG,273.443,T,276.882,M,0.08595,N,0.15918,K,D*39
$GNHDT,55.9839,T*20
$GPGGA,015612.20,2234.03523049,N,11431.92807437,E,4,12,0.9,-4.4125,M,-1.3413,M,01,0000*5C
$GPRMC,015612.20,A,2234.03523049,N,11431.92807437,E,0.086,273.4,071224,3.4,W,D*27
$GNVTG,300.885,T,304.324,M,0.04617,N,0.08551,K,D*31
$GNHDT,56.0754,T*2E
$GPGGA,015612.40,2234.03523181,N,11431.92807199,E,4,12,0.9,-4.4317,M,-1.3413,M,01,0000*5D
$GPRMC,015612.40,A,2234.03523181,N,11431.92807199,E,0.046,300.9,071224,3.4,W,D*21
$GNVTG,101.466,T,104.904,M,0.05691,N,0.10539,K,D*31
$GNHDT,56.0569,T*22
$GPGGA,015612.60,2234.03523118,N,11431.92807534,E,4,12,0.9,-4.4321,M,-1.3413,M,01,0000*59
$GPRMC,015612.60,A,2234.03523118,N,11431.92807534,E,0.057,101.5,071224,3.4,W,D*2F
$GNVTG,301.490,T,304.929,M,0.09947,N,0.18423,K,D*3D
$GNHDT,55.9631,T*26
$GPGGA,015612.80,2234.03523407,N,11431.92807025,E,4,11,1.0,-4.4030,M,-1.3413,M,00,0000*50
$GPRMC,015612.80,A,2234.03523407,N,11431.92807025,E,0.099,301.5,071224,3.4,W,D*2F
$GNVTG,33.255,T,36.694,M,0.07917,N,0.14662,K,D*3B
$GNHDT,56.0036,T*2D
$GPGGA,015613.00,2234.03523776,N,11431.92807286,E,4,12,0.9,-4.4069,M,-1.3413,M,01,0000*51
$GPRMC,015613.00,A,2234.03523776,N,11431.92807286,E,0.079,33.3,071224,3.4,W,D*12
$GNVTG,277.672,T,281.110,M,0.06965,N,0.12898,K,D*34
$GNHDT,56.1595,T*20
$GPGGA,015613.20,2234.03523828,N,11431.92806871,E,4,12,0.9,-4.3885,M,-1.3413,M,01,0000*59
$GPRMC,015613.20,A,2234.03523828,N,11431.92806871,E,0.070,277.7,071224,3.4,W,D*28
$GNVTG,209.661,T,213.100,M,0.11945,N,0.22123,K,D*3B
$GNHDT,56.3958,T*2F
$GPGGA,015613.40,2234.03523250,N,11431.92806516,E,4,12,0.9,-4.4230,M,-1.3413,M,01,0000*55
$GPRMC,015613.40,A,2234.03523250,N,11431.92806516,E,0.119,209.7,071224,3.4,W,D*20
$GNVTG,356.838,T,0.277,M,0.08515,N,0.15769,K,D*3C
$GNHDT,56.7103,T*2D
$GPGGA,015613.60,2234.03523724,N,11431.92806488,E,4,12,0.9,-4.4391,M,-1.3413,M,01,0000*5D
$GPRMC,015613.60,A,2234.03523724,N,11431.92806488,E,0.085,356.8,071224,3.4,W,D*22
$GNVTG,275.548,T,278.986,M,0.07944,N,0.14713,K,D*35
$GNHDT,56.8735,T*21
$GPGGA,015613.80,2234.03523766,N,11431.92806014,E,4,12,0.9,-4.4333,M,-1.3413,M,00,0000*5D
$GPRMC,015613.80,A,2234.03523766,N,11431.92806014,E,0.079,275.5,071224,3.4,W,D*25
$GNVTG,341.701,T,345.140,M,0.08339,N,0.15444,K,D*3E
$GNHDT,56.7858,T*2A
$GPGGA,015614.00,2234.03524208,N,11431.92805856,E,4,13,0.8,-4.4386,M,-1.3413,M,01,0000*5A
$GPRMC,015614.00,A,2234.03524208,N,11431.92805856,E,0.083,341.7,071224,3.4,W,D*2C
$GNVTG,47.350,T,50.788,M,0.12943,N,0.23971,K,D*3C
$GNHDT,56.5047,T*2E
$GPGGA,015614.20,2234.03524697,N,11431.92806428,E,4,13,0.8,-4.4381,M,-1.3413,M,01,0000*5B
$GPRMC,015614.20,A,2234.03524697,N,11431.92806428,E,0.129,47.3,071224,3.4,W,D*1A
$GNVTG,344.032,T,347.471,M,0.16742,N,0.31006,K,D*3A
$GNHDT,56.5860,T*23
$GPGGA,015614.40,2234.03525594,N,11431.92806151,E,4,13,0.8,-4.4059,M,-1.3413,M,01,0000*51
$GPRMC,015614.40,A,2234.03525594,N,11431.92806151,E,0.167,344.0,071224,3.4,W,D*2F
$GNVTG,302.756,T,306.195,M,0.01759,N,0.03258,K,D*33
$GNHDT,56.5890,T*2C
$GPGGA,015614.60,2234.03525647,N,11431.92806063,E,4,13,0.8,-4.4407,M,-1.3413,M,01,0000*51
$GPRMC,015614.60,A,2234.03525647,N,11431.92806063,E,0.018,302.8,071224,3.4,W,D*23
$GNVTG,161.852,T,165.291,M,0.07631,N,0.14132,K,D*3F
$GNHDT,56.2902,T*21
$GPGGA,015614.80,2234.03525243,N,11431.92806205,E,4,13,0.8,-4.4381,M,-1.3413,M,00,0000*55
$GPRMC,015614.80,A,2234.03525243,N,11431.92806205,E,0.076,161.9,071224,3.4,W,D*21
$GNVTG,226.781,T,230.220,M,0.04528,N,0.08386,K,D*3F
$GNHDT,56.0069,T*27
$GPGGA,015615.00,2234.03525070,N,11431.92806007,E,4,13,0.8,-4.4301,M,-1.3413,M,01,0000*57
$GPRMC,015615.00,A,2234.03525070,N,11431.92806007,E,0.045,226.8,071224,3.4,W,D*2B
$GNVTG,137.589,T,141.028,M,0.11157,N,0.20663,K,D*35
$GNHDT,55.6839,T*2F
$GPGGA,015615.20,2234.03524611,N,11431.92806459,E,4,12,0.9,-4.4681,M,-1.3413,M,01,0000*57
$GPRMC,015615.20,A,2234.03524611,N,11431.92806459,E,0.112,137.6,071224,3.4,W,D*28
$GNVTG,182.742,T,186.180,M,0.15633,N,0.28953,K,D*33
$GNHDT,55.5825,T*21
$GPGGA,015615.40,2234.03523740,N,11431.92806414,E,4,12,0.9,-4.4129,M,-1.3413,M,01,0000*5F
$GPRMC,015615.40,A,2234.03523740,N,11431.92806414,E,0.156,182.7,071224,3.4,W,D*2A
$GNVTG,112.660,T,116.099,M,0.09914,N,0.18362,K,D*37
$GNHDT,55.2544,T*2C
$GPGGA,015615.60,2234.03523527,N,11431.92806963,E,4,12,0.9,-4.4439,M,-1.3413,M,01,0000*57
$GPRMC,015615.60,A,2234.03523527,N,11431.92806963,E,0.099,112.7,071224,3.4,W,D*2D
$GNVTG,181.864,T,185.302,M,0.20074,N,0.37176,K,D*32
$GNHDT,54.7362,T*2A
$GPGGA,015615.80,2234.03522409,N,11431.92806924,E,4,12,0.9,-4.4351,M,-1.3413,M,00,0000*5E
$GPRMC,015615.80,A,2234.03522409,N,11431.92806924,E,0.201,181.9,071224,3.4,W,D*2B
$GNVTG,268.874,T,272.313,M,0.00263,N,0.00488,K,D*3A
$GNHDT,54.5311,T*2C
$GPGGA,015616.00,2234.03522408,N,11431.92806908,E,4,12,0.9,-4.4252,M,-1.3413,M,01,0000*59
$GPRMC,015616.00,A,2234.03522408,N,11431.92806908,E,0.003,268.9,071224,3.4,W,D*2B
$GNVTG,97.276,T,100.715,M,0.12304,N,0.22787,K,D*0B
$GNHDT,54.4319,T*25
$GPGGA,015616.20,2234.03522322,N,11431.92807641,E,4,12,0.9,-4.4633,M,-1.3413,M,01,0000*54
$GPRMC,015616.20,A,2234.03522322,N,11431.92807641,E,0.123,97.3,071224,3.4,W,D*1E
$GNVTG,89.169,T,92.607,M,0.08322,N,0.15412,K,D*35
$GNHDT,54.7484,T*25
$GPGGA,015616.40,2234.03522328,N,11431.92808140,E,4,12,0.9,-4.4435,M,-1.3413,M,01,0000*55
$GPRMC,015616.40,A,2234.03522328,N,11431.92808140,E,0.083,89.2,071224,3.4,W,D*1E
$GNVTG,137.692,T,141.130,M,0.05890,N,0.10908,K,D*32
$GNHDT,54.2829,T*2B
$GPGGA,015616.60,2234.03522085,N,11431.92808378,E,4,12,0.9,-4.4669,M,-1.3413,M,01,0000*51
$GPRMC,015616.60,A,2234.03522085,N,11431.92808378,E,0.059,137.7,071224,3.4,W,D*27
$GNVTG,163.927,T,167.365,M,0.13420,N,0.24854,K,D*3B
$GNHDT,54.0903,T*20
$GPGGA,015616.80,2234.03521367,N,11431.92808601,E,4,12,0.9,-4.4545,M,-1.3413,M,00,0000*54
$GPRMC,015616.80,A,2234.03521367,N,11431.92808601,E,0.134,163.9,071224,3.4,W,D*2B
$GNVTG,135.260,T,138.698,M,0.12339,N,0.22852,K,D*33
$GNHDT,53.7546,T*2D
$GPGGA,015617.00,2234.03520878,N,11431.92809123,E,4,12,0.9,-4.4632,M,-1.3413,M,01,0000*5D
$GPRMC,015617.00,A,2234.03520878,N,11431.92809123,E,0.123,135.3,071224,3.4,W,D*2F
$GNVTG,160.435,T,163.873,M,0.10194,N,0.18879,K,D*37
$GNHDT,53.7458,T*23
$GPGGA,015617.20,2234.03520343,N,11431.92809327,E,4,12,0.9,-4.4566,M,-1.3413,M,01,0000*58
$GPRMC,015617.20,A,2234.03520343,N,11431.92809327,E,0.102,160.4,071224,3.4,W,D*2C
$GNVTG,175.204,T,178.642,M,0.08675,N,0.16067,K,D*39
$GNHDT,53.5757,T*2D
$GPGGA,015617.40,2234.03519861,N,11431.92809371,E,4,12,0.9,-4.4625,M,-1.3413,M,01,0000*58
$GPRMC,015617.40,A,2234.03519861,N,11431.92809371,E,0.087,175.2,071224,3.4,W,D*26
$GNVTG,164.978,T,168.416,M,0.07677,N,0.14217,K,D*31
$GNHDT,53.4062,T*2D
$GPGGA,015617.60,2234.03519447,N,11431.92809490,E,4,12,0.9,-4.4690,M,-1.3413,M,01,0000*54
$GPRMC,015617.60,A,2234.03519447,N,11431.92809490,E,0.077,165.0,071224,3.4,W,D*28
$GNVTG,200.410,T,203.848,M,0.06424,N,0.11898,K,D*37
$GNHDT,53.2338,T*27
$GPGGA,015617.80,2234.03519112,N,11431.92809356,E,4,12,0.9,-4.4422,M,-1.3413,M,01,0000*59
$GPRMC,015617.80,A,2234.03519112,N,11431.92809356,E,0.064,200.4,071224,3.4,W,D*28
$GNVTG,102.570,T,106.009,M,0.09889,N,0.18315,K,D*39
$GNHDT,53.3637,T*2C
$GPGGA,015618.00,2234.03518992,N,11431.92809935,E,4,12,0.9,-4.4536,M,-1.3413,M,02,0000*57
$GPRMC,015618.00,A,2234.03518992,N,11431.92809935,E,0.099,102.6,071224,3.4,W,D*20
$GNVTG,17.005,T,20.443,M,0.02248,N,0.04164,K,D*31
$GNHDT,53.5304,T*2F
$GPGGA,015618.20,2234.03519111,N,11431.92809975,E,4,12,0.9,-4.4611,M,-1.3413,M,02,0000*55
$GPRMC,015618.20,A,2234.03519111,N,11431.92809975,E,0.022,17.0,071224,3.4,W,D*17
$GNVTG,174.164,T,177.603,M,0.04484,N,0.08305,K,D*3F
$GNHDT,53.4835,T*27
$GPGGA,015618.40,2234.03518863,N,11431.92810002,E,4,12,0.9,-4.4674,M,-1.3413,M,02,0000*5C
$GPRMC,015618.40,A,2234.03518863,N,11431.92810002,E,0.045,174.2,071224,3.4,W,D*2A
$GNVTG,163.125,T,166.563,M,0.11007,N,0.20385,K,D*30
$GNHDT,53.0548,T*24
$GPGGA,015618.60,2234.03518276,N,11431.92810194,E,4,12,0.9,-4.4586,M,-1.3413,M,02,0000*50
$GPRMC,015618.60,A,2234.03518276,N,11431.92810194,E,0.110,163.1,071224,3.4,W,D*2C
$GNVTG,198.725,T,202.163,M,0.09399,N,0.17406,K,D*32
$GNHDT,52.9577,T*20
$GPGGA,015618.80,2234.03517779,N,11431.92810013,E,4,12,0.9,-4.4689,M,-1.3413,M,00,0000*5B
$GPRMC,015618.80,A,2234.03517779,N,11431.92810013,E,0.094,198.7,071224,3.4,W,D*26
$GNVTG,124.272,T,127.710,M,0.01905,N,0.03528,K,D*3B
$GNHDT,53.5564,T*2F
$GPGGA,015619.00,2234.03517720,N,11431.92810107,E,4,12,0.9,-4.4561,M,-1.3413,M,01,0000*5E
$GPRMC,015619.00,A,2234.03517720,N,11431.92810107,E,0.019,124.3,071224,3.4,W,D*21
$GNVTG,174.481,T,177.920,M,0.08902,N,0.16486,K,D*33
$GNHDT,53.1019,T*24
$GPGGA,015619.20,2234.03517226,N,11431.92810159,E,4,12,0.9,-4.4469,M,-1.3413,M,01,0000*5D
$GPRMC,015619.20,A,2234.03517226,N,11431.92810159,E,0.089,174.5,071224,3.4,W,D*21
$GNVTG,241.870,T,245.308,M,0.02232,N,0.04134,K,D*3B
$GNHDT,53.0049,T*20
$GPGGA,015619.40,2234.03517167,N,11431.92810041,E,4,12,0.9,-4.4381,M,-1.3413,M,01,0000*54
$GPRMC,015619.40,A,2234.03517167,N,11431.92810041,E,0.022,241.9,071224,3.4,W,D*21
$GNVTG,197.453,T,200.891,M,0.06505,N,0.12047,K,D*31
$GNHDT,53.1649,T*27
$GPGGA,015619.60,2234.03516821,N,11431.92809923,E,4,12,0.9,-4.4324,M,-1.3413,M,01,0000*56
$GPRMC,015619.60,A,2234.03516821,N,11431.92809923,E,0.065,197.5,071224,3.4,W,D*2B
$GNVTG,187.819,T,191.257,M,0.12106,N,0.22421,K,D*3C
$GNHDT,52.5665,T*2C
$GPGGA,015619.80,2234.03516152,N,11431.92809825,E,4,12,0.9,-4.4284,M,-1.3413,M,00,0000*58
$GPRMC,015619.80,A,2234.03516152,N,11431.92809825,E,0.121,187.8,071224,3.4,W,D*22
$GNVTG,358.403,T,1.841,M,0.05985,N,0.11085,K,D*31
$GNHDT,52.6540,T*2B
$GPGGA,015620.00,2234.03516486,N,11431.92809815,E,4,13,0.8,-4.4255,M,-1.3413,M,01,0000*58
$GPRMC,015620.00,A,2234.03516486,N,11431.92809815,E,0.060,358.4,071224,3.4,W,D*27
$GNVTG,222.796,T,226.235,M,0.06850,N,0.12687,K,D*31
$GNHDT,52.9788,T*22
$GPGGA,015620.20,2234.03516206,N,11431.92809535,E,4,13,0.8,-4.4308,M,-1.3413,M,01,0000*52
$GPRMC,015620.20,A,2234.03516206,N,11431.92809535,E,0.069,222.8,071224,3.4,W,D*2D
$GNVTG,217.601,T,221.040,M,0.06859,N,0.12702,K,D*3A
$GNHDT,52.8761,T*24
$GPGGA,015620.40,2234.03515903,N,11431.92809284,E,4,13,0.8,-4.4565,M,-1.3413,M,01,0000*59
$GPRMC,015620.40,A,2234.03515903,N,11431.92809284,E,0.069,217.6,071224,3.4,W,D*23
$GNVTG,85.708,T,89.147,M,0.07712,N,0.14282,K,D*37
$GNHDT,52.3731,T*2A
$GPGGA,015620.60,2234.03515935,N,11431.92809746,E,4,13,0.8,-4.4561,M,-1.3413,M,01,0000*51
$GPRMC,015620.60,A,2234.03515935,N,11431.92809746,E,0.077,85.7,071224,3.4,W,D*18
$GNVTG,235.472,T,238.911,M,0.11050,N,0.20464,K,D*3C
$GNHDT,52.6691,T*24
$GPGGA,015620.80,2234.03515586,N,11431.92809199,E,4,13,0.8,-4.4546,M,-1.3413,M,01,0000*5A
$GPRMC,015620.80,A,2234.03515586,N,11431.92809199,E,0.110,235.5,071224,3.4,W,D*2D
$GNVTG,82.070,T,85.508,M,0.03913,N,0.07246,K,D*3A
$GNHDT,52.5817,T*27
$GPGGA,015621.00,2234.03515616,N,11431.92809432,E,4,13,0.8,-4.4480,M,-1.3413,M,02,0000*55
$GPRMC,015621.00,A,2234.03515616,N,11431.92809432,E,0.039,82.1,071224,3.4,W,D*1A
$GNVTG,156.665,T,160.104,M,0.07916,N,0.14661,K,D*30
$GNHDT,52.1960,T*22
$GPGGA,015621.20,2234.03515211,N,11431.92809620,E,4,13,0.8,-4.4448,M,-1.3413,M,02,0000*51
$GPRMC,015621.20,A,2234.03515211,N,11431.92809620,E,0.079,156.7,071224,3.4,W,D*20
$GNVTG,301.669,T,305.108,M,0.09578,N,0.17739,K,D*34
$GNHDT,52.7155,T*2A
$GPGGA,015621.40,2234.03515491,N,11431.92809131,E,4,13,0.8,-4.4357,M,-1.3413,M,02,0000*57
$GPRMC,015621.40,A,2234.03515491,N,11431.92809131,E,0.096,301.7,071224,3.4,W,D*2E
$GNVTG,337.278,T,340.716,M,0.06303,N,0.11672,K,D*30
$GNHDT,52.5485,T*20
$GPGGA,015621.60,2234.03515815,N,11431.92808985,E,4,13,0.8,-4.4263,M,-1.3413,M,02,0000*55
$GPRMC,015621.60,A,2234.03515815,N,11431.92808985,E,0.063,337.3,071224,3.4,W,D*21
$GNVTG,254.058,T,257.496,M,0.03745,N,0.06936,K,D*32
$GNHDT,52.6690,T*25
$GPGGA,015621.80,2234.03515758,N,11431.92808768,E,4,13,0.8,-4.4345,M,-1.3413,M,00,0000*57
$GPRMC,015621.80,A,2234.03515758,N,11431.92808768,E,0.037,254.1,071224,3.4,W,D*23
$GNVTG,294.009,T,297.447,M,0.02836,N,0.05252,K,D*3A
$GNHDT,52.6939,T*29
$GPGGA,015622.00,2234.03515822,N,11431.92808613,E,4,13,0.8,-4.4233,M,-1.3413,M,01,0000*52
$GPRMC,015622.00,A,2234.03515822,N,11431.92808613,E,0.028,294.0,071224,3.4,W,D*24
$GNVTG,20.556,T,23.995,M,0.05712,N,0.10578,K,D*32
$GNHDT,52.5580,T*24
$GPGGA,015622.20,2234.03516120,N,11431.92808733,E,4,13,0.8,-4.4481,M,-1.3413,M,01,0000*54
$GPRMC,015622.20,A,2234.03516120,N,11431.92808733,E,0.057,20.6,071224,3.4,W,D*1E
$GNVTG,266.435,T,269.874,M,0.07443,N,0.13784,K,D*33
$GNHDT,52.9560,T*26
$GPGGA,015622.40,2234.03516095,N,11431.92808287,E,4,13,0.8,-4.4452,M,-1.3413,M,01,0000*59
$GPRMC,015622.40,A,2234.03516095,N,11431.92808287,E,0.074,266.4,071224,3.4,W,D*2E
$GNVTG,91.549,T,94.988,M,0.02534,N,0.04693,K,D*34
$GNHDT,52.4962,T*25
$GPGGA,015622.60,2234.03516091,N,11431.92808439,E,4,13,0.8,-4.4609,M,-1.3413,M,01,0000*50
$GPRMC,015622.60,A,2234.03516091,N,11431.92808439,E,0.025,91.5,071224,3.4,W,D*14
$GNVTG,259.023,T,262.462,M,0.13324,N,0.24676,K,D*37
$GNHDT,53.1444,T*28
$GPGGA,015622.80,2234.03515949,N,11431.92807654,E,4,13,0.8,-4.4536,M,-1.3413,M,00,0000*59
$GPRMC,015622.80,A,2234.03515949,N,11431.92807654,E,0.133,259.0,071224,3.4,W,D*26
$GNVTG,292.755,T,296.194,M,0.08723,N,0.16155,K,D*3F
$GNHDT,53.4889,T*20
$GPGGA,015623.00,2234.03516137,N,11431.92807171,E,4,13,0.8,-4.4387,M,-1.3413,M,01,0000*5F
$GPRMC,015623.00,A,2234.03516137,N,11431.92807171,E,0.087,292.8,071224,3.4,W,D*2C
$GNVTG,8.451,T,11.890,M,0.06389,N,0.11832,K,D*0C
$GNHDT,53.6963,T*27
$GPGGA,015623.20,2234.03516490,N,11431.92807228,E,4,13,0.8,-4.4378,M,-1.3413,M,01,0000*5A
$GPRMC,015623.20,A,2234.03516490,N,11431.92807228,E,0.064,8.5,071224,3.4,W,D*28
$GNVTG,10.916,T,14.355,M,0.19382,N,0.35895,K,D*32
$GNHDT,54.2885,T*2D
$GPGGA,015623.40,2234.03517551,N,11431.92807448,E,4,13,0.8,-4.4400,M,-1.3413,M,01,0000*59
$GPRMC,015623.40,A,2234.03517551,N,11431.92807448,E,0.194,10.9,071224,3.4,W,D*18
$GNVTG,16.383,T,19.822,M,0.14442,N,0.26747,K,D*30
$GNHDT,54.6809,T*2D
$GPGGA,015623.60,2234.03518323,N,11431.92807693,E,4,13,0.8,-4.4288,M,-1.3413,M,01,0000*55
$GPRMC,015623.60,A,2234.03518323,N,11431.92807693,E,0.144,16.4,071224,3.4,W,D*14
$GNVTG,328.785,T,332.223,M,0.11196,N,0.20735,K,D*37
$GNHDT,55.0227,T*2C
$GPGGA,015623.80,2234.03518857,N,11431.92807344,E,4,13,0.8,-4.4179,M,-1.3413,M,00,0000*50
$GPRMC,015623.80,A,2234.03518857,N,11431.92807344,E,0.112,328.8,071224,3.4,W,D*2C
$GNVTG,40.047,T,43.485,M,0.09573,N,0.17728,K,D*32
$GNHDT,55.0542,T*28
$GPGGA,015624.00,2234.03519265,N,11431.92807714,E,4,13,0.8,-4.4451,M,-1.3413,M,01,0000*5A
$GPRMC,015624.00,A,2234.03519265,N,11431.92807714,E,0.096,40.0,071224,3.4,W,D*10
$GNVTG,352.100,T,355.539,M,0.15387,N,0.28496,K,D*38
$GNHDT,55.5905,T*22
$GPGGA,015624.20,2234.03520115,N,11431.92807587,E,4,13,0.8,-4.4507,M,-1.3413,M,01,0000*5C
$GPRMC,015624.20,A,2234.03520115,N,11431.92807587,E,0.154,352.1,071224,3.4,W,D*2A
$GNVTG,19.096,T,22.534,M,0.07105,N,0.13159,K,D*31
$GNHDT,55.7692,T*21
$GPGGA,015624.40,2234.03520489,N,11431.92807727,E,4,13,0.8,-4.4537,M,-1.3413,M,01,0000*51
$GPRMC,015624.40,A,2234.03520489,N,11431.92807727,E,0.071,19.1,071224,3.4,W,D*1E
$GNVTG,2.876,T,6.314,M,0.18743,N,0.34711,K,D*3A
$GNHDT,56.1297,T*25
$GPGGA,015624.60,2234.03521533,N,11431.92807783,E,4,13,0.8,-4.4406,M,-1.3413,M,01,0000*5F
$GPRMC,015624.60,A,2234.03521533,N,11431.92807783,E,0.187,2.9,071224,3.4,W,D*29
$GNVTG,347.371,T,350.809,M,0.17138,N,0.31740,K,D*37
$GNHDT,56.8764,T*25
$GPGGA,015624.80,2234.03522465,N,11431.92807558,E,4,13,0.8,-4.4318,M,-1.3413,M,00,0000*5D
$GPRMC,015624.80,A,2234.03522465,N,11431.92807558,E,0.171,347.4,071224,3.4,W,D*24
$GNVTG,34.001,T,37.439,M,0.18700,N,0.34632,K,D*3A
$GNHDT,56.4846,T*26
$GPGGA,015625.00,2234.03523329,N,11431.92808186,E,4,13,0.8,-4.4487,M,-1.3413,M,01,0000*52
$GPRMC,015625.00,A,2234.03523329,N,11431.92808186,E,0.187,34.0,071224,3.4,W,D*11
$GNVTG,339.788,T,343.226,M,0.20311,N,0.37616,K,D*30
$GNHDT,57.5978,T*2A
$GPGGA,015625.20,2234.03524392,N,11431.92807765,E,4,13,0.8,-4.4252,M,-1.3413,M,01,0000*5D
$GPRMC,015625.20,A,2234.03524392,N,11431.92807765,E,0.203,339.8,071224,3.4,W,D*29
$GNVTG,44.558,T,47.997,M,0.15857,N,0.29367,K,D*33
$GNHDT,57.5070,T*2B
$GPGGA,015625.40,2234.03525022,N,11431.92808432,E,4,13,0.8,-4.4610,M,-1.3413,M,01,0000*5E
$GPRMC,015625.40,A,2234.03525022,N,11431.92808432,E,0.159,44.6,071224,3.4,W,D*13
$GNVTG,328.825,T,332.263,M,0.19192,N,0.35543,K,D*3D
$GNHDT,58.3309,T*2F
$GPGGA,015625.60,2234.03525937,N,11431.92807836,E,4,13,0.8,-4.4509,M,-1.3413,M,01,0000*5D
$GPRMC,015625.60,A,2234.03525937,N,11431.92807836,E,0.192,328.8,071224,3.4,W,D*2B
$GNVTG,38.953,T,42.391,M,0.14459,N,0.26779,K,D*31
$GNHDT,58.2115,T*21
$GPGGA,015625.80,2234.03526564,N,11431.92808382,E,4,13,0.8,-4.4600,M,-1.3413,M,00,0000*5A
$GPRMC,015625.80,A,2234.03526564,N,11431.92808382,E,0.145,39.0,071224,3.4,W,D*16
$GNVTG,12.483,T,15.921,M,0.11799,N,0.21852,K,D*31
$GNHDT,58.5021,T*20
$GPGGA,015626.00,2234.03527206,N,11431.92808535,E,4,13,0.8,-4.4704,M,-1.3413,M,01,0000*5D
$GPRMC,015626.00,A,2234.03527206,N,11431.92808535,E,0.118,12.5,071224,3.4,W,D*11
$GNVTG,347.897,T,351.335,M,0.12689,N,0.23499,K,D*3D
$GNHDT,58.8665,T*2B
$GPGGA,015626.20,2234.03527898,N,11431.92808375,E,4,13,0.8,-4.4482,M,-1.3413,M,01,0000*5D
$GPRMC,015626.20,A,2234.03527898,N,11431.92808375,E,0.127,347.9,071224,3.4,W,D*2F
$GNVTG,7.438,T,10.876,M,0.10609,N,0.19647,K,D*0B
$GNHDT,58.5054,T*22
$GPGGA,015626.40,2234.03528484,N,11431.92808458,E,4,13,0.8,-4.4404,M,-1.3413,M,01,0000*53
$GPRMC,015626.40,A,2234.03528484,N,11431.92808458,E,0.106,7.4,071224,3.4,W,D*26
$GNVTG,32.536,T,35.974,M,0.16510,N,0.30577,K,D*30
$GNHDT,57.9750,T*22
$GPGGA,015626.60,2234.03529260,N,11431.92808991,E,4,13,0.8,-4.4499,M,-1.3413,M,01,0000*50
$GPRMC,015626.60,A,2234.03529260,N,11431.92808991,E,0.165,32.5,071224,3.4,W,D*13
$GNVTG,17.655,T,21.094,M,0.20534,N,0.38030,K,D*3E
$GNHDT,57.6165,T*2D
$GPGGA,015626.80,2234.03530351,N,11431.92809364,E,4,13,0.8,-4.4107,M,-1.3413,M,00,0000*57
$GPRMC,015626.80,A,2234.03530351,N,11431.92809364,E,0.205,17.7,071224,3.4,W,D*17
$GNVTG,36.380,T,39.818,M,0.12218,N,0.22629,K,D*38
$GNHDT,56.8216,T*25
$GPGGA,015627.00,2234.03530899,N,11431.92809799,E,4,13,0.8,-4.4502,M,-1.3413,M,01,0000*57
$GPRMC,015627.00,A,2234.03530899,N,11431.92809799,E,0.122,36.4,071224,3.4,W,D*11
$GNVTG,22.548,T,25.986,M,0.10515,N,0.19473,K,D*39
$GNHDT,56.5423,T*28
$GPGGA,015627.20,2234.03531441,N,11431.92810041,E,4,13,0.8,-4.4333,M,-1.3413,M,01,0000*53
$GPRMC,015627.20,A,2234.03531441,N,11431.92810041,E,0.105,22.5,071224,3.4,W,D*10
$GNVTG,68.740,T,72.178,M,0.08252,N,0.15282,K,D*3F
$GNHDT,56.0504,T*29
$GPGGA,015627.40,2234.03531608,N,11431.92810503,E,4,13,0.8,-4.4392,M,-1.3413,M,01,0000*52
$GPRMC,015627.40,A,2234.03531608,N,11431.92810503,E,0.083,68.7,071224,3.4,W,D*19
$GNVTG,179.916,T,183.355,M,0.04302,N,0.07968,K,D*35
$GNHDT,55.5205,T*29
$GPGGA,015627.60,2234.03531368,N,11431.92810503,E,4,13,0.8,-4.4309,M,-1.3413,M,01,0000*51
$GPRMC,015627.60,A,2234.03531368,N,11431.92810503,E,0.043,179.9,071224,3.4,W,D*2B
$GNVTG,149.845,T,153.283,M,0.07008,N,0.12978,K,D*39
$GNHDT,54.9465,T*24
$GPGGA,015627.80,2234.03531030,N,11431.92810715,E,4,13,0.8,-4.4265,M,-1.3413,M,00,0000*5E
$GPRMC,015627.80,A,2234.03531030,N,11431.92810715,E,0.070,149.8,071224,3.4,W,D*2C
$GNVTG,144.004,T,147.442,M,0.00707,N,0.01310,K,D*3E
$GNHDT,54.8135,T*25
$GPGGA,015628.00,2234.03530998,N,11431.92810740,E,4,13,0.8,-4.4147,M,-1.3413,M,01,0000*51
$GPRMC,015628.00,A,2234.03530998,N,11431.92810740,E,0.007,144.0,071224,3.4,W,D*24
$GNVTG,153.281,T,156.719,M,0.07223,N,0.13376,K,D*3D
$GNHDT,55.0115,T*2E
$GPGGA,015628.20,2234.03530638,N,11431.92810935,E,4,13,0.8,-4.4217,M,-1.3413,M,01,0000*5C
$GPRMC,015628.20,A,2234.03530638,N,11431.92810935,E,0.072,153.3,071224,3.4,W,D*28
$GNVTG,148.971,T,152.409,M,0.13293,N,0.24619,K,D*33
$GNHDT,54.8228,T*2A
$GPGGA,015628.40,2234.03530003,N,11431.92811346,E,4,13,0.8,-4.4448,M,-1.3413,M,01,0000*57
$GPRMC,015628.40,A,2234.03530003,N,11431.92811346,E,0.133,149.0,071224,3.4,W,D*23
$GNVTG,198.644,T,202.082,M,0.04770,N,0.08834,K,D*37
$GNHDT,54.8654,T*25
$GPGGA,015628.60,2234.03529751,N,11431.92811254,E,4,12,0.9,-4.4255,M,-1.3413,M,01,0000*55
$GPRMC,015628.60,A,2234.03529751,N,11431.92811254,E,0.048,198.6,071224,3.4,W,D*2C
$GNVTG,98.396,T,101.834,M,0.11163,N,0.20674,K,D*09
$GNHDT,54.9447,T*24
$GPGGA,015628.80,2234.03529661,N,11431.92811917,E,4,12,0.9,-4.4316,M,-1.3413,M,00,0000*52
$GPRMC,015628.80,A,2234.03529661,N,11431.92811917,E,0.112,98.4,071224,3.4,W,D*11
$GNVTG,152.820,T,156.258,M,0.13839,N,0.25630,K,D*3B
$GNHDT,54.7114,T*29
$GPGGA,015629.00,2234.03528974,N,11431.92812297,E,4,12,0.9,-4.4277,M,-1.3413,M,01,0000*56
$GPRMC,015629.00,A,2234.03528974,N,11431.92812297,E,0.138,152.8,071224,3.4,W,D*21
$GNVTG,186.437,T,189.875,M,0.09214,N,0.17064,K,D*37
$GNHDT,54.6620,T*28
$GPGGA,015629.20,2234.03528464,N,11431.92812235,E,4,12,0.9,-4.4366,M,-1.3413,M,01,0000*51
$GPRMC,015629.20,A,2234.03528464,N,11431.92812235,E,0.092,186.4,071224,3.4,W,D*23
$GNVTG,147.908,T,151.346,M,0.06395,N,0.11844,K,D*3E
$GNHDT,55.1513,T*2D
$GPGGA,015629.40,2234.03528162,N,11431.92812439,E,4,12,0.9,-4.4282,M,-1.3413,M,01,0000*55
$GPRMC,015629.40,A,2234.03528162,N,11431.92812439,E,0.064,147.9,071224,3.4,W,D*25
$GNVTG,164.999,T,168.437,M,0.19901,N,0.36857,K,D*32
$GNHDT,54.1595,T*22
$GPGGA,015629.60,2234.03527090,N,11431.92812748,E,4,12,0.9,-4.4250,M,-1.3413,M,01,0000*5E
$GPRMC,015629.60,A,2234.03527090,N,11431.92812748,E,0.199,165.0,071224,3.4,W,D*2B
$GNVTG,332.027,T,335.465,M,0.06398,N,0.11849,K,D*3C
$GNHDT,54.7612,T*28
$GPGGA,015629.80,2234.03527405,N,11431.92812568,E,4,12,0.9,-4.4198,M,-1.3413,M,00,0000*5E
$GPRMC,015629.80,A,2234.03527405,N,11431.92812568,E,0.064,332.0,071224,3.4,W,D*2E
$GNVTG,183.020,T,186.458,M,0.05450,N,0.10093,K,D*39
$GNHDT,54.6413,T*2A
$GPGGA,015630.00,2234.03527102,N,11431.92812551,E,4,12,0.9,-4.3966,M,-1.3413,M,01,0000*59
$GPRMC,015630.00,A,2234.03527102,N,11431.92812551,E,0.054,183.0,071224,3.4,W,D*2D
$GNVTG,134.217,T,137.655,M,0.11785,N,0.21826,K,D*3C
$GNHDT,54.7749,T*27
$GPGGA,015630.20,2234.03526644,N,11431.92813058,E,4,12,0.9,-4.4156,M,-1.3413,M,01,0000*5E
$GPRMC,015630.20,A,2234.03526644,N,11431.92813058,E,0.118,134.2,071224,3.4,W,D*21
$GNVTG,28.474,T,31.913,M,0.09736,N,0.18031,K,D*3C
$GNHDT,54.6423,T*29
$GPGGA,015630.40,2234.03527121,N,11431.92813336,E,4,12,0.9,-4.4430,M,-1.3413,M,01,0000*53
$GPRMC,015630.40,A,2234.03527121,N,11431.92813336,E,0.097,28.5,071224,3.4,W,D*14
$GNVTG,214.872,T,218.310,M,0.06434,N,0.11916,K,D*30
$GNHDT,55.0330,T*2B
$GPGGA,015630.60,2234.03526826,N,11431.92813115,E,4,13,0.8,-4.4455,M,-1.3413,M,01,0000*5E
$GPRMC,015630.60,A,2234.03526826,N,11431.92813115,E,0.064,214.9,071224,3.4,W,D*27
$GNVTG,113.027,T,116.465,M,0.06923,N,0.12821,K,D*39
$GNHDT,54.7476,T*28
$GPGGA,015630.80,2234.03526675,N,11431.92813498,E,4,13,0.8,-4.4458,M,-1.3413,M,00,0000*54
$GPRMC,015630.80,A,2234.03526675,N,11431.92813498,E,0.069,113.0,071224,3.4,W,D*21
$GNVTG,221.055,T,224.493,M,0.09890,N,0.18316,K,D*36
$GNHDT,54.7063,T*28
$GPGGA,015631.00,2234.03526260,N,11431.92813108,E,4,13,0.8,-4.4280,M,-1.3413,M,01,0000*53
$GPRMC,015631.00,A,2234.03526260,N,11431.92813108,E,0.099,221.1,071224,3.4,W,D*28
$GNVTG,24.802,T,28.241,M,0.02125,N,0.03935,K,D*31
$GNHDT,54.7574,T*2B
$GPGGA,015631.20,2234.03526367,N,11431.92813161,E,4,13,0.8,-4.4548,M,-1.3413,M,01,0000*5B
$GPRMC,015631.20,A,2234.03526367,N,11431.92813161,E,0.021,24.8,071224,3.4,W,D*1E
$GNVTG,136.248,T,139.686,M,0.14768,N,0.27349,K,D*36
$GNHDT,54.4241,T*29
$GPGGA,015631.40,2234.03525773,N,11431.92813774,E,4,13,0.8,-4.4638,M,-1.3413,M,01,0000*59
$GPRMC,015631.40,A,2234.03525773,N,11431.92813774,E,0.148,136.2,071224,3.4,W,D*2E
$GNVTG,46.174,T,49.612,M,0.02636,N,0.04882,K,D*37
$GNHDT,54.9296,T*2E
$GPGGA,015631.60,2234.03525874,N,11431.92813889,E,4,13,0.8,-4.4431,M,-1.3413,M,01,0000*55
$GPRMC,015631.60,A,2234.03525874,N,11431.92813889,E,0.026,46.2,071224,3.4,W,D*16
$GNVTG,191.589,T,195.028,M,0.13926,N,0.25791,K,D*35
$GNHDT,54.3552,T*2B
$GPGGA,015631.80,2234.03525114,N,11431.92813721,E,4,13,0.8,-4.4503,M,-1.3413,M,00,0000*58
$GPRMC,015631.80,A,2234.03525114,N,11431.92813721,E,0.139,191.6,071224,3.4,W,D*2A
$GNVTG,124.507,T,127.946,M,0.02243,N,0.04153,K,D*36
$GNHDT,54.6367,T*2E
$GPGGA,015632.00,2234.03525043,N,11431.92813832,E,4,13,0.8,-4.4404,M,-1.3413,M,01,0000*5A
$GPRMC,015632.00,A,2234.03525043,N,11431.92813832,E,0.022,124.5,071224,3.4,W,D*29
$GNVTG,322.273,T,325.711,M,0.05315,N,0.09844,K,D*3D
$GNHDT,54.9242,T*27
$GPGGA,015632.20,2234.03525277,N,11431.92813636,E,4,13,0.8,-4.4399,M,-1.3413,M,01,0000*54
$GPRMC,015632.20,A,2234.03525277,N,11431.92813636,E,0.053,322.3,071224,3.4,W,D*20
$GNVTG,175.480,T,178.919,M,0.00909,N,0.01683,K,D*34
$GNHDT,54.2944,T*21
$GPGGA,015632.40,2234.03525227,N,11431.92813641,E,4,13,0.8,-4.4578,M,-1.3413,M,01,0000*5E
$GPRMC,015632.40,A,2234.03525227,N,11431.92813641,E,0.009,175.5,071224,3.4,W,D*2A
$GNVTG,333.905,T,337.343,M,0.09411,N,0.17429,K,D*30
$GNHDT,54.9074,T*20
$GPGGA,015632.60,2234.03525698,N,11431.92813392,E,4,12,0.9,-4.4586,M,-1.3413,M,01,0000*56
$GPRMC,015632.60,A,2234.03525698,N,11431.92813392,E,0.094,333.9,071224,3.4,W,D*2B
$GNVTG,188.248,T,191.687,M,0.09311,N,0.17244,K,D*39
$GNHDT,54.3247,T*28
$GPGGA,015632.80,2234.03525184,N,11431.92813312,E,4,12,0.9,-4.4777,M,-1.3413,M,00,0000*57
$GPRMC,015632.80,A,2234.03525184,N,11431.92813312,E,0.093,188.2,071224,3.4,W,D*29
$GNVTG,320.408,T,323.847,M,0.06821,N,0.12632,K,D*35
$GNHDT,54.6109,T*24
$GPGGA,015633.00,2234.03525477,N,11431.92813051,E,4,12,0.9,-4.4918,M,-1.3413,M,01,0000*55
$GPRMC,015633.00,A,2234.03525477,N,11431.92813051,E,0.068,320.4,071224,3.4,W,D*2F
$GNVTG,211.293,T,214.731,M,0.13024,N,0.24120,K,D*31
$GNHDT,54.3096,T*26
$GPGGA,015633.20,2234.03524857,N,11431.92812645,E,4,12,0.9,-4.4672,M,-1.3413,M,01,0000*59
$GPRMC,015633.20,A,2234.03524857,N,11431.92812645,E,0.130,211.3,071224,3.4,W,D*28
