4.44010846,N,11431.75334189,E,4,22,0.7,-3.8915,M,-1.3622,M,00,0000*5A
$GPRMC,041854.60,A,2234.44010846,N,11431.75334189,E,0.952,278.4,071224,3.4,W,D*26
$GNVTG,282.952,T,286.391,M,0.86144,N,1.59539,K,D*34
$GNHDT,325.1248,T*10
$GPGGA,041854.80,2234.44011922,N,11431.75329150,E,4,23,0.7,-3.9449,M,-1.3622,M,00,0000*5A
$GPRMC,041854.80,A,2234.44011922,N,11431.75329150,E,0.861,283.0,071224,3.4,W,D*23
$GNVTG,274.802,T,278.241,M,0.70167,N,1.29950,K,D*38
$GNHDT,325.4420,T*1D
$GPGGA,041855.00,2234.44012250,N,11431.75324953,E,4,23,0.7,-4.0348,M,-1.3622,M,01,0000*51
$GPRMC,041855.00,A,2234.44012250,N,11431.75324953,E,0.702,274.8,071224,3.4,W,D*2B
$GNVTG,256.226,T,259.665,M,0.63272,N,1.17181,K,D*39
$GNHDT,326.0551,T*1D
$GPGGA,041855.20,2234.44011410,N,11431.75321264,E,4,23,0.7,-4.1110,M,-1.3622,M,01,0000*56
$GPRMC,041855.20,A,2234.44011410,N,11431.75321264,E,0.633,256.2,071224,3.4,W,D*2B
$GNVTG,260.695,T,264.134,M,0.47980,N,0.88859,K,D*36
$GNHDT,326.0091,T*14
$GPGGA,041855.40,2234.44010977,N,11431.75318422,E,4,22,0.7,-4.1143,M,-1.3622,M,01,0000*54
$GPRMC,041855.40,A,2234.44010977,N,11431.75318422,E,0.480,260.7,071224,3.4,W,D*24
$GNVTG,281.902,T,285.341,M,0.53897,N,0.99816,K,D*3E
$GNHDT,326.2884,T*1A
$GPGGA,041855.60,2234.44011597,N,11431.75315256,E,4,22,0.7,-4.1293,M,-1.3622,M,01,0000*53
$GPRMC,041855.60,A,2234.44011597,N,11431.75315256,E,0.539,281.9,071224,3.4,W,D*2F
$GNVTG,300.860,T,304.299,M,0.70997,N,1.31487,K,D*38
$GNHDT,326.0455,T*18
$GPGGA,041855.80,2234.44013627,N,11431.75311597,E,4,22,0.7,-4.1000,M,-1.3622,M,00,0000*50
$GPRMC,041855.80,A,2234.44013627,N,11431.75311597,E,0.710,300.9,071224,3.4,W,D*24
$GNVTG,312.945,T,316.384,M,0.77643,N,1.43795,K,D*37
$GNHDT,325.4960,T*14
$GPGGA,041856.00,2234.44016576,N,11431.75308186,E,4,22,0.7,-4.1052,M,-1.3622,M,01,0000*53
$GPRMC,041856.00,A,2234.44016576,N,11431.75308186,E,0.776,312.9,071224,3.4,W,D*22
$GNVTG,304.996,T,308.435,M,0.69452,N,1.28624,K,D*37
$GNHDT,325.9208,T*1C
$GPGGA,041856.20,2234.44018797,N,11431.75304770,E,4,22,0.7,-4.1119,M,-1.3622,M,01,0000*5F
$GPRMC,041856.20,A,2234.44018797,N,11431.75304770,E,0.695,305.0,071224,3.4,W,D*23
$GNVTG,297.143,T,300.582,M,0.50354,N,0.93255,K,D*31
$GNHDT,326.3034,T*18
$GPGGA,041856.40,2234.44020077,N,11431.75302081,E,4,22,0.7,-4.0950,M,-1.3622,M,01,0000*50
$GPRMC,041856.40,A,2234.44020077,N,11431.75302081,E,0.504,297.1,071224,3.4,W,D*28
$GNVTG,286.735,T,290.174,M,0.22459,N,0.41593,K,D*3E
$GNHDT,326.0554,T*18
$GPGGA,041856.60,2234.44020438,N,11431.75300790,E,4,22,0.7,-4.1270,M,-1.3622,M,01,0000*50
$GPRMC,041856.60,A,2234.44020438,N,11431.75300790,E,0.225,286.7,071224,3.4,W,D*22
$GNVTG,186.475,T,189.913,M,0.05561,N,0.10298,K,D*3F
$GNHDT,326.3008,T*17
$GPGGA,041856.80,2234.44020130,N,11431.75300752,E,4,22,0.7,-4.1963,M,-1.3622,M,01,0000*54
$GPRMC,041856.80,A,2234.44020130,N,11431.75300752,E,0.056,186.5,071224,3.4,W,D*28
$GNVTG,220.691,T,224.130,M,0.15354,N,0.28436,K,D*3D
$GNHDT,326.7871,T*15
$GPGGA,041857.00,2234.44019481,N,11431.75300151,E,4,22,0.7,-4.2862,M,-1.3622,M,02,0000*5D
$GPRMC,041857.00,A,2234.44019481,N,11431.75300151,E,0.154,220.7,071224,3.4,W,D*2F
$GNVTG,314.065,T,317.504,M,0.19194,N,0.35547,K,D*3D
$GNHDT,326.6191,T*13
$GPGGA,041857.20,2234.44020225,N,11431.75299323,E,4,22,0.7,-4.2990,M,-1.3622,M,02,0000*57
$GPRMC,041857.20,A,2234.44020225,N,11431.75299323,E,0.192,314.1,071224,3.4,W,D*23
$GNVTG,332.970,T,336.409,M,0.41915,N,0.77626,K,D*35
$GNHDT,326.2217,T*1A
$GPGGA,041857.40,2234.44022306,N,11431.75298180,E,4,22,0.7,-4.2789,M,-1.3622,M,02,0000*5F
$GPRMC,041857.40,A,2234.44022306,N,11431.75298180,E,0.419,333.0,071224,3.4,W,D*2F
$GNVTG,311.967,T,315.406,M,0.46428,N,0.85985,K,D*33
$GNHDT,326.3697,T*17
$GPGGA,041857.60,2234.44024037,N,11431.75296108,E,4,22,0.7,-4.2512,M,-1.3622,M,00,0000*56
$GPRMC,041857.60,A,2234.44024037,N,11431.75296108,E,0.464,312.0,071224,3.4,W,D*2D
$GNVTG,320.952,T,324.391,M,0.49506,N,0.91686,K,D*37
$GNHDT,326.4874,T*13
$GPGGA,041857.80,2234.44026180,N,11431.75294236,E,4,22,0.7,-4.2063,M,-1.3622,M,00,0000*58
$GPRMC,041857.80,A,2234.44026180,N,11431.75294236,E,0.495,321.0,071224,3.4,W,D*2E
$GNVTG,323.846,T,327.284,M,0.35078,N,0.64964,K,D*38
$GNHDT,326.2384,T*11
$GPGGA,041858.00,2234.44027759,N,11431.75292993,E,4,22,0.7,-4.1667,M,-1.3622,M,01,0000*5E
$GPRMC,041858.00,A,2234.44027759,N,11431.75292993,E,0.351,323.8,071224,3.4,W,D*2D
$GNVTG,275.596,T,279.035,M,0.19287,N,0.35720,K,D*3E
$GNHDT,326.3469,T*14
$GPGGA,041858.20,2234.44027864,N,11431.75291841,E,4,22,0.7,-4.1413,M,-1.3622,M,01,0000*51
$GPRMC,041858.20,A,2234.44027864,N,11431.75291841,E,0.193,275.6,071224,3.4,W,D*23
$GNVTG,314.461,T,317.900,M,0.22211,N,0.41135,K,D*31
$GNHDT,326.5982,T*1A
$GPGGA,041858.40,2234.44028731,N,11431.75290889,E,4,22,0.7,-4.1148,M,-1.3622,M,01,0000*59
$GPRMC,041858.40,A,2234.44028731,N,11431.75290889,E,0.222,314.5,071224,3.4,W,D*2C
$GNVTG,287.640,T,291.079,M,0.19001,N,0.35190,K,D*34
$GNHDT,326.0981,T*1C
$GPGGA,041858.60,2234.44029052,N,11431.75289802,E,4,22,0.7,-4.1306,M,-1.3622,M,01,0000*5B
$GPRMC,041858.60,A,2234.44029052,N,11431.75289802,E,0.190,287.6,071224,3.4,W,D*24
$GNVTG,306.722,T,310.160,M,0.49351,N,0.91398,K,D*3F
$GNHDT,326.4122,T*19
$GPGGA,041858.80,2234.44030697,N,11431.75287428,E,4,22,0.7,-4.1223,M,-1.3622,M,01,0000*5E
$GPRMC,041858.80,A,2234.44030697,N,11431.75287428,E,0.494,306.7,071224,3.4,W,D*2F
$GNVTG,296.304,T,299.742,M,0.62574,N,1.15887,K,D*31
$GNHDT,326.0794,T*16
$GPGGA,041859.00,2234.44032243,N,11431.75284061,E,4,22,0.7,-4.1059,M,-1.3622,M,02,0000*5E
$GPRMC,041859.00,A,2234.44032243,N,11431.75284061,E,0.626,296.3,071224,3.4,W,D*24
$GNVTG,295.184,T,298.623,M,0.73825,N,1.36725,K,D*30
$GNHDT,325.8911,T*1E
$GPGGA,041859.20,2234.44033995,N,11431.75280050,E,4,22,0.7,-4.0897,M,-1.3622,M,02,0000*50
$GPRMC,041859.20,A,2234.44033995,N,11431.75280050,E,0.738,295.2,071224,3.4,W,D*2D
$GNVTG,293.225,T,296.663,M,0.73603,N,1.36314,K,D*38
$GNHDT,325.3563,T*1C
$GPGGA,041859.40,2234.44035613,N,11431.75275990,E,4,22,0.7,-4.0512,M,-1.3622,M,02,0000*5E
$GPRMC,041859.40,A,2234.44035613,N,11431.75275990,E,0.736,293.2,071224,3.4,W,D*2B
$GNVTG,289.030,T,292.469,M,0.60730,N,1.12472,K,D*3B
$GNHDT,325.7350,T*1E
$GPGGA,041859.60,2234.44036716,N,11431.75272544,E,4,22,0.7,-4.0430,M,-1.3622,M,02,0000*58
$GPRMC,041859.60,A,2234.44036716,N,11431.75272544,E,0.607,289.0,071224,3.4,W,D*26
$GNVTG,295.588,T,299.027,M,0.42947,N,0.79539,K,D*39
$GNHDT,325.6381,T*13
$GPGGA,041859.80,2234.44037751,N,11431.75270219,E,4,22,0.7,-4.0189,M,-1.3622,M,02,0000*5E
$GPRMC,041859.80,A,2234.44037751,N,11431.75270219,E,0.429,295.6,071224,3.4,W,D*22
$GNVTG,281.313,T,284.751,M,0.42392,N,0.78510,K,D*3A
$GNHDT,326.0864,T*16
$GPGGA,041900.00,2234.44038214,N,11431.75267723,E,4,22,0.7,-4.0377,M,-1.3622,M,03,0000*58
$GPRMC,041900.00,A,2234.44038214,N,11431.75267723,E,0.424,281.3,071224,3.4,W,D*2B
$GNVTG,282.572,T,286.011,M,0.48824,N,0.90421,K,D*30
$GNHDT,326.3394,T*11
$GPGGA,041900.20,2234.44038807,N,11431.75264863,E,4,22,0.7,-4.0394,M,-1.3622,M,03,0000*57
$GPRMC,041900.20,A,2234.44038807,N,11431.75264863,E,0.488,282.6,071224,3.4,W,D*29
$GNVTG,295.029,T,298.468,M,0.60098,N,1.11302,K,D*33
$GNHDT,325.8310,T*15
$GPGGA,041900.40,2234.44040224,N,11431.75261594,E,4,21,0.7,-4.0516,M,-1.3622,M,03,0000*5A
$GPRMC,041900.40,A,2234.44040224,N,11431.75261594,E,0.601,295.0,071224,3.4,W,D*28
$GNVTG,292.340,T,295.779,M,0.79585,N,1.47391,K,D*3E
$GNHDT,325.9501,T*12
$GPGGA,041900.60,2234.44041910,N,11431.75257175,E,4,21,0.7,-4.0493,M,-1.3622,M,03,0000*57
$GPRMC,041900.60,A,2234.44041910,N,11431.75257175,E,0.796,292.3,071224,3.4,W,D*22
$GNVTG,298.762,T,302.200,M,0.70250,N,1.30103,K,D*3B
$GNHDT,325.7266,T*1A
$GPGGA,041900.80,2234.44043795,N,11431.75253479,E,4,21,0.7,-4.0377,M,-1.3623,M,03,0000*59
$GPRMC,041900.80,A,2234.44043795,N,11431.75253479,E,0.702,298.8,071224,3.4,W,D*2C
$GNVTG,289.811,T,293.250,M,0.74754,N,1.38445,K,D*36
$GNHDT,326.3894,T*1A
$GPGGA,041901.00,2234.44045207,N,11431.75249257,E,4,21,0.7,-4.0213,M,-1.3623,M,04,0000*5D
$GPRMC,041901.00,A,2234.44045207,N,11431.75249257,E,0.748,289.8,071224,3.4,W,D*22
$GNVTG,293.511,T,296.950,M,0.63559,N,1.17711,K,D*38
$GNHDT,325.5860,T*14
$GPGGA,041901.20,2234.44046621,N,11431.75245758,E,4,21,0.7,-3.9916,M,-1.3623,M,04,0000*5A
$GPRMC,041901.20,A,2234.44046621,N,11431.75245758,E,0.636,293.5,071224,3.4,W,D*2B
$GNVTG,282.335,T,285.773,M,0.72227,N,1.33764,K,D*3F
$GNHDT,325.8126,T*12
$GPGGA,041901.40,2234.44047481,N,11431.75241523,E,4,21,0.7,-3.9516,M,-1.3623,M,02,0000*55
$GPRMC,041901.40,A,2234.44047481,N,11431.75241523,E,0.722,282.3,071224,3.4,W,D*2C
$GNVTG,290.134,T,293.573,M,0.84428,N,1.56361,K,D*38
$GNHDT,325.6602,T*1D
$GPGGA,041901.60,2234.44049101,N,11431.75236765,E,4,21,0.7,-3.9257,M,-1.3623,M,00,0000*54
$GPRMC,041901.60,A,2234.44049101,N,11431.75236765,E,0.844,290.1,071224,3.4,W,D*23
$GNVTG,283.778,T,287.216,M,0.85040,N,1.57494,K,D*32
$GNHDT,325.4735,T*1A
$GPGGA,041901.80,2234.44050230,N,11431.75231807,E,4,21,0.7,-3.9403,M,-1.3623,M,00,0000*58
$GPRMC,041901.80,A,2234.44050230,N,11431.75231807,E,0.850,283.8,071224,3.4,W,D*26
$GNVTG,290.638,T,294.077,M,0.73640,N,1.36381,K,D*39
$GNHDT,324.8891,T*16
$GPGGA,041902.00,2234.44051677,N,11431.75227670,E,4,22,0.7,-3.9856,M,-1.3623,M,01,0000*52
$GPRMC,041902.00,A,2234.44051677,N,11431.75227670,E,0.736,290.6,071224,3.4,W,D*21
$GNVTG,286.575,T,290.014,M,0.70734,N,1.31000,K,D*39
$GNHDT,324.9505,T*17
$GPGGA,041902.20,2234.44052802,N,11431.75223600,E,4,22,0.7,-4.0623,M,-1.3623,M,01,0000*5E
$GPRMC,041902.20,A,2234.44052802,N,11431.75223600,E,0.707,286.6,071224,3.4,W,D*2A
$GNVTG,284.341,T,287.779,M,0.60442,N,1.11939,K,D*32
$GNHDT,325.3750,T*1E
$GPGGA,041902.40,2234.44053636,N,11431.75220085,E,4,22,0.7,-4.1684,M,-1.3623,M,01,0000*54
$GPRMC,041902.40,A,2234.44053636,N,11431.75220085,E,0.604,284.3,071224,3.4,W,D*29
$GNVTG,264.842,T,268.281,M,0.31250,N,0.57875,K,D*3C
$GNHDT,325.3588,T*19
$GPGGA,041902.60,2234.44053480,N,11431.75218217,E,4,22,0.7,-4.2459,M,-1.3623,M,01,0000*5A
$GPRMC,041902.60,A,2234.44053480,N,11431.75218217,E,0.313,264.8,071224,3.4,W,D*20
$GNVTG,272.387,T,275.826,M,0.31049,N,0.57502,K,D*35
$GNHDT,326.6359,T*15
$GPGGA,041902.80,2234.44053552,N,11431.75216355,E,4,22,0.7,-4.2723,M,-1.3623,M,01,0000*5D
$GPRMC,041902.80,A,2234.44053552,N,11431.75216355,E,0.310,272.4,071224,3.4,W,D*21
$GNVTG,335.667,T,339.106,M,0.15590,N,0.28872,K,D*3B
$GNHDT,326.4046,T*1A
$GPGGA,041903.00,2234.44054344,N,11431.75215969,E,4,22,0.7,-4.2794,M,-1.3623,M,01,0000*58
$GPRMC,041903.00,A,2234.44054344,N,11431.75215969,E,0.156,335.7,071224,3.4,W,D*29
$GNVTG,320.749,T,324.188,M,0.31233,N,0.57843,K,D*3A
$GNHDT,326.8498,T*11
$GPGGA,041903.20,2234.44055692,N,11431.75214783,E,4,22,0.7,-4.2525,M,-1.3623,M,01,0000*56
$GPRMC,041903.20,A,2234.44055692,N,11431.75214783,E,0.312,320.7,071224,3.4,W,D*29
$GNVTG,324.728,T,328.166,M,0.45385,N,0.84053,K,D*3D
$GNHDT,326.6319,T*11
$GPGGA,041903.40,2234.44057758,N,11431.75213210,E,4,22,0.7,-4.1260,M,-1.3623,M,01,0000*58
$GPRMC,041903.40,A,2234.44057758,N,11431.75213210,E,0.454,324.7,071224,3.4,W,D*23
$GNVTG,306.010,T,309.448,M,0.66109,N,1.22434,K,D*34
$GNHDT,326.5650,T*1A
$GPGGA,041903.60,2234.44059924,N,11431.75210000,E,4,22,0.7,-4.0135,M,-1.3623,M,00,0000*52
$GPRMC,041903.60,A,2234.44059924,N,11431.75210000,E,0.661,306.0,071224,3.4,W,D*29
$GNVTG,292.368,T,295.806,M,0.76091,N,1.40921,K,D*3A
$GNHDT,325.7543,T*1A
$GPGGA,041903.80,2234.44061539,N,11431.75205776,E,4,23,0.7,-3.8950,M,-1.3623,M,00,0000*50
$GPRMC,041903.80,A,2234.44061539,N,11431.75205776,E,0.761,292.4,071224,3.4,W,D*27
$GNVTG,294.354,T,297.793,M,0.93320,N,1.72828,K,D*39
$GNHDT,324.4514,T*1A
$GPGGA,041904.00,2234.44063684,N,11431.75200672,E,4,23,0.7,-3.8462,M,-1.3623,M,01,0000*55
$GPRMC,041904.00,A,2234.44063684,N,11431.75200672,E,0.933,294.4,071224,3.4,W,D*20
$GNVTG,290.600,T,294.038,M,0.89241,N,1.65275,K,D*35
$GNHDT,323.1614,T*1B
$GPGGA,041904.20,2234.44065434,N,11431.75195658,E,4,23,0.7,-3.8782,M,-1.3623,M,01,0000*52
$GPRMC,041904.20,A,2234.44065434,N,11431.75195658,E,0.892,290.6,071224,3.4,W,D*26
$GNVTG,282.619,T,286.058,M,0.71516,N,1.32448,K,D*33
$GNHDT,322.7799,T*18
$GPGGA,041904.40,2234.44066305,N,11431.75191469,E,4,23,0.7,-3.9897,M,-1.3623,M,01,0000*5C
$GPRMC,041904.40,A,2234.44066305,N,11431.75191469,E,0.715,282.6,071224,3.4,W,D*21
$GNVTG,284.040,T,287.479,M,0.55841,N,1.03417,K,D*38
$GNHDT,322.2052,T*1D
$GPGGA,041904.60,2234.44067060,N,11431.75188217,E,4,23,0.7,-4.1251,M,-1.3623,M,01,0000*57
$GPRMC,041904.60,A,2234.44067060,N,11431.75188217,E,0.558,284.0,071224,3.4,W,D*2E
$GNVTG,257.445,T,260.884,M,0.36380,N,0.67376,K,D*30
$GNHDT,323.0551,T*18
$GPGGA,041904.80,2234.44066620,N,11431.75186085,E,4,21,0.7,-4.2641,M,-1.3623,M,00,0000*58
$GPRMC,041904.80,A,2234.44066620,N,11431.75186085,E,0.364,257.4,071224,3.4,W,D*27
$GNVTG,237.480,T,240.919,M,0.24441,N,0.45264,K,D*33
$GNHDT,323.7588,T*1B
$GPGGA,041905.00,2234.44065887,N,11431.75184848,E,4,21,0.7,-4.3250,M,-1.3623,M,01,0000*5E
$GPRMC,041905.00,A,2234.44065887,N,11431.75184848,E,0.244,237.5,071224,3.4,W,D*21
$GNVTG,272.994,T,276.433,M,0.28728,N,0.53203,K,D*3C
$GNHDT,324.7371,T*1C
$GPGGA,041905.20,2234.44065971,N,11431.75183126,E,4,21,0.7,-4.2847,M,-1.3623,M,01,0000*5F
$GPRMC,041905.20,A,2234.44065971,N,11431.75183126,E,0.287,273.0,071224,3.4,W,D*27
$GNVTG,311.180,T,314.619,M,0.24308,N,0.45018,K,D*3F
$GNHDT,324.8126,T*13
$GPGGA,041905.40,2234.44066863,N,11431.75182028,E,4,21,0.7,-4.2178,M,-1.3623,M,01,0000*53
$GPRMC,041905.40,A,2234.44066863,N,11431.75182028,E,0.243,311.2,071224,3.4,W,D*21
$GNVTG,317.076,T,320.515,M,0.66883,N,1.23867,K,D*36
$GNHDT,324.1412,T*18
$GPGGA,041905.60,2234.44069593,N,11431.75179294,E,4,21,0.7,-4.0926,M,-1.3623,M,01,0000*5C
$GPRMC,041905.60,A,2234.44069593,N,11431.75179294,E,0.669,317.1,071224,3.4,W,D*26
$GNVTG,301.057,T,304.496,M,0.79697,N,1.47599,K,D*35
$GNHDT,324.0869,T*19
$GPGGA,041905.80,2234.44071885,N,11431.75175196,E,4,21,0.7,-4.0137,M,-1.3623,M,01,0000*54
$GPRMC,041905.80,A,2234.44071885,N,11431.75175196,E,0.797,301.1,071224,3.4,W,D*21
$GNVTG,305.588,T,309.027,M,0.94074,N,1.74226,K,D*3E
$GNHDT,323.4706,T*1C
$GPGGA,041906.00,2234.44074937,N,11431.75170603,E,4,21,0.7,-3.9272,M,-1.3623,M,02,0000*53
$GPRMC,041906.00,A,2234.44074937,N,11431.75170603,E,0.941,305.6,071224,3.4,W,D*2F
$GNVTG,299.056,T,302.494,M,0.98218,N,1.81900,K,D*3A
$GNHDT,322.5627,T*1E
$GPGGA,041906.20,2234.44077597,N,11431.75165449,E,4,22,0.7,-3.8922,M,-1.3623,M,02,0000*50
$GPRMC,041906.20,A,2234.44077597,N,11431.75165449,E,0.982,299.1,071224,3.4,W,D*2C
$GNVTG,291.717,T,295.155,M,0.89869,N,1.66437,K,D*3B
$GNHDT,321.6937,T*10
$GPGGA,041906.40,2234.44079450,N,11431.75160438,E,4,22,0.7,-3.9478,M,-1.3623,M,01,0000*51
$GPRMC,041906.40,A,2234.44079450,N,11431.75160438,E,0.899,291.7,071224,3.4,W,D*28
$GNVTG,282.507,T,285.946,M,0.56508,N,1.04652,K,D*3C
$GNHDT,321.0354,T*19
$GPGGA,041906.60,2234.44080133,N,11431.75157126,E,4,22,0.7,-4.0461,M,-1.3623,M,01,0000*5D
$GPRMC,041906.60,A,2234.44080133,N,11431.75157126,E,0.565,282.5,071224,3.4,W,D*2C
$GNVTG,269.013,T,272.452,M,0.46258,N,0.85670,K,D*32
$GNHDT,321.1551,T*1B
$GPGGA,041906.80,2234.44080088,N,11431.75154350,E,4,22,0.7,-4.1657,M,-1.3623,M,01,0000*54
$GPRMC,041906.80,A,2234.44080088,N,11431.75154350,E,0.463,269.0,071224,3.4,W,D*24
$GNVTG,232.782,T,236.221,M,0.34319,N,0.63559,K,D*30
$GNHDT,322.2990,T*1A
$GPGGA,041907.00,2234.44078931,N,11431.75152709,E,4,22,0.7,-4.2707,M,-1.3623,M,02,0000*5B
$GPRMC,041907.00,A,2234.44078931,N,11431.75152709,E,0.343,232.8,071224,3.4,W,D*2C
$GNVTG,275.301,T,278.740,M,0.22565,N,0.41790,K,D*39
$GNHDT,323.3162,T*1F
$GPGGA,041907.20,2234.44079047,N,11431.75151361,E,4,22,0.7,-4.2715,M,-1.3623,M,02,0000*5A
$GPRMC,041907.20,A,2234.44079047,N,11431.75151361,E,0.226,275.3,071224,3.4,W,D*24
$GNVTG,284.050,T,287.489,M,0.42250,N,0.78247,K,D*34
$GNHDT,323.8810,T*18
$GPGGA,041907.40,2234.44079619,N,11431.75148900,E,4,22,0.7,-4.2440,M,-1.3623,M,02,0000*57
$GPRMC,041907.40,A,2234.44079619,N,11431.75148900,E,0.423,284.0,071224,3.4,W,D*24
$GNVTG,314.498,T,317.937,M,0.61312,N,1.13549,K,D*3F
$GNHDT,322.2397,T*17
$GPGGA,041907.60,2234.44082014,N,11431.75146275,E,4,22,0.7,-4.1791,M,-1.3623,M,01,0000*52
$GPRMC,041907.60,A,2234.44082014,N,11431.75146275,E,0.613,314.5,071224,3.4,W,D*22
$GNVTG,295.808,T,299.246,M,0.78832,N,1.45996,K,D*34
$GNHDT,322.2659,T*10
$GPGGA,041907.80,2234.44083928,N,11431.75142015,E,4,22,0.7,-4.1159,M,-1.3623,M,00,0000*58
$GPRMC,041907.80,A,2234.44083928,N,11431.75142015,E,0.788,295.8,071224,3.4,W,D*2D
$GNVTG,300.900,T,304.338,M,0.88274,N,1.63484,K,D*30
$GNHDT,321.7909,T*1C
$GPGGA,041908.00,2234.44086455,N,11431.75137468,E,4,22,0.7,-4.0441,M,-1.3623,M,01,0000*5D
$GPRMC,041908.00,A,2234.44086455,N,11431.75137468,E,0.883,300.9,071224,3.4,W,D*2C
$GNVTG,305.508,T,308.946,M,0.81073,N,1.50148,K,D*37
$GNHDT,321.2252,T*1C
$GPGGA,041908.20,2234.44089080,N,11431.75133507,E,4,22,0.7,-4.0201,M,-1.3623,M,01,0000*52
$GPRMC,041908.20,A,2234.44089080,N,11431.75133507,E,0.811,305.5,071224,3.4,W,D*23
$GNVTG,301.469,T,304.908,M,0.56000,N,1.03712,K,D*32
$GNHDT,321.0759,T*10
$GPGGA,041908.40,2234.44090710,N,11431.75130639,E,4,22,0.7,-4.0381,M,-1.3623,M,01,0000*56
$GPRMC,041908.40,A,2234.44090710,N,11431.75130639,E,0.560,301.5,071224,3.4,W,D*21
$GNVTG,290.835,T,294.274,M,0.38260,N,0.70857,K,D*31
$GNHDT,320.5609,T*10
$GPGGA,041908.60,2234.44091468,N,11431.75128493,E,4,22,0.7,-4.0843,M,-1.3623,M,01,0000*57
$GPRMC,041908.60,A,2234.44091468,N,11431.75128493,E,0.383,290.8,071224,3.4,W,D*2A
$GNVTG,272.676,T,276.115,M,0.36781,N,0.68118,K,D*33
$GNHDT,320.6735,T*1D
$GPGGA,041908.80,2234.44091564,N,11431.75126287,E,4,22,0.7,-4.0848,M,-1.3623,M,00,0000*53
$GPRMC,041908.80,A,2234.44091564,N,11431.75126287,E,0.368,272.7,071224,3.4,W,D*22
$GNVTG,262.269,T,265.707,M,0.42055,N,0.77885,K,D*31
$GNHDT,321.2752,T*19
$GPGGA,041909.00,2234.44091249,N,11431.75123786,E,4,21,0.7,-4.0678,M,-1.3623,M,01,0000*5C
$GPRMC,041909.00,A,2234.44091249,N,11431.75123786,E,0.421,262.3,071224,3.4,W,D*2D
$GNVTG,277.084,T,280.523,M,0.61375,N,1.13666,K,D*3B
$GNHDT,321.5276,T*1D
$GPGGA,041909.20,2234.44091671,N,11431.75120130,E,4,21,0.7,-4.0453,M,-1.3623,M,01,0000*52
$GPRMC,041909.20,A,2234.44091671,N,11431.75120130,E,0.614,277.1,071224,3.4,W,D*2A
$GNVTG,289.417,T,292.856,M,0.78804,N,1.45946,K,D*33
$GNHDT,320.8912,T*18
$GPGGA,041909.40,2234.44093131,N,11431.75115668,E,4,21,0.7,-4.0076,M,-1.3624,M,01,0000*5D
$GPRMC,041909.40,A,2234.44093131,N,11431.75115668,E,0.788,289.4,071224,3.4,W,D*21
$GNVTG,291.926,T,295.365,M,0.75720,N,1.40234,K,D*36
$GNHDT,320.5178,T*11
$GPGGA,041909.60,2234.44094707,N,11431.75111452,E,4,21,0.7,-3.9817,M,-1.3624,M,01,0000*55
$GPRMC,041909.60,A,2234.44094707,N,11431.75111452,E,0.757,291.9,071224,3.4,W,D*2E
$GNVTG,292.489,T,295.928,M,0.91348,N,1.69176,K,D*30
$GNHDT,320.6636,T*1F
$GPGGA,041909.80,2234.44096655,N,11431.75106386,E,4,21,0.7,-3.9994,M,-1.3624,M,00,0000*5C
$GPRMC,041909.80,A,2234.44096655,N,11431.75106386,E,0.913,292.5,071224,3.4,W,D*2D
$GNVTG,295.130,T,298.569,M,0.72299,N,1.33898,K,D*32
$GNHDT,320.2497,T*12
$GPGGA,041910.00,2234.44098367,N,11431.75102456,E,4,21,0.7,-4.0199,M,-1.3624,M,01,0000*52
$GPRMC,041910.00,A,2234.44098367,N,11431.75102456,E,0.723,295.1,071224,3.4,W,D*27
$GNVTG,293.743,T,297.182,M,0.51649,N,0.95653,K,D*34
$GNHDT,320.1131,T*18
$GPGGA,041910.20,2234.44099526,N,11431.75099618,E,4,21,0.7,-4.0434,M,-1.3624,M,01,0000*5B
$GPRMC,041910.20,A,2234.44099526,N,11431.75099618,E,0.516,293.7,071224,3.4,W,D*28
$GNVTG,284.731,T,288.170,M,0.37826,N,0.70054,K,D*39
$GNHDT,320.0026,T*1E
$GPGGA,041910.40,2234.44100062,N,11431.75097423,E,4,22,0.7,-4.0729,M,-1.3624,M,01,0000*51
$GPRMC,041910.40,A,2234.44100062,N,11431.75097423,E,0.378,284.7,071224,3.4,W,D*26
$GNVTG,272.159,T,275.598,M,0.32264,N,0.59753,K,D*3A
$GNHDT,320.3125,T*1F
$GPGGA,041910.60,2234.44100130,N,11431.75095487,E,4,22,0.7,-4.0848,M,-1.3624,M,01,0000*51
$GPRMC,041910.60,A,2234.44100130,N,11431.75095487,E,0.323,272.2,071224,3.4,W,D*2C
$GNVTG,281.974,T,285.413,M,0.48854,N,0.90478,K,D*37
$GNHDT,320.3607,T*18
$GPGGA,041910.80,2234.44100695,N,11431.75092618,E,4,22,0.7,-4.0840,M,-1.3624,M,00,0000*5D
$GPRMC,041910.80,A,2234.44100695,N,11431.75092618,E,0.489,282.0,071224,3.4,W,D*23
$GNVTG,288.154,T,291.592,M,0.57404,N,1.06313,K,D*3A
$GNHDT,320.4949,T*1A
$GPGGA,041911.00,2234.44101692,N,11431.75089344,E,4,22,0.7,-4.0593,M,-1.3624,M,01,0000*56
$GPRMC,041911.00,A,2234.44101692,N,11431.75089344,E,0.574,288.2,071224,3.4,W,D*21
$GNVTG,294.661,T,298.099,M,0.68044,N,1.26018,K,D*37
$GNHDT,320.7257,T*1D
$GPGGA,041911.20,2234.44103275,N,11431.75085632,E,4,22,0.7,-4.0329,M,-1.3624,M,01,0000*54
$GPRMC,041911.20,A,2234.44103275,N,11431.75085632,E,0.680,294.7,071224,3.4,W,D*24
$GNVTG,301.981,T,305.420,M,0.73818,N,1.36711,K,D*3C
$GNHDT,320.4073,T*1A
$GPGGA,041911.40,2234.44105454,N,11431.75081873,E,4,22,0.7,-4.0362,M,-1.3624,M,01,0000*51
$GPRMC,041911.40,A,2234.44105454,N,11431.75081873,E,0.738,302.0,071224,3.4,W,D*25
$GNVTG,305.879,T,309.318,M,0.58539,N,1.08413,K,D*35
$GNHDT,319.8533,T*1D
$GPGGA,041911.60,2234.44107367,N,11431.75079026,E,4,22,0.7,-4.0452,M,-1.3624,M,01,0000*5D
$GPRMC,041911.60,A,2234.44107367,N,11431.75079026,E,0.585,305.9,071224,3.4,W,D*27
$GNVTG,296.556,T,299.995,M,0.41842,N,0.77492,K,D*30
$GNHDT,319.7572,T*17
$GPGGA,041911.80,2234.44108410,N,11431.75076780,E,4,22,0.7,-4.0366,M,-1.3624,M,00,0000*5E
$GPRMC,041911.80,A,2234.44108410,N,11431.75076780,E,0.418,296.6,071224,3.4,W,D*24
$GNVTG,286.692,T,290.131,M,0.54856,N,1.01592,K,D*35
$GNHDT,319.9456,T*1E
$GPGGA,041912.00,2234.44109288,N,11431.75073625,E,4,22,0.7,-4.0624,M,-1.3624,M,01,0000*5A
$GPRMC,041912.00,A,2234.44109288,N,11431.75073625,E,0.549,286.7,071224,3.4,W,D*27
$GNVTG,295.146,T,298.584,M,0.46820,N,0.86711,K,D*3E
$GNHDT,319.8761,T*18
$GPGGA,041912.20,2234.44110397,N,11431.75071081,E,4,21,0.7,-4.0628,M,-1.3624,M,01,0000*5A
$GPRMC,041912.20,A,2234.44110397,N,11431.75071081,E,0.468,295.1,071224,3.4,W,D*2E
$GNVTG,309.122,T,312.560,M,0.51070,N,0.94582,K,D*31
$GNHDT,319.2038,T*19
$GPGGA,041912.40,2234.44112194,N,11431.75068703,E,4,21,0.7,-4.0748,M,-1.3624,M,01,0000*5D
$GPRMC,041912.40,A,2234.44112194,N,11431.75068703,E,0.511,309.1,071224,3.4,W,D*25
$GNVTG,290.090,T,293.528,M,0.47736,N,0.88407,K,D*3F
$GNHDT,320.1015,T*1F
$GPGGA,041912.60,2234.44113108,N,11431.75066012,E,4,21,0.7,-4.1362,M,-1.3624,M,01,0000*5F
$GPRMC,041912.60,A,2234.44113108,N,11431.75066012,E,0.477,290.1,071224,3.4,W,D*2A
$GNVTG,302.736,T,306.174,M,0.20130,N,0.37282,K,D*30
$GNHDT,320.2584,T*11
$GPGGA,041912.80,2234.44113715,N,11431.75064995,E,4,22,0.7,-4.1821,M,-1.3624,M,00,0000*51
$GPRMC,041912.80,A,2234.44113715,N,11431.75064995,E,0.201,302.7,071224,3.4,W,D*21
$GNVTG,308.746,T,312.185,M,0.22789,N,0.42205,K,D*3D
$GNHDT,320.4610,T*19
$GPGGA,041913.00,2234.44114510,N,11431.75063928,E,4,22,0.7,-4.2211,M,-1.3624,M,01,0000*52
$GPRMC,041913.00,A,2234.44114510,N,11431.75063928,E,0.228,308.7,071224,3.4,W,D*28
$GNVTG,311.810,T,315.249,M,0.29521,N,0.54673,K,D*34
$GNHDT,320.7844,T*15
$GPGGA,041913.20,2234.44115607,N,11431.75062608,E,4,22,0.7,-4.2144,M,-1.3624,M,01,0000*5B
$GPRMC,041913.20,A,2234.44115607,N,11431.75062608,E,0.295,311.8,071224,3.4,W,D*23
$GNVTG,320.697,T,324.136,M,0.55237,N,1.02298,K,D*36
$GNHDT,320.2520,T*1F
$GPGGA,041913.40,2234.44117990,N,11431.75060507,E,4,22,0.7,-4.1515,M,-1.3624,M,01,0000*53
$GPRMC,041913.40,A,2234.44117990,N,11431.75060507,E,0.552,320.7,071224,3.4,W,D*29
$GNVTG,304.942,T,308.381,M,0.70884,N,1.31278,K,D*3C
$GNHDT,320.2717,T*19
$GPGGA,041913.60,2234.44120253,N,11431.75057019,E,4,21,0.7,-4.1261,M,-1.3624,M,01,0000*58
$GPRMC,041913.60,A,2234.44120253,N,11431.75057019,E,0.709,304.9,071224,3.4,W,D*21
$GNVTG,305.819,T,309.257,M,0.74734,N,1.38408,K,D*31
$GNHDT,319.6820,T*1C
$GPGGA,041913.80,2234.44122691,N,11431.75053382,E,4,21,0.7,-4.0613,M,-1.3624,M,00,0000*5A
$GPRMC,041913.80,A,2234.44122691,N,11431.75053382,E,0.747,305.8,071224,3.4,W,D*28
$GNVTG,307.948,T,311.387,M,0.67569,N,1.25137,K,D*3E
$GNHDT,319.5146,T*16
$GPGGA,041914.00,2234.44125007,N,11431.75050183,E,4,21,0.7,-3.9925,M,-1.3624,M,01,0000*5E
$GPRMC,041914.00,A,2234.44125007,N,11431.75050183,E,0.676,307.9,071224,3.4,W,D*29
$GNVTG,294.589,T,298.028,M,0.57423,N,1.06346,K,D*3B
$GNHDT,319.5570,T*17
$GPGGA,041914.20,2234.44126339,N,11431.75047049,E,4,21,0.7,-4.0026,M,-1.3624,M,01,0000*54
$GPRMC,041914.20,A,2234.44126339,N,11431.75047049,E,0.574,294.6,071224,3.4,W,D*22
$GNVTG,285.495,T,288.934,M,0.50049,N,0.92691,K,D*3E
$GNHDT,319.4228,T*1C
$GPGGA,041914.40,2234.44127085,N,11431.75044154,E,4,21,0.7,-4.0134,M,-1.3624,M,01,0000*5B
$GPRMC,041914.40,A,2234.44127085,N,11431.75044154,E,0.500,285.5,071224,3.4,W,D*2F
$GNVTG,288.138,T,291.576,M,0.52622,N,0.97456,K,D*36
$GNHDT,319.2581,T*1E
$GPGGA,041914.60,2234.44127998,N,11431.75041152,E,4,22,0.7,-4.0543,M,-1.3624,M,01,0000*58
$GPRMC,041914.60,A,2234.44127998,N,11431.75041152,E,0.526,288.1,071224,3.4,W,D*26
$GNVTG,285.058,T,288.497,M,0.53128,N,0.98394,K,D*30
$GNHDT,319.6344,T*15
$GPGGA,041914.80,2234.44128767,N,11431.75038072,E,4,22,0.7,-4.0874,M,-1.3624,M,00,0000*52
$GPRMC,041914.80,A,2234.44128767,N,11431.75038072,E,0.531,285.1,071224,3.4,W,D*2F
$GNVTG,286.702,T,290.141,M,0.55303,N,1.02422,K,D*39
$GNHDT,319.5152,T*13
$GPGGA,041915.00,2234.44129654,N,11431.75034893,E,4,22,0.7,-4.1318,M,-1.3624,M,01,0000*51
$GPRMC,041915.00,A,2234.44129654,N,11431.75034893,E,0.553,286.7,071224,3.4,W,D*2C
$GNVTG,298.278,T,301.717,M,0.52792,N,0.97771,K,D*31
$GNHDT,319.5562,T*14
$GPGGA,041915.20,2234.44131048,N,11431.75032102,E,4,22,0.7,-4.1675,M,-1.3624,M,01,0000*58
$GPRMC,041915.20,A,2234.44131048,N,11431.75032102,E,0.528,298.3,071224,3.4,W,D*2C
$GNVTG,300.328,T,303.767,M,0.77351,N,1.43254,K,D*36
$GNHDT,319.8544,T*1D
$GPGGA,041915.40,2234.44133225,N,11431.75028094,E,4,21,0.7,-4.2004,M,-1.3624,M,01,0000*50
$GPRMC,041915.40,A,2234.44133225,N,11431.75028094,E,0.774,300.3,071224,3.4,W,D*2F
$GNVTG,311.244,T,314.683,M,0.59900,N,1.10935,K,D*38
$GNHDT,320.0677,T*1C
$GPGGA,041915.60,2234.44135427,N,11431.75025390,E,4,21,0.7,-4.1669,M,-1.3624,M,01,0000*54
$GPRMC,041915.60,A,2234.44135427,N,11431.75025390,E,0.599,311.2,071224,3.4,W,D*25
$GNVTG,314.115,T,317.553,M,0.57150,N,1.05841,K,D*32
$GNHDT,320.6855,T*14
$GPGGA,041915.80,2234.44137644,N,11431.75022927,E,4,21,0.7,-4.1532,M,-1.3624,M,00,0000*52
$GPRMC,041915.80,A,2234.44137644,N,11431.75022927,E,0.571,314.1,071224,3.4,W,D*2F
$GNVTG,331.053,T,334.492,M,0.38225,N,0.70792,K,D*31
$GNHDT,320.6312,T*1C
$GPGGA,041916.00,2234.44139509,N,11431.75021817,E,4,21,0.7,-4.1215,M,-1.3624,M,01,0000*5F
$GPRMC,041916.00,A,2234.44139509,N,11431.75021817,E,0.382,331.1,071224,3.4,W,D*2C
$GNVTG,331.728,T,335.167,M,0.30799,N,0.57040,K,D*33
$GNHDT,321.0034,T*1C
$GPGGA,041916.20,2234.44141021,N,11431.75020941,E,4,21,0.7,-4.0643,M,-1.3624,M,01,0000*58
$GPRMC,041916.20,A,2234.44141021,N,11431.75020941,E,0.308,331.7,071224,3.4,W,D*29
$GNVTG,327.732,T,331.171,M,0.28334,N,0.52475,K,D*31
$GNHDT,320.5024,T*19
$GPGGA,041916.40,2234.44142357,N,11431.75020033,E,4,22,0.7,-4.0682,M,-1.3624,M,01,0000*5D
$GPRMC,041916.40,A,2234.44142357,N,11431.75020033,E,0.283,327.7,071224,3.4,W,D*27
$GNVTG,294.213,T,297.651,M,0.45832,N,0.84881,K,D*3C
$GNHDT,320.2331,T*19
$GPGGA,041916.60,2234.44143405,N,11431.75017524,E,4,22,0.7,-4.0086,M,-1.3624,M,01,0000*5B
$GPRMC,041916.60,A,2234.44143405,N,11431.75017524,E,0.458,294.2,071224,3.4,W,D*2F
$GNVTG,292.813,T,296.252,M,0.65035,N,1.20445,K,D*30
$GNHDT,320.1332,T*19
$GPGGA,041916.80,2234.44144810,N,11431.75013925,E,4,22,0.7,-4.0186,M,-1.3624,M,00,0000*53
$GPRMC,041916.80,A,2234.44144810,N,11431.75013925,E,0.650,292.8,071224,3.4,W,D*21
$GNVTG,298.125,T,301.563,M,0.79019,N,1.46343,K,D*3E
$GNHDT,319.8684,T*12
$GPGGA,041917.00,2234.44146887,N,11431.75009742,E,4,22,0.7,-4.0199,M,-1.3624,M,01,0000*5D
$GPRMC,041917.00,A,2234.44146887,N,11431.75009742,E,0.790,298.1,071224,3.4,W,D*2E
$GNVTG,292.180,T,295.619,M,0.76142,N,1.41014,K,D*3F
$GNHDT,319.5395,T*1A
$GPGGA,041917.20,2234.44148489,N,11431.75005510,E,4,22,0.7,-4.0615,M,-1.3624,M,01,0000*59
$GPRMC,041917.20,A,2234.44148489,N,11431.75005510,E,0.761,292.2,071224,3.4,W,D*2E
$GNVTG,293.112,T,296.551,M,0.71129,N,1.31731,K,D*34
$GNHDT,319.8002,T*1A
$GPGGA,041917.40,2234.44150046,N,11431.75001583,E,4,22,0.7,-4.1092,M,-1.3624,M,01,0000*57
$GPRMC,041917.40,A,2234.44150046,N,11431.75001583,E,0.711,293.1,071224,3.4,W,D*2D
$GNVTG,281.724,T,285.163,M,0.39449,N,0.73059,K,D*32
$GNHDT,320.4418,T*13
$GPGGA,041917.60,2234.44150493,N,11431.74999264,E,4,22,0.7,-4.1340,M,-1.3624,M,01,0000*52
$GPRMC,041917.60,A,2234.44150493,N,11431.74999264,E,0.394,281.7,071224,3.4,W,D*28
$GNVTG,262.597,T,266.036,M,0.11686,N,0.21642,K,D*39
$GNHDT,321.3302,T*19
$GPGGA,041917.80,2234.44150409,N,11431.74998569,E,4,22,0.7,-4.1835,M,-1.3624,M,00,0000*5C
$GPRMC,041917.80,A,2234.44150409,N,11431.74998569,E,0.117,262.6,071224,3.4,W,D*2B
$GNVTG,137.546,T,140.985,M,0.09607,N,0.17792,K,D*39
$GNHDT,321.9208,T*18
$GPGGA,041918.00,2234.44150014,N,11431.74998958,E,4,21,0.7,-4.2520,M,-1.3624,M,01,0000*55
$GPRMC,041918.00,A,2234.44150014,N,11431.74998958,E,0.096,137.5,071224,3.4,W,D*22
$GNVTG,74.394,T,77.832,M,0.08209,N,0.15203,K,D*3A
$GNHDT,322.8517,T*13
$GPGGA,041918.20,2234.44150137,N,11431.74999432,E,4,21,0.7,-4.2854,M,-1.3624,M,01,0000*59
$GPRMC,041918.20,A,2234.44150137,N,11431.74999432,E,0.082,74.4,071224,3.4,W,D*12
$GNVTG,339.612,T,343.051,M,0.40117,N,0.74297,K,D*38
$GNHDT,322.5010,T*1C
$GPGGA,041918.40,2234.44152233,N,11431.74998593,E,4,21,0.7,-4.2329,M,-1.3624,M,01,0000*50
$GPRMC,041918.40,A,2234.44152233,N,11431.74998593,E,0.401,339.6,071224,3.4,W,D*2D
$GNVTG,312.831,T,316.269,M,0.68504,N,1.26869,K,D*36
$GNHDT,322.2972,T*16
$GPGGA,041918.60,2234.44154829,N,11431.74995578,E,4,21,0.7,-4.1396,M,-1.3624,M,01,0000*5A
$GPRMC,041918.60,A,2234.44154829,N,11431.74995578,E,0.685,312.8,071224,3.4,W,D*29
$GNVTG,315.145,T,318.583,M,0.87870,N,1.62735,K,D*3F
$GNHDT,322.3961,T*15
$GPGGA,041918.80,2234.44158302,N,11431.74991857,E,4,22,0.7,-4.0517,M,-1.3624,M,00,0000*52
$GPRMC,041918.80,A,2234.44158302,N,11431.74991857,E,0.879,315.1,071224,3.4,W,D*2E
$GNVTG,302.670,T,306.109,M,0.93087,N,1.72396,K,D*38
$GNHDT,322.5682,T*11
$GPGGA,041919.00,2234.44161103,N,11431.74987154,E,4,22,0.7,-3.9780,M,-1.3624,M,01,0000*5C
$GPRMC,041919.00,A,2234.44161103,N,11431.74987154,E,0.931,302.7,071224,3.4,W,D*2E
$GNVTG,293.468,T,296.907,M,0.54861,N,1.01602,K,D*33
$GNHDT,322.4486,T*16
$GPGGA,041919.20,2234.44162321,N,11431.74984133,E,4,22,0.7,-3.9520,M,-1.3624,M,01,0000*55
$GPRMC,041919.20,A,2234.44162321,N,11431.74984133,E,0.549,293.5,071224,3.4,W,D*27
$GNVTG,279.959,T,283.398,M,0.39178,N,0.72557,K,D*3C
$GNHDT,322.6498,T*1B
$GPGGA,041919.40,2234.44162699,N,11431.74981817,E,4,21,0.7,-3.9972,M,-1.3624,M,01,0000*57
$GPRMC,041919.40,A,2234.44162699,N,11431.74981817,E,0.392,280.0,071224,3.4,W,D*2A
$GNVTG,255.695,T,259.133,M,0.16988,N,0.31461,K,D*30
$GNHDT,322.3224,T*1F
$GPGGA,041919.60,2234.44162465,N,11431.74980829,E,4,21,0.7,-4.0301,M,-1.3624,M,01,0000*58
$GPRMC,041919.60,A,2234.44162465,N,11431.74980829,E,0.170,255.7,071224,3.4,W,D*24
$GNVTG,249.755,T,253.193,M,0.37997,N,0.70370,K,D*3F
$GNHDT,323.0126,T*1C
$GPGGA,041919.80,2234.44161732,N,11431.74978689,E,4,21,0.7,-4.0609,M,-1.3625,M,00,0000*5A
$GPRMC,041919.80,A,2234.44161732,N,11431.74978689,E,0.380,249.8,071224,3.4,W,D*24
$GNVTG,283.063,T,286.501,M,0.55765,N,1.03276,K,D*39
$GNHDT,322.5795,T*16
$GPGGA,041920.00,2234.44162434,N,11431.74975428,E,4,21,0.7,-4.0596,M,-1.3625,M,01,0000*5E
$GPRMC,041920.00,A,2234.44162434,N,11431.74975428,E,0.558,283.1,071224,3.4,W,D*28
$GNVTG,289.198,T,292.637,M,0.95352,N,1.76592,K,D*36
$GNHDT,322.8003,T*13
$GPGGA,041920.20,2234.44164182,N,11431.74970022,E,4,21,0.7,-4.0450,M,-1.3625,M,01,0000*52
$GPRMC,041920.20,A,2234.44164182,N,11431.74970022,E,0.954,289.2,071224,3.4,W,D*26
$GNVTG,300.521,T,303.960,M,1.10908,N,2.05402,K,D*32
$GNHDT,322.2292,T*13
$GPGGA,041920.40,2234.44167322,N,11431.74964287,E,4,21,0.7,-4.0042,M,-1.3625,M,01,0000*50
$GPRMC,041920.40,A,2234.44167322,N,11431.74964287,E,1.109,300.5,071224,3.4,W,D*25
$GNVTG,295.215,T,298.653,M,1.11029,N,2.05626,K,D*3C
$GNHDT,322.4441,T*1D
$GPGGA,041920.60,2234.44169959,N,11431.74958257,E,4,21,0.7,-3.9982,M,-1.3625,M,01,0000*53
$GPRMC,041920.60,A,2234.44169959,N,11431.74958257,E,1.110,295.2,071224,3.4,W,D*2F
$GNVTG,298.760,T,302.199,M,0.82871,N,1.53477,K,D*3D
$GNHDT,323.0702,T*1C
$GPGGA,041920.80,2234.44172182,N,11431.74953897,E,4,21,0.7,-3.9904,M,-1.3625,M,00,0000*5B
$GPRMC,041920.80,A,2234.44172182,N,11431.74953897,E,0.829,298.8,071224,3.4,W,D*2D
$GNVTG,291.572,T,295.011,M,0.53933,N,0.99883,K,D*30
$GNHDT,323.4005,T*18
$GPGGA,041921.00,2234.44173287,N,11431.74950886,E,4,21,0.7,-4.0004,M,-1.3625,M,01,0000*50
$GPRMC,041921.00,A,2234.44173287,N,11431.74950886,E,0.539,291.6,071224,3.4,W,D*2B
$GNVTG,283.085,T,286.524,M,0.44238,N,0.81929,K,D*31
$GNHDT,323.4749,T*17
$GPGGA,041921.20,2234.44173846,N,11431.74948299,E,4,21,0.7,-3.9991,M,-1.3625,M,01,0000*53
$GPRMC,041921.20,A,2234.44173846,N,11431.74948299,E,0.442,283.1,071224,3.4,W,D*2A
$GNVTG,281.879,T,285.318,M,0.63106,N,1.16872,K,D*39
$GNHDT,323.7718,T*10
$GPGGA,041921.40,2234.44174570,N,11431.74944592,E,4,21,0.7,-4.0124,M,-1.3625,M,01,0000*52
$GPRMC,041921.40,A,2234.44174570,N,11431.74944592,E,0.631,281.9,071224,3.4,W,D*2F
$GNVTG,297.230,T,300.668,M,0.72285,N,1.33872,K,D*38
$GNHDT,323.7181,T*16
$GPGGA,041921.60,2234.44176414,N,11431.74940734,E,4,21,0.7,-4.0214,M,-1.3625,M,01,0000*5B
$GPRMC,041921.60,A,2234.44176414,N,11431.74940734,E,0.723,297.2,071224,3.4,W,D*28
$GNVTG,295.282,T,298.721,M,0.73401,N,1.35940,K,D*32
$GNHDT,323.9590,T*1C
$GPGGA,041921.80,2234.44178161,N,11431.74936750,E,4,21,0.7,-4.0405,M,-1.3625,M,00,0000*58
$GPRMC,041921.80,A,2234.44178161,N,11431.74936750,E,0.734,295.3,071224,3.4,W,D*29
$GNVTG,298.174,T,301.613,M,0.64844,N,1.20091,K,D*3E
$GNHDT,323.7355,T*1D
$GPGGA,041922.00,2234.44179868,N,11431.74933319,E,4,21,0.7,-4.1223,M,-1.3625,M,01,0000*5C
$GPRMC,041922.00,A,2234.44179868,N,11431.74933319,E,0.648,298.2,071224,3.4,W,D*29
$GNVTG,290.828,T,294.267,M,0.54366,N,1.00686,K,D*36
$GNHDT,323.9500,T*15
$GPGGA,041922.20,2234.44180946,N,11431.74930269,E,4,21,0.7,-4.2000,M,-1.3625,M,01,0000*50
$GPRMC,041922.20,A,2234.44180946,N,11431.74930269,E,0.544,290.8,071224,3.4,W,D*28
$GNVTG,294.646,T,298.085,M,0.26233,N,0.48583,K,D*39
$GNHDT,324.1929,T*1D
$GPGGA,041922.40,2234.44181555,N,11431.74928837,E,4,22,0.7,-4.2817,M,-1.3625,M,01,0000*5C
$GPRMC,041922.40,A,2234.44181555,N,11431.74928837,E,0.262,294.6,071224,3.4,W,D*20
$GNVTG,288.301,T,291.740,M,0.11708,N,0.21683,K,D*30
$GNHDT,324.6563,T*18
$GPGGA,041922.60,2234.44181760,N,11431.74928170,E,4,22,0.7,-4.3099,M,-1.3625,M,01,0000*5F
$GPRMC,041922.60,A,2234.44181760,N,11431.74928170,E,0.117,288.3,071224,3.4,W,D*25
$GNVTG,312.015,T,315.454,M,0.16665,N,0.30863,K,D*32
$GNHDT,325.3794,T*16
$GPGGA,041922.80,2234.44182382,N,11431.74927427,E,4,22,0.7,-4.3296,M,-1.3625,M,01,0000*5F
$GPRMC,041922.80,A,2234.44182382,N,11431.74927427,E,0.167,312.0,071224,3.4,W,D*2E
$GNVTG,353.860,T,357.299,M,0.28898,N,0.53520,K,D*32
$GNHDT,325.2869,T*1A
$GPGGA,041923.00,2234.44183984,N,11431.74927241,E,4,22,0.7,-4.2576,M,-1.3625,M,02,0000*56
$GPRMC,041923.00,A,2234.44183984,N,11431.74927241,E,0.289,353.9,071224,3.4,W,D*23
$GNVTG,324.630,T,328.068,M,0.39012,N,0.72250,K,D*34
$GNHDT,325.8433,T*13
$GPGGA,041923.20,2234.44185757,N,11431.74925886,E,4,22,0.7,-4.2196,M,-1.3625,M,02,0000*5B
$GPRMC,041923.20,A,2234.44185757,N,11431.74925886,E,0.390,324.6,071224,3.4,W,D*22
$GNVTG,328.541,T,331.979,M,0.51178,N,0.94782,K,D*3D
$GNHDT,325.7116,T*1E
$GPGGA,041923.40,2234.44188191,N,11431.74924282,E,4,22,0.7,-4.1324,M,-1.3625,M,02,0000*5B
$GPRMC,041923.40,A,2234.44188191,N,11431.74924282,E,0.512,328.5,071224,3.4,W,D*29
$GNVTG,317.473,T,320.912,M,0.54519,N,1.00969,K,D*3D
$GNHDT,325.3198,T*1C
$GPGGA,041923.60,2234.44190431,N,11431.74922070,E,4,22,0.7,-4.0813,M,-1.3625,M,02,0000*58
$GPRMC,041923.60,A,2234.44190431,N,11431.74922070,E,0.545,317.5,071224,3.4,W,D*2A
$GNVTG,309.775,T,313.213,M,0.61501,N,1.13901,K,D*3E
$GNHDT,325.0454,T*1A
$GPGGA,041923.80,2234.44192624,N,11431.74919233,E,4,22,0.7,-4.0338,M,-1.3625,M,02,0000*5D
$GPRMC,041923.80,A,2234.44192624,N,11431.74919233,E,0.615,309.8,071224,3.4,W,D*29
$GNVTG,301.381,T,304.820,M,0.63019,N,1.16711,K,D*31
$GNHDT,324.6062,T*1C
$GPGGA,041924.00,2234.44194454,N,11431.74916003,E,4,22,0.7,-4.0288,M,-1.3625,M,03,0000*54
$GPRMC,041924.00,A,2234.44194454,N,11431.74916003,E,0.630,301.4,071224,3.4,W,D*28
$GNVTG,293.525,T,296.963,M,0.49037,N,0.90817,K,D*3D
$GNHDT,324.8434,T*15
$GPGGA,041924.20,2234.44195545,N,11431.74913304,E,4,22,0.7,-4.0824,M,-1.3625,M,03,0000*5B
$GPRMC,041924.20,A,2234.44195545,N,11431.74913304,E,0.490,293.5,071224,3.4,W,D*28
$GNVTG,269.338,T,272.777,M,0.36057,N,0.66777,K,D*3D
$GNHDT,325.5856,T*11
$GPGGA,041924.40,2234.44195522,N,11431.74911140,E,4,22,0.7,-4.1388,M,-1.3625,M,03,0000*50
$GPRMC,041924.40,A,2234.44195522,N,11431.74911140,E,0.361,269.3,071224,3.4,W,D*25
$GNVTG,281.847,T,285.285,M,0.24324,N,0.45048,K,D*36
$GNHDT,325.7806,T*16
$GPGGA,041924.60,2234.44195800,N,11431.74909711,E,4,22,0.7,-4.1959,M,-1.3625,M,03,0000*52
$GPRMC,041924.60,A,2234.44195800,N,11431.74909711,E,0.243,281.8,071224,3.4,W,D*2D
$GNVTG,273.509,T,276.947,M,0.17245,N,0.31939,K,D*3F
$GNHDT,326.2626,T*1C
$GPGGA,041924.80,2234.44195859,N,11431.74908678,E,4,22,0.7,-4.2406,M,-1.3625,M,00,0000*58
$GPRMC,041924.80,A,2234.44195859,N,11431.74908678,E,0.172,273.5,071224,3.4,W,D*21
$GNVTG,305.636,T,309.075,M,0.32375,N,0.59959,K,D*3C
$GNHDT,326.4049,T*15
$GPGGA,041925.00,2234.44196910,N,11431.74907098,E,4,22,0.7,-4.2128,M,-1.3625,M,01,0000*51
$GPRMC,041925.00,A,2234.44196910,N,11431.74907098,E,0.324,305.6,071224,3.4,W,D*22
$GNVTG,295.984,T,299.423,M,0.53245,N,0.98610,K,D*37
$GNHDT,326.3891,T*1F
$GPGGA,041925.20,2234.44198211,N,11431.74904225,E,4,22,0.7,-4.1539,M,-1.3625,M,01,0000*57
$GPRMC,041925.20,A,2234.44198211,N,11431.74904225,E,0.532,296.0,071224,3.4,W,D*2F
$GNVTG,305.870,T,309.309,M,0.80631,N,1.49329,K,D*39
$GNHDT,326.7809,T*1A
$GPGGA,041925.40,2234.44200845,N,11431.74900303,E,4,22,0.7,-4.0466,M,-1.3625,M,01,0000*53
$GPRMC,041925.40,A,2234.44200845,N,11431.74900303,E,0.806,305.9,071224,3.4,W,D*29
$GNVTG,300.402,T,303.840,M,0.89611,N,1.65959,K,D*31
$GNHDT,326.7242,T*1F
$GPGGA,041925.60,2234.44203373,N,11431.74895664,E,4,22,0.7,-3.9227,M,-1.3625,M,01,0000*58
$GPRMC,041925.60,A,2234.44203373,N,11431.74895664,E,0.896,300.4,071224,3.4,W,D*2E
$GNVTG,298.117,T,301.556,M,0.81712,N,1.51331,K,D*31
$GNHDT,326.5695,T*13
$GPGGA,041925.80,2234.44205519,N,11431.74891338,E,4,22,0.7,-3.8895,M,-1.3625,M,00,0000*51
$GPRMC,041925.80,A,2234.44205519,N,11431.74891338,E,0.817,298.1,071224,3.4,W,D*28
$GNVTG,298.642,T,302.080,M,0.76290,N,1.41289,K,D*3F
$GNHDT,326.0129,T*16
$GPGGA,041926.00,2234.44207558,N,11431.74887318,E,4,22,0.7,-3.9058,M,-1.3625,M,01,0000*51
$GPRMC,041926.00,A,2234.44207558,N,11431.74887318,E,0.763,298.6,071224,3.4,W,D*2A
$GNVTG,292.730,T,296.169,M,0.67293,N,1.24627,K,D*3B
$GNHDT,325.0014,T*1A
$GPGGA,041926.20,2234.44209008,N,11431.74883593,E,4,21,0.7,-3.9421,M,-1.3625,M,01,0000*55
$GPRMC,041926.20,A,2234.44209008,N,11431.74883593,E,0.673,292.7,071224,3.4,W,D*2C
$GNVTG,273.491,T,276.930,M,0.64006,N,1.18539,K,D*38
$GNHDT,325.7091,T*10
$GPGGA,041926.40,2234.44209225,N,11431.74879758,E,4,21,0.7,-4.0427,M,-1.3625,M,01,0000*56
$GPRMC,041926.40,A,2234.44209225,N,11431.74879758,E,0.640,273.5,071224,3.4,W,D*2A
$GNVTG,275.050,T,278.488,M,0.58105,N,1.07611,K,D*3D
$GNHDT,325.7338,T*10
$GPGGA,041926.60,2234.44209510,N,11431.74876283,E,4,22,0.7,-4.1208,M,-1.3625,M,01,0000*50
$GPRMC,041926.60,A,2234.44209510,N,11431.74876283,E,0.581,275.0,071224,3.4,W,D*28
$GNVTG,282.729,T,286.168,M,0.62841,N,1.16382,K,D*39
$GNHDT,326.7524,T*18
$GPGGA,041926.80,2234.44210282,N,11431.74872604,E,4,21,0.8,-4.1845,M,-1.3625,M,00,0000*5B
$GPRMC,041926.80,A,2234.44210282,N,11431.74872604,E,0.628,282.7,071224,3.4,W,D*22
$GNVTG,289.060,T,292.499,M,0.44129,N,0.81726,K,D*30
$GNHDT,326.8705,T*16
$GPGGA,041927.00,2234.44211085,N,11431.74870100,E,4,20,0.8,-4.1747,M,-1.3625,M,01,0000*5A
$GPRMC,041927.00,A,2234.44211085,N,11431.74870100,E,0.441,289.1,071224,3.4,W,D*2E
$GNVTG,285.505,T,288.944,M,0.52014,N,0.96330,K,D*31
$GNHDT,327.7569,T*10
$GPGGA,041927.20,2234.44211860,N,11431.74867091,E,4,18,0.8,-4.1821,M,-1.3625,M,01,0000*50
$GPRMC,041927.20,A,2234.44211860,N,11431.74867091,E,0.520,285.5,071224,3.4,W,D*2E
$GNVTG,301.874,T,305.313,M,0.60941,N,1.12862,K,D*32
$GNHDT,327.8505,T*15
$GPGGA,041927.40,2234.44213654,N,11431.74863985,E,4,19,0.8,-4.0932,M,-1.3625,M,01,0000*56
$GPRMC,041927.40,A,2234.44213654,N,11431.74863985,E,0.609,301.9,071224,3.4,W,D*22
$GNVTG,296.355,T,299.794,M,0.70893,N,1.31295,K,D*36
$GNHDT,327.8698,T*12
$GPGGA,041927.60,2234.44215409,N,11431.74860172,E,4,18,0.8,-4.0083,M,-1.3625,M,01,0000*59
$GPRMC,041927.60,A,2234.44215409,N,11431.74860172,E,0.709,296.4,071224,3.4,W,D*2C
$GNVTG,300.077,T,303.516,M,0.80258,N,1.48637,K,D*31
$GNHDT,327.7663,T*19
$GPGGA,041927.80,2234.44217651,N,11431.74856003,E,4,20,0.8,-3.9453,M,-1.3625,M,00,0000*55
$GPRMC,041927.80,A,2234.44217651,N,11431.74856003,E,0.803,300.1,071224,3.4,W,D*23
$GNVTG,298.458,T,301.896,M,0.68633,N,1.27108,K,D*32
$GNHDT,327.6237,T*1D
$GPGGA,041928.00,2234.44219474,N,11431.74852381,E,4,20,0.8,-3.9198,M,-1.3625,M,01,0000*57
$GPRMC,041928.00,A,2234.44219474,N,11431.74852381,E,0.686,298.5,071224,3.4,W,D*25
$GNVTG,293.699,T,297.138,M,0.69792,N,1.29255,K,D*3B
$GNHDT,327.5839,T*1A
$GPGGA,041928.20,2234.44221038,N,11431.74848544,E,4,22,0.7,-3.9865,M,-1.3625,M,01,0000*50
$GPRMC,041928.20,A,2234.44221038,N,11431.74848544,E,0.698,293.7,071224,3.4,W,D*22
$GNVTG,286.261,T,289.700,M,0.50250,N,0.93062,K,D*39
$GNHDT,326.7190,T*13
$GPGGA,041928.40,2234.44221822,N,11431.74845649,E,4,22,0.7,-4.0417,M,-1.3625,M,01,0000*51
$GPRMC,041928.40,A,2234.44221822,N,11431.74845649,E,0.502,286.3,071224,3.4,W,D*24
$GNVTG,266.340,T,269.779,M,0.56405,N,1.04463,K,D*3F
$GNHDT,326.9243,T*10
$GPGGA,041928.60,2234.44221622,N,11431.74842270,E,4,22,0.7,-4.1064,M,-1.3625,M,01,0000*55
$GPRMC,041928.60,A,2234.44221622,N,11431.74842270,E,0.564,266.3,071224,3.4,W,D*2F
$GNVTG,277.463,T,280.901,M,0.61178,N,1.13302,K,D*32
$GNHDT,327.0064,T*1F
$GPGGA,041928.80,2234.44222065,N,11431.74838628,E,4,22,0.7,-4.1412,M,-1.3625,M,01,0000*5C
$GPRMC,041928.80,A,2234.44222065,N,11431.74838628,E,0.612,277.5,071224,3.4,W,D*27
$GNVTG,278.482,T,281.921,M,0.60305,N,1.11684,K,D*31
$GNHDT,327.3988,T*17
$GPGGA,041929.00,2234.44222561,N,11431.74835048,E,4,22,0.7,-4.1436,M,-1.3625,M,02,0000*5C
$GPRMC,041929.00,A,2234.44222561,N,11431.74835048,E,0.603,278.5,071224,3.4,W,D*2D
$GNVTG,293.545,T,296.984,M,0.62170,N,1.15139,K,D*30
$GNHDT,327.3857,T*14
$GPGGA,041929.20,2234.44223945,N,11431.74831627,E,4,22,0.7,-4.1423,M,-1.3625,M,02,0000*5A
$GPRMC,041929.20,A,2234.44223945,N,11431.74831627,E,0.622,293.5,071224,3.4,W,D*29
$GNVTG,296.276,T,299.714,M,0.64839,N,1.20082,K,D*3F
$GNHDT,328.3271,T*15
$GPGGA,041929.40,2234.44225545,N,11431.74828137,E,4,22,0.7,-4.1157,M,-1.3625,M,02,0000*5E
$GPRMC,041929.40,A,2234.44225545,N,11431.74828137,E,0.648,296.3,071224,3.4,W,D*24
$GNVTG,308.977,T,312.416,M,0.42732,N,0.79140,K,D*32
$GNHDT,328.1619,T*1D
$GPGGA,041929.60,2234.44227044,N,11431.74826143,E,4,22,0.7,-4.1189,M,-1.3625,M,02,0000*54
$GPRMC,041929.60,A,2234.44227044,N,11431.74826143,E,0.427,309.0,071224,3.4,W,D*22
$GNVTG,306.675,T,310.113,M,0.31272,N,0.57916,K,D*31
$GNHDT,328.5809,T*16
$GPGGA,041929.80,2234.44228085,N,11431.74824637,E,4,22,0.7,-4.1382,M,-1.3625,M,00,0000*55
$GPRMC,041929.80,A,2234.44228085,N,11431.74824637,E,0.313,306.7,071224,3.4,W,D*20
$GNVTG,335.084,T,338.523,M,0.13910,N,0.25761,K,D*30
$GNHDT,328.2989,T*18
$GPGGA,041930.00,2234.44228788,N,11431.74824285,E,4,22,0.7,-4.1847,M,-1.3625,M,01,0000*51
$GPRMC,041930.00,A,2234.44228788,N,11431.74824285,E,0.139,335.1,071224,3.4,W,D*2B
$GNVTG,317.174,T,320.613,M,0.21522,N,0.39858,K,D*33
$GNHDT,328.6153,T*13
$GPGGA,041930.20,2234.44229668,N,11431.74823407,E,4,22,0.7,-4.2243,M,-1.3625,M,01,0000*5B
$GPRMC,041930.20,A,2234.44229668,N,11431.74823407,E,0.215,317.2,071224,3.4,W,D*22
$GNVTG,309.969,T,313.408,M,0.32012,N,0.59286,K,D*3B
$GNHDT,329.3483,T*1F
$GPGGA,041930.40,2234.44230814,N,11431.74821935,E,4,22,0.7,-4.2171,M,-1.3625,M,01,0000*5C
$GPRMC,041930.40,A,2234.44230814,N,11431.74821935,E,0.320,310.0,071224,3.4,W,D*25
$GNVTG,311.815,T,315.254,M,0.42295,N,0.78330,K,D*34
$GNHDT,328.9567,T*1F
$GPGGA,041930.60,2234.44232386,N,11431.74820042,E,4,22,0.7,-4.1734,M,-1.3625,M,01,0000*50
$GPRMC,041930.60,A,2234.44232386,N,11431.74820042,E,0.423,311.8,071224,3.4,W,D*20
$GNVTG,307.055,T,310.494,M,0.57800,N,1.07046,K,D*39
$GNHDT,328.9435,T*19
$GPGGA,041930.80,2234.44234328,N,11431.74817273,E,4,22,0.7,-4.1290,M,-1.3625,M,00,0000*52
$GPRMC,041930.80,A,2234.44234328,N,11431.74817273,E,0.578,307.1,071224,3.4,W,D*29
$GNVTG,302.395,T,305.834,M,0.59601,N,1.10382,K,D*3D
$GNHDT,328.8257,T*1A
$GPGGA,041931.00,2234.44236108,N,11431.74814252,E,4,22,0.7,-4.0862,M,-1.3625,M,01,0000*5E
$GPRMC,041931.00,A,2234.44236108,N,11431.74814252,E,0.596,302.4,071224,3.4,W,D*22
$GNVTG,293.299,T,296.737,M,0.56798,N,1.05190,K,D*35
$GNHDT,328.9794,T*11
$GPGGA,041931.20,2234.44237361,N,11431.74811121,E,4,22,0.7,-4.0438,M,-1.3626,M,01,0000*52
$GPRMC,041931.20,A,2234.44237361,N,11431.74811121,E,0.568,293.3,071224,3.4,W,D*21
$GNVTG,296.828,T,300.267,M,0.56311,N,1.04288,K,D*30
$GNHDT,328.8940,T*17
$GPGGA,041931.40,2234.44238777,N,11431.74808105,E,4,22,0.7,-4.0419,M,-1.3626,M,01,0000*55
$GPRMC,041931.40,A,2234.44238777,N,11431.74808105,E,0.563,296.8,071224,3.4,W,D*20
$GNVTG,285.594,T,289.033,M,0.42451,N,0.78619,K,D*3B
$GNHDT,328.5580,T*1A
$GPGGA,041931.60,2234.44239413,N,11431.74805650,E,4,22,0.7,-4.0799,M,-1.3626,M,01,0000*56
$GPRMC,041931.60,A,2234.44239413,N,11431.74805650,E,0.425,285.6,071224,3.4,W,D*27
$GNVTG,294.040,T,297.479,M,0.39571,N,0.73285,K,D*37
$GNHDT,328.8558,T*12
$GPGGA,041931.80,2234.44240312,N,11431.74803481,E,4,22,0.7,-4.1508,M,-1.3626,M,00,0000*52
$GPRMC,041931.80,A,2234.44240312,N,11431.74803481,E,0.396,294.0,071224,3.4,W,D*20
$GNVTG,273.382,T,276.820,M,0.17158,N,0.31776,K,D*30
$GNHDT,328.8470,T*19
$GPGGA,041932.00,2234.44240369,N,11431.74802453,E,4,22,0.7,-4.2131,M,-1.3626,M,01,0000*57
$GPRMC,041932.00,A,2234.44240369,N,11431.74802453,E,0.172,273.4,071224,3.4,W,D*2C
$GNVTG,308.176,T,311.615,M,0.32392,N,0.59989,K,D*3F
$GNHDT,329.1483,T*1D
$GPGGA,041932.20,2234.44241485,N,11431.74800924,E,4,22,0.7,-4.2925,M,-1.3626,M,01,0000*53
$GPRMC,041932.20,A,2234.44241485,N,11431.74800924,E,0.324,308.2,071224,3.4,W,D*2F
$GNVTG,286.931,T,290.370,M,0.20501,N,0.37967,K,D*3A
$GNHDT,330.0215,T*1D
$GPGGA,041932.40,2234.44241817,N,11431.74799747,E,4,22,0.7,-4.2779,M,-1.3626,M,01,0000*51
$GPRMC,041932.40,A,2234.44241817,N,11431.74799747,E,0.205,286.9,071224,3.4,W,D*24
$GNVTG,313.012,T,316.451,M,0.29615,N,0.54847,K,D*3D
$GNHDT,329.9994,T*1E
$GPGGA,041932.60,2234.44242944,N,11431.74798447,E,4,22,0.7,-4.2321,M,-1.3626,M,01,0000*5C
$GPRMC,041932.60,A,2234.44242944,N,11431.74798447,E,0.296,313.0,071224,3.4,W,D*2E
$GNVTG,302.338,T,305.777,M,0.42831,N,0.79323,K,D*30
$GNHDT,330.6520,T*1A
$GPGGA,041932.80,2234.44244221,N,11431.74796275,E,4,22,0.7,-4.1421,M,-1.3626,M,00,0000*50
$GPRMC,041932.80,A,2234.44244221,N,11431.74796275,E,0.428,302.3,071224,3.4,W,D*27
$GNVTG,305.428,T,308.867,M,0.60201,N,1.11493,K,D*38
$GNHDT,330.5436,T*1F
$GPGGA,041933.00,2234.44246166,N,11431.74793330,E,4,22,0.7,-4.0359,M,-1.3626,M,01,0000*56
$GPRMC,041933.00,A,2234.44246166,N,11431.74793330,E,0.602,305.4,071224,3.4,W,D*23
$GNVTG,300.318,T,303.756,M,0.77485,N,1.43502,K,D*3D
$GNHDT,330.3354,T*1A
$GPGGA,041933.20,2234.44248347,N,11431.74789315,E,4,22,0.7,-3.9406,M,-1.3626,M,01,0000*54
$GPRMC,041933.20,A,2234.44248347,N,11431.74789315,E,0.775,300.3,071224,3.4,W,D*21
$GNVTG,292.141,T,295.579,M,0.75945,N,1.40651,K,D*3D
$GNHDT,329.6266,T*17
$GPGGA,041933.40,2234.44249942,N,11431.74785092,E,4,22,0.7,-3.8899,M,-1.3626,M,01,0000*57
$GPRMC,041933.40,A,2234.44249942,N,11431.74785092,E,0.759,292.1,071224,3.4,W,D*2F
$GNVTG,291.641,T,295.079,M,0.77262,N,1.43090,K,D*38
$GNHDT,328.8710,T*1C
$GPGGA,041933.60,2234.44251531,N,11431.74780781,E,4,21,0.7,-3.8842,M,-1.3626,M,01,0000*51
$GPRMC,041933.60,A,2234.44251531,N,11431.74780781,E,0.773,291.6,071224,3.4,W,D*20
$GNVTG,283.364,T,286.802,M,0.76003,N,1.40758,K,D*3B
$GNHDT,328.2245,T*13
$GPGGA,041933.80,2234.44252510,N,11431.74776343,E,4,21,0.7,-3.9587,M,-1.3626,M,01,0000*59
$GPRMC,041933.80,A,2234.44252510,N,11431.74776343,E,0.760,283.4,071224,3.4,W,D*2E
$GNVTG,279.356,T,282.795,M,0.80135,N,1.48411,K,D*31
$GNHDT,328.2992,T*12
$GPGGA,041934.00,2234.44253236,N,11431.74771596,E,4,21,0.7,-4.0335,M,-1.3626,M,02,0000*5F
$GPRMC,041934.00,A,2234.44253236,N,11431.74771596,E,0.801,279.4,071224,3.4,W,D*27
$GNVTG,276.134,T,279.573,M,0.65314,N,1.20961,K,D*38
$GNHDT,328.2146,T*13
$GPGGA,041934.20,2234.44253626,N,11431.74767698,E,4,21,0.7,-4.0958,M,-1.3626,M,02,0000*53
$GPRMC,041934.20,A,2234.44253626,N,11431.74767698,E,0.653,276.1,071224,3.4,W,D*29
$GNVTG,269.972,T,273.411,M,0.59060,N,1.09379,K,D*34
$GNHDT,329.0248,T*1D
$GPGGA,041934.40,2234.44253624,N,11431.74764153,E,4,22,0.7,-4.1372,M,-1.3626,M,02,0000*54
$GPRMC,041934.40,A,2234.44253624,N,11431.74764153,E,0.591,270.0,071224,3.4,W,D*24
$GNVTG,281.589,T,285.028,M,0.55003,N,1.01866,K,D*39
$GNHDT,329.3950,T*1C
$GPGGA,041934.60,2234.44254240,N,11431.74760918,E,4,22,0.7,-4.1507,M,-1.3626,M,02,0000*50
$GPRMC,041934.60,A,2234.44254240,N,11431.74760918,E,0.550,281.6,071224,3.4,W,D*21
$GNVTG,283.147,T,286.586,M,0.58770,N,1.08842,K,D*3E
$GNHDT,329.7958,T*10
$GPGGA,041934.80,2234.44254985,N,11431.74757483,E,4,22,0.7,-4.1034,M,-1.3626,M,00,0000*50
$GPRMC,041934.80,A,2234.44254985,N,11431.74757483,E,0.588,283.1,071224,3.4,W,D*26
$GNVTG,284.119,T,287.557,M,0.60134,N,1.11368,K,D*39
$GNHDT,329.9746,T*1F
$GPGGA,041935.00,2234.44255803,N,11431.74753982,E,4,21,0.7,-4.0385,M,-1.3626,M,01,0000*55
$GPRMC,041935.00,A,2234.44255803,N,11431.74753982,E,0.601,284.1,071224,3.4,W,D*2C
$GNVTG,301.135,T,304.573,M,0.69224,N,1.28203,K,D*3A
$GNHDT,329.6059,T*19
$GPGGA,041935.20,2234.44257798,N,11431.74750426,E,4,21,0.7,-3.9684,M,-1.3626,M,01,0000*52
$GPRMC,041935.20,A,2234.44257798,N,11431.74750426,E,0.692,301.1,071224,3.4,W,D*27
$GNVTG,294.897,T,298.335,M,0.73370,N,1.35881,K,D*31
$GNHDT,329.6144,T*14
$GPGGA,041935.40,2234.44259520,N,11431.74746431,E,4,21,0.7,-3.9235,M,-1.3626,M,01,0000*54
$GPRMC,041935.40,A,2234.44259520,N,11431.74746431,E,0.734,294.9,071224,3.4,W,D*27
$GNVTG,301.598,T,305.037,M,0.76753,N,1.42147,K,D*39
$GNHDT,328.8257,T*1A
$GPGGA,041935.60,2234.44261762,N,11431.74742506,E,4,20,0.8,-3.9526,M,-1.3626,M,01,0000*53
$GPRMC,041935.60,A,2234.44261762,N,11431.74742506,E,0.768,301.6,071224,3.4,W,D*20
$GNVTG,289.447,T,292.885,M,0.68387,N,1.26653,K,D*37
$GNHDT,328.8001,T*1B
$GPGGA,041935.80,2234.44263031,N,11431.74738635,E,4,20,0.8,-4.0149,M,-1.3626,M,00,0000*52
$GPRMC,041935.80,A,2234.44263031,N,11431.74738635,E,0.684,289.4,071224,3.4,W,D*23
$GNVTG,291.915,T,295.353,M,0.50063,N,0.92716,K,D*3F
$GNHDT,328.3522,T*14
$GPGGA,041936.00,2234.44264073,N,11431.74735847,E,4,20,0.8,-4.0999,M,-1.3626,M,01,0000*5A
$GPRMC,041936.00,A,2234.44264073,N,11431.74735847,E,0.501,291.9,071224,3.4,W,D*25
$GNVTG,275.569,T,279.008,M,0.51595,N,0.95553,K,D*34
$GNHDT,328.3203,T*10
$GPGGA,041936.20,2234.44264352,N,11431.74732765,E,4,20,0.8,-4.1430,M,-1.3626,M,01,0000*5F
$GPRMC,041936.20,A,2234.44264352,N,11431.74732765,E,0.516,275.6,071224,3.4,W,D*2C
$GNVTG,278.539,T,281.977,M,0.60211,N,1.11510,K,D*39
$GNHDT,328.6561,T*16
$GPGGA,041936.40,2234.44264850,N,11431.74729191,E,4,20,0.8,-4.1102,M,-1.3626,M,01,0000*53
$GPRMC,041936.40,A,2234.44264850,N,11431.74729191,E,0.602,278.5,071224,3.4,W,D*2C
$GNVTG,277.065,T,280.503,M,0.65069,N,1.20509,K,D*36
$GNHDT,329.3525,T*12
$GPGGA,041936.60,2234.44265296,N,11431.74725314,E,4,20,0.8,-4.0941,M,-1.3626,M,01,0000*5D
$GPRMC,041936.60,A,2234.44265296,N,11431.74725314,E,0.651,277.1,071224,3.4,W,D*21
$GNVTG,291.176,T,294.615,M,0.59970,N,1.11065,K,D*3F
$GNHDT,329.6390,T*1F
$GPGGA,041936.80,2234.44266504,N,11431.74721958,E,4,21,0.8,-4.0656,M,-1.3626,M,01,0000*52
$GPRMC,041936.80,A,2234.44266504,N,11431.74721958,E,0.600,291.2,071224,3.4,W,D*29
$GNVTG,296.299,T,299.738,M,0.60751,N,1.12510,K,D*3A
$GNHDT,329.4530,T*11
$GPGGA,041937.00,2234.44268005,N,11431.74718688,E,4,21,0.8,-4.0663,M,-1.3626,M,02,0000*5C
$GPRMC,041937.00,A,2234.44268005,N,11431.74718688,E,0.608,296.3,071224,3.4,W,D*2C
$GNVTG,314.981,T,318.420,M,0.61882,N,1.14605,K,D*30
$GNHDT,329.3372,T*16
$GPGGA,041937.20,2234.44270443,N,11431.74716061,E,4,21,0.8,-4.0394,M,-1.3626,M,02,0000*53
$GPRMC,041937.20,A,2234.44270443,N,11431.74716061,E,0.619,315.0,071224,3.4,W,D*27
$GNVTG,309.439,T,312.878,M,0.34929,N,0.64688,K,D*3A
$GNHDT,329.4173,T*12
$GPGGA,041937.40,2234.44271680,N,11431.74714442,E,4,21,0.8,-4.1037,M,-1.3626,M,02,0000*55
$GPRMC,041937.40,A,2234.44271680,N,11431.74714442,E,0.349,309.4,071224,3.4,W,D*23
$GNVTG,301.657,T,305.096,M,0.34285,N,0.63496,K,D*31
$GNHDT,329.2540,T*10
$GPGGA,041937.60,2234.44272683,N,11431.74712690,E,4,21,0.8,-4.1630,M,-1.3626,M,02,0000*5D
$GPRMC,041937.60,A,2234.44272683,N,11431.74712690,E,0.343,301.7,071224,3.4,W,D*2B
$GNVTG,308.020,T,311.459,M,0.27672,N,0.51249,K,D*37
$GNHDT,328.9144,T*1A
$GPGGA,041937.80,2234.44273633,N,11431.74711381,E,4,21,0.8,-4.2077,M,-1.3626,M,00,0000*5B
$GPRMC,041937.80,A,2234.44273633,N,11431.74711381,E,0.277,308.0,071224,3.4,W,D*21
$GNVTG,305.061,T,308.500,M,0.30583,N,0.56640,K,D*3B
$GNHDT,329.1494,T*1B
$GPGGA,041938.00,2234.44274613,N,11431.74709878,E,4,21,0.8,-4.2601,M,-1.3626,M,01,0000*5B
$GPRMC,041938.00,A,2234.44274613,N,11431.74709878,E,0.306,305.1,071224,3.4,W,D*2C
$GNVTG,300.032,T,303.470,M,0.32016,N,0.59294,K,D*3C
$GNHDT,329.0555,T*16
$GPGGA,041938.20,2234.44275506,N,11431.74708215,E,4,21,0.8,-4.2348,M,-1.3626,M,01,0000*57
$GPRMC,041938.20,A,2234.44275506,N,11431.74708215,E,0.320,300.0,071224,3.4,W,D*28
$GNVTG,287.604,T,291.043,M,0.41234,N,0.76365,K,D*3B
$GNHDT,329.0638,T*1E
$GPGGA,041938.40,2234.44276201,N,11431.74705855,E,4,21,0.8,-4.2126,M,-1.3626,M,01,0000*5B
$GPRMC,041938.40,A,2234.44276201,N,11431.74705855,E,0.412,287.6,071224,3.4,W,D*20
$GNVTG,314.527,T,317.966,M,0.48111,N,0.89101,K,D*3E
$GNHDT,329.0327,T*15
$GPGGA,041938.60,2234.44278082,N,11431.74703796,E,4,20,0.8,-4.1423,M,-1.3626,M,01,0000*5A
$GPRMC,041938.60,A,2234.44278082,N,11431.74703796,E,0.481,314.5,071224,3.4,W,D*21
$GNVTG,312.863,T,316.302,M,0.45483,N,0.84234,K,D*37
$GNHDT,329.2902,T*1A
$GPGGA,041938.80,2234.44279807,N,11431.74701795,E,4,20,0.8,-4.1293,M,-1.3626,M,00,0000*5D
$GPRMC,041938.80,A,2234.44279807,N,11431.74701795,E,0.455,312.9,071224,3.4,W,D*29
$GNVTG,306.463,T,309.902,M,0.41278,N,0.76446,K,D*32
$GNHDT,329.4065,T*14
$GPGGA,041939.00,2234.44281174,N,11431.74699802,E,4,21,0.7,-4.1050,M,-1.3626,M,01,0000*5D
$GPRMC,041939.00,A,2234.44281174,N,11431.74699802,E,0.413,306.5,071224,3.4,W,D*20
$GNVTG,317.063,T,320.502,M,0.41222,N,0.76343,K,D*3C
$GNHDT,328.7065,T*16
$GPGGA,041939.20,2234.44282857,N,11431.74698117,E,4,21,0.7,-4.0834,M,-1.3627,M,01,0000*52
$GPRMC,041939.20,A,2234.44282857,N,11431.74698117,E,0.412,317.1,071224,3.4,W,D*20
$GNVTG,292.222,T,295.661,M,0.34654,N,0.64179,K,D*31
$GNHDT,328.5228,T*1F
$GPGGA,041939.40,2234.44283587,N,11431.74696191,E,4,21,0.7,-4.1264,M,-1.3627,M,01,0000*5B
$GPRMC,041939.40,A,2234.44283587,N,11431.74696191,E,0.347,292.2,071224,3.4,W,D*2F
$GNVTG,282.318,T,285.757,M,0.27447,N,0.50832,K,D*3E
$GNHDT,328.4835,T*18
$GPGGA,041939.60,2234.44283914,N,11431.74694582,E,4,21,0.7,-4.1425,M,-1.3627,M,01,0000*58
$GPRMC,041939.60,A,2234.44283914,N,11431.74694582,E,0.274,282.3,071224,3.4,W,D*2E
$GNVTG,280.940,T,284.378,M,0.33494,N,0.62031,K,D*32
$GNHDT,328.9352,T*1F
$GPGGA,041939.80,2234.44284268,N,11431.74692607,E,4,21,0.7,-4.1918,M,-1.3627,M,00,0000*5B
$GPRMC,041939.80,A,2234.44284268,N,11431.74692607,E,0.335,280.9,071224,3.4,W,D*23
$GNVTG,282.405,T,285.843,M,0.35676,N,0.66072,K,D*35
$GNHDT,328.8277,T*18
$GPGGA,041940.00,2234.44284695,N,11431.74690516,E,4,21,0.7,-4.1911,M,-1.3627,M,01,0000*52
$GPRMC,041940.00,A,2234.44284695,N,11431.74690516,E,0.357,282.4,071224,3.4,W,D*29
$GNVTG,278.282,T,281.721,M,0.45219,N,0.83746,K,D*37
$GNHDT,329.0144,T*12
$GPGGA,041940.20,2234.44285058,N,11431.74687830,E,4,21,0.7,-4.1649,M,-1.3627,M,01,0000*5B
$GPRMC,041940.20,A,2234.44285058,N,11431.74687830,E,0.452,278.3,071224,3.4,W,D*22
$GNVTG,294.057,T,297.496,M,0.64982,N,1.20347,K,D*30
$GNHDT,329.7361,T*10
$GPGGA,041940.40,2234.44286535,N,11431.74684268,E,4,21,0.7,-4.1355,M,-1.3627,M,01,0000*5C
$GPRMC,041940.40,A,2234.44286535,N,11431.74684268,E,0.650,294.1,071224,3.4,W,D*2D
$GNVTG,286.343,T,289.782,M,0.44814,N,0.82995,K,D*3C
$GNHDT,329.2532,T*15
$GPGGA,041940.60,2234.44287238,N,11431.74681687,E,4,22,0.7,-4.0980,M,-1.3627,M,01,0000*55
$GPRMC,041940.60,A,2234.44287238,N,11431.74681687,E,0.448,286.3,071224,3.4,W,D*2E
$GNVTG,302.360,T,305.799,M,0.54425,N,1.00795,K,D*35
$GNHDT,328.8577,T*1F
$GPGGA,041940.80,2234.44288862,N,11431.74678927,E,4,22,0.7,-4.0514,M,-1.3627,M,00,0000*52
$GPRMC,041940.80,A,2234.44288862,N,11431.74678927,E,0.544,302.4,071224,3.4,W,D*2E
$GNVTG,298.178,T,301.617,M,0.55808,N,1.03357,K,D*34
$GNHDT,328.6959,T*11
$GPGGA,041941.00,2234.44290331,N,11431.74675974,E,4,22,0.7,-4.0223,M,-1.3627,M,01,0000*56
$GPRMC,041941.00,A,2234.44290331,N,11431.74675974,E,0.558,298.2,071224,3.4,W,D*21
$GNVTG,307.873,T,311.312,M,0.59094,N,1.09443,K,D*39
$GNHDT,328.3550,T*11
$GPGGA,041941.20,2234.44292354,N,11431.74673174,E,4,22,0.7,-4.0176,M,-1.3627,M,01,0000*58
$GPRMC,041941.20,A,2234.44292354,N,11431.74673174,E,0.591,307.9,071224,3.4,W,D*25
$GNVTG,292.210,T,295.649,M,0.58557,N,1.08447,K,D*33
$GNHDT,328.4904,T*1B
$GPGGA,041941.40,2234.44293588,N,11431.74669919,E,4,22,0.7,-4.0274,M,-1.3627,M,01,0000*51
$GPRMC,041941.40,A,2234.44293588,N,11431.74669919,E,0.586,292.2,071224,3.4,W,D*2D
$GNVTG,282.740,T,286.179,M,0.55508,N,1.02801,K,D*37
$GNHDT,328.5055,T*17
$GPGGA,041941.60,2234.44294270,N,11431.74666669,E,4,22,0.7,-4.0189,M,-1.3627,M,01,0000*52
$GPRMC,041941.60,A,2234.44294270,N,11431.74666669,E,0.555,282.7,071224,3.4,W,D*25
$GNVTG,283.883,T,287.322,M,0.71308,N,1.32062,K,D*35
$GNHDT,328.1791,T*1C
$GPGGA,041941.80,2234.44295224,N,11431.74662514,E,4,22,0.7,-3.9862,M,-1.3627,M,00,0000*52
$GPRMC,041941.80,A,2234.44295224,N,11431.74662514,E,0.713,283.9,071224,3.4,W,D*29
$GNVTG,276.830,T,280.268,M,0.92336,N,1.71006,K,D*3A
$GNHDT,328.3348,T*1E
$GPGGA,041942.00,2234.44295836,N,11431.74657011,E,4,22,0.7,-3.9462,M,-1.3627,M,01,0000*5B
$GPRMC,041942.00,A,2234.44295836,N,11431.74657011,E,0.923,276.8,071224,3.4,W,D*2B
$GNVTG,287.636,T,291.075,M,1.03283,N,1.91279,K,D*30
$GNHDT,328.4158,T*1A
$GPGGA,041942.20,2234.44297580,N,11431.74651102,E,4,23,0.7,-3.8843,M,-1.3627,M,01,0000*51
$GPRMC,041942.20,A,2234.44297580,N,11431.74651102,E,1.033,287.6,071224,3.4,W,D*27
$GNVTG,285.073,T,288.512,M,1.00585,N,1.86284,K,D*3F
$GNHDT,328.1372,T*15
$GPGGA,041942.40,2234.44299039,N,11431.74645272,E,4,23,0.7,-3.9005,M,-1.3627,M,01,0000*54
$GPRMC,041942.40,A,2234.44299039,N,11431.74645272,E,1.006,285.1,071224,3.4,W,D*2A
$GNVTG,295.409,T,298.847,M,0.90110,N,1.66884,K,D*3F
$GNHDT,327.5388,T*1B
$GPGGA,041942.60,2234.44301194,N,11431.74640386,E,4,23,0.7,-3.9317,M,-1.3627,M,01,0000*5F
$GPRMC,041942.60,A,2234.44301194,N,11431.74640386,E,0.901,295.4,071224,3.4,W,D*2A
$GNVTG,290.248,T,293.687,M,0.87796,N,1.62599,K,D*3B
$GNHDT,327.1337,T*1B
