60,2234.49541320,N,11431.75141667,E,4,20,0.8,-4.4052,M,-1.3637,M,01,0000*58
$GPRMC,030026.60,A,2234.49541320,N,11431.75141667,E,0.555,302.5,071224,3.4,W,D*2B
$GNVTG,313.013,T,316.453,M,0.53888,N,0.99800,K,D*3B
$GNHDT,316.6058,T*14
$GPGGA,030026.80,2234.49543370,N,11431.75139302,E,4,20,0.8,-4.3590,M,-1.3637,M,00,0000*55
$GPRMC,030026.80,A,2234.49543370,N,11431.75139302,E,0.539,313.0,071224,3.4,W,D*24
$GNVTG,312.917,T,316.356,M,0.59683,N,1.10533,K,D*37
$GNHDT,316.5698,T*1D
$GPGGA,030027.00,2234.49545635,N,11431.75136678,E,4,19,0.8,-4.3686,M,-1.3637,M,01,0000*56
$GPRMC,030027.00,A,2234.49545635,N,11431.75136678,E,0.597,312.9,071224,3.4,W,D*24
$GNVTG,305.325,T,308.764,M,0.66376,N,1.22928,K,D*34
$GNHDT,317.0992,T*1C
$GPGGA,030027.20,2234.49547775,N,11431.75133427,E,4,18,0.8,-4.3589,M,-1.3637,M,01,0000*53
$GPRMC,030027.20,A,2234.49547775,N,11431.75133427,E,0.664,305.3,071224,3.4,W,D*2F
$GNVTG,302.882,T,306.321,M,0.56914,N,1.05404,K,D*35
$GNHDT,316.6411,T*1D
$GPGGA,030027.40,2234.49549497,N,11431.75130558,E,4,18,0.8,-4.3631,M,-1.3637,M,01,0000*5E
$GPRMC,030027.40,A,2234.49549497,N,11431.75130558,E,0.569,302.9,071224,3.4,W,D*21
$GNVTG,307.951,T,311.390,M,0.71775,N,1.32927,K,D*37
$GNHDT,316.2986,T*1A
$GPGGA,030027.60,2234.49551958,N,11431.75127161,E,4,19,0.8,-4.3717,M,-1.3637,M,01,0000*57
$GPRMC,030027.60,A,2234.49551958,N,11431.75127161,E,0.718,308.0,071224,3.4,W,D*2B
$GNVTG,290.955,T,294.394,M,0.58960,N,1.09194,K,D*3D
$GNHDT,316.6458,T*10
$GPGGA,030027.80,2234.49553133,N,11431.75123855,E,4,20,0.8,-4.4130,M,-1.3637,M,01,0000*5A
$GPRMC,030027.80,A,2234.49553133,N,11431.75123855,E,0.590,291.0,071224,3.4,W,D*2B
$GNVTG,296.536,T,299.975,M,0.49123,N,0.90977,K,D*31
$GNHDT,316.1354,T*1C
$GPGGA,030028.00,2234.49554357,N,11431.75121217,E,4,20,0.8,-4.4351,M,-1.3637,M,02,0000*52
$GPRMC,030028.00,A,2234.49554357,N,11431.75121217,E,0.491,296.5,071224,3.4,W,D*27
$GNVTG,282.522,T,285.961,M,0.47737,N,0.88409,K,D*39
$GNHDT,317.0076,T*1F
$GPGGA,030028.20,2234.49554934,N,11431.75118420,E,4,20,0.8,-4.4785,M,-1.3637,M,02,0000*5A
$GPRMC,030028.20,A,2234.49554934,N,11431.75118420,E,0.477,282.5,071224,3.4,W,D*2F
$GNVTG,288.851,T,292.290,M,0.44208,N,0.81874,K,D*3C
$GNHDT,316.8802,T*1D
$GPGGA,030028.40,2234.49555730,N,11431.75115908,E,4,20,0.8,-4.4868,M,-1.3638,M,02,0000*5E
$GPRMC,030028.40,A,2234.49555730,N,11431.75115908,E,0.442,288.9,071224,3.4,W,D*28
$GNVTG,297.139,T,300.578,M,0.40109,N,0.74282,K,D*31
$GNHDT,317.7093,T*13
$GPGGA,030028.60,2234.49556750,N,11431.75113766,E,4,20,0.8,-4.5414,M,-1.3638,M,01,0000*5C
$GPRMC,030028.60,A,2234.49556750,N,11431.75113766,E,0.401,297.1,071224,3.4,W,D*2E
$GNVTG,330.498,T,333.937,M,0.22047,N,0.40831,K,D*3E
$GNHDT,318.0582,T*1E
$GPGGA,030028.80,2234.49557820,N,11431.75113114,E,4,20,0.8,-4.5660,M,-1.3638,M,00,0000*58
$GPRMC,030028.80,A,2234.49557820,N,11431.75113114,E,0.220,330.5,071224,3.4,W,D*27
$GNVTG,342.973,T,346.412,M,0.23002,N,0.42600,K,D*35
$GNHDT,318.6141,T*13
$GPGGA,030029.00,2234.49559046,N,11431.75112710,E,4,20,0.8,-4.5499,M,-1.3638,M,01,0000*51
$GPRMC,030029.00,A,2234.49559046,N,11431.75112710,E,0.230,343.0,071224,3.4,W,D*2B
$GNVTG,344.026,T,347.465,M,0.28591,N,0.52951,K,D*35
$GNHDT,319.2275,T*12
$GPGGA,030029.20,2234.49560578,N,11431.75112237,E,4,20,0.8,-4.5477,M,-1.3638,M,01,0000*51
$GPRMC,030029.20,A,2234.49560578,N,11431.75112237,E,0.286,344.0,071224,3.4,W,D*21
$GNVTG,340.567,T,344.006,M,0.29408,N,0.54464,K,D*3E
$GNHDT,318.9311,T*1B
$GPGGA,030029.40,2234.49562124,N,11431.75111650,E,4,20,0.8,-4.4947,M,-1.3638,M,01,0000*51
$GPRMC,030029.40,A,2234.49562124,N,11431.75111650,E,0.294,340.6,071224,3.4,W,D*2F
$GNVTG,303.387,T,306.826,M,0.58285,N,1.07944,K,D*30
$GNHDT,319.3427,T*12
$GPGGA,030029.60,2234.49563912,N,11431.75108729,E,4,20,0.8,-4.4734,M,-1.3638,M,01,0000*52
$GPRMC,030029.60,A,2234.49563912,N,11431.75108729,E,0.583,303.4,071224,3.4,W,D*22
$GNVTG,293.742,T,297.181,M,0.60257,N,1.11596,K,D*38
$GNHDT,319.0568,T*1B
$GPGGA,030029.80,2234.49565265,N,11431.75105418,E,4,20,0.8,-4.4141,M,-1.3638,M,01,0000*59
$GPRMC,030029.80,A,2234.49565265,N,11431.75105418,E,0.603,293.7,071224,3.4,W,D*2D
$GNVTG,283.299,T,286.739,M,0.70393,N,1.30367,K,D*3C
$GNHDT,318.9859,T*1C
$GPGGA,030030.00,2234.49566167,N,11431.75101306,E,4,21,0.8,-4.3893,M,-1.3638,M,02,0000*54
$GPRMC,030030.00,A,2234.49566167,N,11431.75101306,E,0.704,283.3,071224,3.4,W,D*20
$GNVTG,275.927,T,279.366,M,0.52687,N,0.97577,K,D*3E
$GNHDT,318.9031,T*1A
$GPGGA,030030.20,2234.49566471,N,11431.75098160,E,4,21,0.8,-4.3774,M,-1.3638,M,02,0000*51
$GPRMC,030030.20,A,2234.49566471,N,11431.75098160,E,0.527,275.9,071224,3.4,W,D*23
$GNVTG,278.141,T,281.580,M,0.54314,N,1.00590,K,D*3D
$GNHDT,318.8416,T*1A
$GPGGA,030030.40,2234.49566899,N,11431.75094932,E,4,21,0.8,-4.4597,M,-1.3638,M,02,0000*56
$GPRMC,030030.40,A,2234.49566899,N,11431.75094932,E,0.543,278.1,071224,3.4,W,D*2B
$GNVTG,252.159,T,255.598,M,0.36375,N,0.67367,K,D*31
$GNHDT,319.7159,T*1A
$GPGGA,030030.60,2234.49566278,N,11431.75092854,E,4,21,0.8,-4.5328,M,-1.3638,M,00,0000*57
$GPRMC,030030.60,A,2234.49566278,N,11431.75092854,E,0.364,252.2,071224,3.4,W,D*23
$GNVTG,284.498,T,287.937,M,0.31714,N,0.58734,K,D*3E
$GNHDT,319.3962,T*1E
$GPGGA,030030.80,2234.49566721,N,11431.75091011,E,4,21,0.8,-4.5659,M,-1.3638,M,00,0000*59
$GPRMC,030030.80,A,2234.49566721,N,11431.75091011,E,0.317,284.5,071224,3.4,W,D*26
$GNVTG,258.471,T,261.911,M,0.37400,N,0.69265,K,D*37
$GNHDT,320.1395,T*14
$GPGGA,030031.00,2234.49566304,N,11431.75088811,E,4,21,0.8,-4.6271,M,-1.3638,M,01,0000*5F
$GPRMC,030031.00,A,2234.49566304,N,11431.75088811,E,0.374,258.5,071224,3.4,W,D*28
$GNVTG,293.210,T,296.650,M,0.37816,N,0.70036,K,D*34
$GNHDT,320.2390,T*12
$GPGGA,030031.20,2234.49567135,N,11431.75086725,E,4,21,0.8,-4.5554,M,-1.3638,M,01,0000*59
$GPRMC,030031.20,A,2234.49567135,N,11431.75086725,E,0.378,293.2,071224,3.4,W,D*21
$GNVTG,293.756,T,297.195,M,0.42958,N,0.79557,K,D*3E
$GNHDT,321.1552,T*18
$GPGGA,030031.40,2234.49568100,N,11431.75084364,E,4,21,0.8,-4.5558,M,-1.3638,M,01,0000*59
$GPRMC,030031.40,A,2234.49568100,N,11431.75084364,E,0.430,293.8,071224,3.4,W,D*2C
$GNVTG,308.500,T,311.939,M,0.52716,N,0.97631,K,D*3B
$GNHDT,321.0707,T*1B
$GPGGA,030031.60,2234.49569929,N,11431.75081888,E,4,21,0.8,-4.4761,M,-1.3638,M,01,0000*5C
$GPRMC,030031.60,A,2234.49569929,N,11431.75081888,E,0.527,308.5,071224,3.4,W,D*29
$GNVTG,304.657,T,308.097,M,0.39589,N,0.73319,K,D*3F
$GNHDT,320.6611,T*1A
$GPGGA,030031.80,2234.49571184,N,11431.75079933,E,4,21,0.8,-4.4517,M,-1.3638,M,00,0000*50
$GPRMC,030031.80,A,2234.49571184,N,11431.75079933,E,0.396,304.7,071224,3.4,W,D*25
$GNVTG,289.919,T,293.358,M,0.47316,N,0.87629,K,D*39
$GNHDT,321.3114,T*1C
$GPGGA,030032.00,2234.49572083,N,11431.75077263,E,4,20,0.8,-4.4049,M,-1.3638,M,01,0000*50
$GPRMC,030032.00,A,2234.49572083,N,11431.75077263,E,0.473,289.9,071224,3.4,W,D*2D
$GNVTG,291.730,T,295.170,M,0.50829,N,0.94136,K,D*31
$GNHDT,320.6933,T*15
$GPGGA,030032.20,2234.49573132,N,11431.75074428,E,4,20,0.8,-4.3863,M,-1.3638,M,01,0000*55
$GPRMC,030032.20,A,2234.49573132,N,11431.75074428,E,0.508,291.7,071224,3.4,W,D*25
$GNVTG,275.272,T,278.711,M,0.36627,N,0.67833,K,D*3A
$GNHDT,320.5891,T*1F
$GPGGA,030032.40,2234.49573319,N,11431.75072239,E,4,20,0.8,-4.4466,M,-1.3638,M,01,0000*56
$GPRMC,030032.40,A,2234.49573319,N,11431.75072239,E,0.366,275.3,071224,3.4,W,D*28
$GNVTG,281.184,T,284.623,M,0.43464,N,0.80496,K,D*35
$GNHDT,320.3687,T*10
$GPGGA,030032.60,2234.49573789,N,11431.75069679,E,4,21,0.8,-4.4550,M,-1.3638,M,01,0000*56
$GPRMC,030032.60,A,2234.49573789,N,11431.75069679,E,0.435,281.2,071224,3.4,W,D*26
$GNVTG,278.284,T,281.723,M,0.45114,N,0.83550,K,D*38
$GNHDT,320.3617,T*19
$GPGGA,030032.80,2234.49574152,N,11431.75067000,E,4,21,0.8,-4.4926,M,-1.3638,M,00,0000*55
$GPRMC,030032.80,A,2234.49574152,N,11431.75067000,E,0.451,278.3,071224,3.4,W,D*2C
$GNVTG,270.972,T,274.411,M,0.43418,N,0.80411,K,D*32
$GNHDT,320.3558,T*11
$GPGGA,030033.00,2234.49574193,N,11431.75064394,E,4,21,0.8,-4.5104,M,-1.3638,M,01,0000*54
$GPRMC,030033.00,A,2234.49574193,N,11431.75064394,E,0.434,271.0,071224,3.4,W,D*2C
$GNVTG,269.810,T,273.250,M,0.41591,N,0.77026,K,D*31
$GNHDT,320.4933,T*17
$GPGGA,030033.20,2234.49574185,N,11431.75061897,E,4,21,0.8,-4.5361,M,-1.3638,M,01,0000*5D
$GPRMC,030033.20,A,2234.49574185,N,11431.75061897,E,0.416,269.8,071224,3.4,W,D*25
$GNVTG,286.496,T,289.935,M,0.60208,N,1.11506,K,D*3D
$GNHDT,320.1894,T*1E
$GPGGA,030033.40,2234.49575138,N,11431.75058432,E,4,21,0.8,-4.5096,M,-1.3638,M,01,0000*5E
$GPRMC,030033.40,A,2234.49575138,N,11431.75058432,E,0.602,286.5,071224,3.4,W,D*26
$GNVTG,283.942,T,287.382,M,0.67656,N,1.25298,K,D*3B
$GNHDT,320.8786,T*1B
$GPGGA,030033.60,2234.49576047,N,11431.75054490,E,4,20,0.8,-4.4505,M,-1.3638,M,00,0000*5C
$GPRMC,030033.60,A,2234.49576047,N,11431.75054490,E,0.677,283.9,071224,3.4,W,D*21
$GNVTG,290.439,T,293.878,M,0.52906,N,0.97981,K,D*34
$GNHDT,320.2896,T*1F
$GPGGA,030033.80,2234.49577077,N,11431.75051514,E,4,20,0.8,-4.3828,M,-1.3638,M,00,0000*5D
$GPRMC,030033.80,A,2234.49577077,N,11431.75051514,E,0.529,290.4,071224,3.4,W,D*22
$GNVTG,286.014,T,289.453,M,0.62389,N,1.15544,K,D*36
$GNHDT,320.5396,T*13
$GPGGA,030034.00,2234.49578036,N,11431.75047914,E,4,20,0.8,-4.3658,M,-1.3638,M,01,0000*5B
$GPRMC,030034.00,A,2234.49578036,N,11431.75047914,E,0.624,286.0,071224,3.4,W,D*21
$GNVTG,295.078,T,298.517,M,0.60251,N,1.11585,K,D*30
$GNHDT,319.9977,T*10
$GPGGA,030034.20,2234.49579460,N,11431.75044639,E,4,20,0.8,-4.3162,M,-1.3638,M,01,0000*52
$GPRMC,030034.20,A,2234.49579460,N,11431.75044639,E,0.603,295.1,071224,3.4,W,D*20
$GNVTG,290.201,T,293.641,M,0.69312,N,1.28365,K,D*3F
$GNHDT,319.7838,T*14
$GPGGA,030034.40,2234.49580794,N,11431.75040734,E,4,20,0.8,-4.3456,M,-1.3638,M,01,0000*50
$GPRMC,030034.40,A,2234.49580794,N,11431.75040734,E,0.693,290.2,071224,3.4,W,D*2F
$GNVTG,290.465,T,293.904,M,0.74360,N,1.37715,K,D*31
$GNHDT,319.4818,T*15
$GPGGA,030034.60,2234.49582244,N,11431.75036552,E,4,21,0.8,-4.3258,M,-1.3638,M,01,0000*52
$GPRMC,030034.60,A,2234.49582244,N,11431.75036552,E,0.744,290.5,071224,3.4,W,D*28
$GNVTG,282.706,T,286.145,M,0.83966,N,1.55504,K,D*3F
$GNHDT,318.9716,T*18
$GPGGA,030034.80,2234.49583273,N,11431.75031635,E,4,21,0.8,-4.3184,M,-1.3638,M,00,0000*5F
$GPRMC,030034.80,A,2234.49583273,N,11431.75031635,E,0.840,282.7,071224,3.4,W,D*2C
$GNVTG,282.770,T,286.209,M,1.02611,N,1.90035,K,D*3C
$GNHDT,318.6658,T*1C
$GPGGA,030035.00,2234.49584538,N,11431.75025628,E,4,22,0.7,-4.3040,M,-1.3638,M,01,0000*54
$GPRMC,030035.00,A,2234.49584538,N,11431.75025628,E,1.026,282.8,071224,3.4,W,D*25
$GNVTG,274.770,T,278.209,M,1.08474,N,2.00893,K,D*31
$GNHDT,318.6840,T*1B
$GPGGA,030035.20,2234.49585040,N,11431.75019139,E,4,22,0.7,-4.3065,M,-1.3638,M,01,0000*52
$GPRMC,030035.20,A,2234.49585040,N,11431.75019139,E,1.085,274.8,071224,3.4,W,D*24
$GNVTG,277.050,T,280.489,M,0.98926,N,1.83211,K,D*34
$GNHDT,318.4443,T*16
$GPGGA,030035.40,2234.49585717,N,11431.75013246,E,4,22,0.7,-4.3294,M,-1.3638,M,01,0000*5C
$GPRMC,030035.40,A,2234.49585717,N,11431.75013246,E,0.989,277.1,071224,3.4,W,D*28
$GNVTG,267.980,T,271.419,M,0.82110,N,1.52067,K,D*3F
$GNHDT,318.5376,T*16
$GPGGA,030035.60,2234.49585556,N,11431.75008320,E,4,22,0.7,-4.4104,M,-1.3638,M,01,0000*5F
$GPRMC,030035.60,A,2234.49585556,N,11431.75008320,E,0.821,268.0,071224,3.4,W,D*2A
$GNVTG,262.266,T,265.705,M,0.50049,N,0.92691,K,D*32
$GNHDT,318.4000,T*15
$GPGGA,030035.80,2234.49585180,N,11431.75005343,E,4,22,0.7,-4.4765,M,-1.3638,M,01,0000*57
$GPRMC,030035.80,A,2234.49585180,N,11431.75005343,E,0.500,262.3,071224,3.4,W,D*24
$GNVTG,280.536,T,283.976,M,0.43776,N,0.81073,K,D*3F
$GNHDT,318.4679,T*1D
$GPGGA,030036.00,2234.49585627,N,11431.75002759,E,4,22,0.7,-4.5527,M,-1.3638,M,02,0000*58
$GPRMC,030036.00,A,2234.49585627,N,11431.75002759,E,0.438,280.5,071224,3.4,W,D*2D
$GNVTG,276.436,T,279.875,M,0.38300,N,0.70931,K,D*38
$GNHDT,318.6726,T*14
$GPGGA,030036.20,2234.49585866,N,11431.75000475,E,4,21,0.8,-4.5953,M,-1.3638,M,02,0000*5D
$GPRMC,030036.20,A,2234.49585866,N,11431.75000475,E,0.383,276.4,071224,3.4,W,D*24
$GNVTG,279.396,T,282.835,M,0.48445,N,0.89719,K,D*39
$GNHDT,319.0492,T*1F
$GPGGA,030036.40,2234.49586307,N,11431.74997606,E,4,21,0.8,-4.5558,M,-1.3638,M,01,0000*50
$GPRMC,030036.40,A,2234.49586307,N,11431.74997606,E,0.484,279.4,071224,3.4,W,D*22
$GNVTG,293.258,T,296.697,M,0.66654,N,1.23443,K,D*3E
$GNHDT,318.6592,T*19
$GPGGA,030036.60,2234.49587774,N,11431.74993930,E,4,21,0.8,-4.4679,M,-1.3638,M,01,0000*5C
$GPRMC,030036.60,A,2234.49587774,N,11431.74993930,E,0.667,293.3,071224,3.4,W,D*23
$GNVTG,293.121,T,296.560,M,0.73748,N,1.36581,K,D*3B
$GNHDT,317.9298,T*14
$GPGGA,030036.80,2234.49589389,N,11431.74989858,E,4,21,0.8,-4.4003,M,-1.3638,M,01,0000*55
$GPRMC,030036.80,A,2234.49589389,N,11431.74989858,E,0.737,293.1,071224,3.4,W,D*27
$GNVTG,290.474,T,293.913,M,0.85254,N,1.57890,K,D*3B
$GNHDT,317.5794,T*11
$GPGGA,030037.00,2234.49591051,N,11431.74985064,E,4,21,0.8,-4.3079,M,-1.3638,M,02,0000*51
$GPRMC,030037.00,A,2234.49591051,N,11431.74985064,E,0.853,290.5,071224,3.4,W,D*20
$GNVTG,288.266,T,291.706,M,0.82499,N,1.52789,K,D*3D
$GNHDT,316.8061,T*10
$GPGGA,030037.20,2234.49592492,N,11431.74980361,E,4,21,0.8,-4.3301,M,-1.3638,M,02,0000*54
$GPRMC,030037.20,A,2234.49592492,N,11431.74980361,E,0.825,288.3,071224,3.4,W,D*27
$GNVTG,300.884,T,304.323,M,0.64637,N,1.19707,K,D*33
$GNHDT,315.6592,T*14
$GPGGA,030037.40,2234.49594342,N,11431.74977031,E,4,20,0.8,-4.3822,M,-1.3639,M,02,0000*5A
$GPRMC,030037.40,A,2234.49594342,N,11431.74977031,E,0.646,300.9,071224,3.4,W,D*23
$GNVTG,291.553,T,294.992,M,0.45270,N,0.83839,K,D*31
$GNHDT,314.8085,T*18
$GPGGA,030037.60,2234.49595269,N,11431.74974504,E,4,20,0.8,-4.4611,M,-1.3639,M,01,0000*5B
$GPRMC,030037.60,A,2234.49595269,N,11431.74974504,E,0.453,291.6,071224,3.4,W,D*28
$GNVTG,277.192,T,280.632,M,0.37581,N,0.69601,K,D*3D
$GNHDT,314.7599,T*1F
$GPGGA,030037.80,2234.49595531,N,11431.74972266,E,4,21,0.7,-4.5812,M,-1.3639,M,00,0000*59
$GPRMC,030037.80,A,2234.49595531,N,11431.74972266,E,0.376,277.2,071224,3.4,W,D*25
$GNVTG,271.278,T,274.717,M,0.27718,N,0.51333,K,D*3D
$GNHDT,315.2625,T*1F
$GPGGA,030038.00,2234.49595566,N,11431.74970602,E,4,21,0.7,-4.6739,M,-1.3639,M,01,0000*5C
$GPRMC,030038.00,A,2234.49595566,N,11431.74970602,E,0.277,271.3,071224,3.4,W,D*23
$GNVTG,234.054,T,237.494,M,0.10810,N,0.20021,K,D*3A
$GNHDT,315.7333,T*18
$GPGGA,030038.20,2234.49595212,N,11431.74970077,E,4,21,0.7,-4.7193,M,-1.3639,M,01,0000*59
$GPRMC,030038.20,A,2234.49595212,N,11431.74970077,E,0.108,234.1,071224,3.4,W,D*29
$GNVTG,18.269,T,21.708,M,0.08577,N,0.15885,K,D*3C
$GNHDT,315.9327,T*13
$GPGGA,030038.40,2234.49595666,N,11431.74970238,E,4,21,0.7,-4.6800,M,-1.3639,M,01,0000*53
$GPRMC,030038.40,A,2234.49595666,N,11431.74970238,E,0.086,18.3,071224,3.4,W,D*18
$GNVTG,308.081,T,311.520,M,0.27444,N,0.50826,K,D*36
$GNHDT,316.0500,T*1A
$GPGGA,030038.60,2234.49596610,N,11431.74968942,E,4,21,0.7,-4.6816,M,-1.3639,M,01,0000*5B
$GPRMC,030038.60,A,2234.49596610,N,11431.74968942,E,0.274,308.1,071224,3.4,W,D*28
$GNVTG,338.157,T,341.597,M,0.33974,N,0.62919,K,D*31
$GNHDT,315.3224,T*1B
$GPGGA,030038.80,2234.49598368,N,11431.74968183,E,4,21,0.7,-4.5923,M,-1.3639,M,01,0000*50
$GPRMC,030038.80,A,2234.49598368,N,11431.74968183,E,0.340,338.2,071224,3.4,W,D*21
$GNVTG,321.576,T,325.015,M,0.40911,N,0.75767,K,D*35
$GNHDT,315.1980,T*1C
$GPGGA,030039.00,2234.49600155,N,11431.74966657,E,4,21,0.7,-4.5378,M,-1.3639,M,02,0000*50
$GPRMC,030039.00,A,2234.49600155,N,11431.74966657,E,0.409,321.6,071224,3.4,W,D*20
$GNVTG,318.027,T,321.467,M,0.41595,N,0.77034,K,D*39
$GNHDT,314.6353,T*1E
$GPGGA,030039.20,2234.49601878,N,11431.74964987,E,4,21,0.7,-4.4944,M,-1.3639,M,02,0000*51
$GPRMC,030039.20,A,2234.49601878,N,11431.74964987,E,0.416,318.0,071224,3.4,W,D*27
$GNVTG,304.716,T,308.155,M,0.39207,N,0.72612,K,D*3A
$GNHDT,313.9963,T*1F
$GPGGA,030039.40,2234.49603123,N,11431.74963052,E,4,21,0.7,-4.5393,M,-1.3639,M,02,0000*55
$GPRMC,030039.40,A,2234.49603123,N,11431.74963052,E,0.392,304.7,071224,3.4,W,D*23
$GNVTG,304.353,T,307.792,M,0.35450,N,0.65654,K,D*31
$GNHDT,313.7370,T*19
$GPGGA,030039.60,2234.49604238,N,11431.74961295,E,4,21,0.7,-4.5504,M,-1.3639,M,00,0000*58
$GPRMC,030039.60,A,2234.49604238,N,11431.74961295,E,0.355,304.4,071224,3.4,W,D*2C
$GNVTG,263.674,T,267.114,M,0.12561,N,0.23263,K,D*3A
$GNHDT,313.4760,T*1F
$GPGGA,030039.80,2234.49604161,N,11431.74960546,E,4,21,0.7,-4.5572,M,-1.3639,M,00,0000*50
$GPRMC,030039.80,A,2234.49604161,N,11431.74960546,E,0.126,263.7,071224,3.4,W,D*20
$GNVTG,270.509,T,273.949,M,0.22102,N,0.40934,K,D*3A
$GNHDT,313.5682,T*13
$GPGGA,030040.00,2234.49604172,N,11431.74959219,E,4,21,0.7,-4.5520,M,-1.3639,M,01,0000*55
$GPRMC,030040.00,A,2234.49604172,N,11431.74959219,E,0.221,270.5,071224,3.4,W,D*27
$GNVTG,284.061,T,287.500,M,0.31690,N,0.58690,K,D*36
$GNHDT,313.1471,T*19
$GPGGA,030040.20,2234.49604601,N,11431.74957374,E,4,21,0.7,-4.5914,M,-1.3639,M,01,0000*5B
$GPRMC,030040.20,A,2234.49604601,N,11431.74957374,E,0.317,284.1,071224,3.4,W,D*29
$GNVTG,290.369,T,293.808,M,0.55954,N,1.03627,K,D*3E
$GNHDT,312.9344,T*11
$GPGGA,030040.40,2234.49605687,N,11431.74954225,E,4,21,0.7,-4.4949,M,-1.3639,M,01,0000*5D
$GPRMC,030040.40,A,2234.49605687,N,11431.74954225,E,0.560,290.4,071224,3.4,W,D*20
$GNVTG,288.911,T,292.350,M,0.76480,N,1.41641,K,D*36
$GNHDT,312.9127,T*16
$GPGGA,030040.60,2234.49607069,N,11431.74949882,E,4,21,0.7,-4.4683,M,-1.3639,M,01,0000*59
$GPRMC,030040.60,A,2234.49607069,N,11431.74949882,E,0.765,288.9,071224,3.4,W,D*2E
$GNVTG,292.323,T,295.763,M,0.88036,N,1.63042,K,D*38
$GNHDT,312.2302,T*18
$GPGGA,030040.80,2234.49608933,N,11431.74944993,E,4,21,0.7,-4.4369,M,-1.3639,M,01,0000*53
$GPRMC,030040.80,A,2234.49608933,N,11431.74944993,E,0.880,292.3,071224,3.4,W,D*20
$GNVTG,283.083,T,286.522,M,0.84723,N,1.56906,K,D*34
$GNHDT,312.1399,T*19
$GPGGA,030041.00,2234.49610002,N,11431.74940040,E,4,22,0.7,-4.3873,M,-1.3639,M,02,0000*5C
$GPRMC,030041.00,A,2234.49610002,N,11431.74940040,E,0.847,283.1,071224,3.4,W,D*21
$GNVTG,286.128,T,289.567,M,0.80652,N,1.49368,K,D*30
$GNHDT,312.2148,T*14
$GPGGA,030041.20,2234.49611251,N,11431.74935389,E,4,22,0.7,-4.3765,M,-1.3639,M,02,0000*57
$GPRMC,030041.20,A,2234.49611251,N,11431.74935389,E,0.807,286.1,071224,3.4,W,D*23
$GNVTG,288.359,T,291.799,M,0.57649,N,1.06767,K,D*30
$GNHDT,311.5789,T*1B
$GPGGA,030041.40,2234.49612263,N,11431.74932104,E,4,22,0.7,-4.4202,M,-1.3639,M,01,0000*53
$GPRMC,030041.40,A,2234.49612263,N,11431.74932104,E,0.576,288.4,071224,3.4,W,D*27
$GNVTG,282.564,T,286.003,M,0.39793,N,0.73696,K,D*32
$GNHDT,311.5134,T*1B
$GPGGA,030041.60,2234.49612746,N,11431.74929773,E,4,21,0.8,-4.4406,M,-1.3639,M,01,0000*51
$GPRMC,030041.60,A,2234.49612746,N,11431.74929773,E,0.398,282.6,071224,3.4,W,D*25
$GNVTG,285.615,T,289.054,M,0.39508,N,0.73169,K,D*3A
$GNHDT,311.6151,T*1B
$GPGGA,030041.80,2234.49613339,N,11431.74927489,E,4,20,0.8,-4.4910,M,-1.3639,M,00,0000*50
$GPRMC,030041.80,A,2234.49613339,N,11431.74927489,E,0.395,285.6,071224,3.4,W,D*24
$GNVTG,287.266,T,290.705,M,0.51712,N,0.95770,K,D*32
$GNHDT,311.8231,T*10
$GPGGA,030042.00,2234.49614194,N,11431.74924524,E,4,20,0.8,-4.5328,M,-1.3639,M,01,0000*5D
$GPRMC,030042.00,A,2234.49614194,N,11431.74924524,E,0.517,287.3,071224,3.4,W,D*23
$GNVTG,290.981,T,294.420,M,0.66972,N,1.24032,K,D*30
$GNHDT,311.4622,T*1A
$GPGGA,030042.20,2234.49615531,N,11431.74920771,E,4,20,0.8,-4.5047,M,-1.3639,M,01,0000*59
$GPRMC,030042.20,A,2234.49615531,N,11431.74920771,E,0.670,291.0,071224,3.4,W,D*2B
$GNVTG,287.408,T,290.848,M,0.97025,N,1.79691,K,D*3E
$GNHDT,311.2328,T*13
$GPGGA,030042.40,2234.49617149,N,11431.74915213,E,4,21,0.7,-4.4348,M,-1.3639,M,01,0000*52
$GPRMC,030042.40,A,2234.49617149,N,11431.74915213,E,0.970,287.4,071224,3.4,W,D*2F
$GNVTG,281.520,T,284.959,M,0.93829,N,1.73771,K,D*32
$GNHDT,310.9024,T*16
$GPGGA,030042.60,2234.49618194,N,11431.74909694,E,4,21,0.7,-4.3797,M,-1.3639,M,01,0000*58
$GPRMC,030042.60,A,2234.49618194,N,11431.74909694,E,0.938,281.5,071224,3.4,W,D*2F
$GNVTG,285.091,T,288.530,M,0.84815,N,1.57076,K,D*39
$GNHDT,310.6130,T*1D
$GPGGA,030042.80,2234.49619425,N,11431.74904779,E,4,22,0.7,-4.3452,M,-1.3639,M,00,0000*5F
$GPRMC,030042.80,A,2234.49619425,N,11431.74904779,E,0.848,285.1,071224,3.4,W,D*26
$GNVTG,277.943,T,281.382,M,0.70967,N,1.31432,K,D*3F
$GNHDT,309.9069,T*17
$GPGGA,030043.00,2234.49619972,N,11431.74900560,E,4,22,0.7,-4.3353,M,-1.3639,M,01,0000*50
$GPRMC,030043.00,A,2234.49619972,N,11431.74900560,E,0.710,277.9,071224,3.4,W,D*29
$GNVTG,277.508,T,280.947,M,0.63590,N,1.17768,K,D*30
$GNHDT,309.4377,T*16
$GPGGA,030043.20,2234.49620435,N,11431.74896775,E,4,22,0.7,-4.3850,M,-1.3639,M,01,0000*56
$GPRMC,030043.20,A,2234.49620435,N,11431.74896775,E,0.636,277.5,071224,3.4,W,D*2E
$GNVTG,279.363,T,282.802,M,0.66014,N,1.22257,K,D*34
$GNHDT,308.8579,T*13
$GPGGA,030043.40,2234.49621034,N,11431.74892865,E,4,22,0.7,-4.4415,M,-1.3639,M,01,0000*54
$GPRMC,030043.40,A,2234.49621034,N,11431.74892865,E,0.660,279.4,071224,3.4,W,D*2A
$GNVTG,277.833,T,281.273,M,0.63743,N,1.18051,K,D*36
$GNHDT,308.7211,T*15
$GPGGA,030043.60,2234.49621518,N,11431.74889075,E,4,22,0.7,-4.5117,M,-1.3639,M,01,0000*58
$GPRMC,030043.60,A,2234.49621518,N,11431.74889075,E,0.637,277.8,071224,3.4,W,D*20
$GNVTG,275.088,T,278.528,M,0.56297,N,1.04263,K,D*37
$GNHDT,308.6598,T*12
$GPGGA,030043.80,2234.49621796,N,11431.74885709,E,4,21,0.7,-4.5676,M,-1.3639,M,00,0000*50
$GPRMC,030043.80,A,2234.49621796,N,11431.74885709,E,0.563,275.1,071224,3.4,W,D*23
$GNVTG,281.225,T,284.664,M,0.48719,N,0.90227,K,D*31
$GNHDT,308.5569,T*1F
$GPGGA,030044.00,2234.49622325,N,11431.74882840,E,4,20,0.8,-4.5639,M,-1.3639,M,01,0000*51
$GPRMC,030044.00,A,2234.49622325,N,11431.74882840,E,0.487,281.2,071224,3.4,W,D*25
$GNVTG,283.922,T,287.361,M,0.47197,N,0.87410,K,D*37
$GNHDT,308.9504,T*18
$GPGGA,030044.20,2234.49622958,N,11431.74880090,E,4,20,0.8,-4.5858,M,-1.3639,M,01,0000*5D
$GPRMC,030044.20,A,2234.49622958,N,11431.74880090,E,0.472,283.9,071224,3.4,W,D*23
$GNVTG,297.353,T,300.793,M,0.47821,N,0.88564,K,D*30
$GNHDT,308.8327,T*1E
$GPGGA,030044.40,2234.49624183,N,11431.74877540,E,4,20,0.8,-4.5322,M,-1.3639,M,01,0000*55
$GPRMC,030044.40,A,2234.49624183,N,11431.74877540,E,0.478,297.4,071224,3.4,W,D*2F
$GNVTG,301.566,T,305.005,M,0.49259,N,0.91227,K,D*30
$GNHDT,309.2701,T*15
$GPGGA,030044.60,2234.49625620,N,11431.74875021,E,4,22,0.7,-4.5205,M,-1.3639,M,01,0000*51
$GPRMC,030044.60,A,2234.49625620,N,11431.74875021,E,0.493,301.6,071224,3.4,W,D*2B
$GNVTG,312.270,T,315.710,M,0.31582,N,0.58490,K,D*31
$GNHDT,309.0294,T*1E
$GPGGA,030044.80,2234.49626805,N,11431.74873618,E,4,22,0.7,-4.4882,M,-1.3639,M,00,0000*5A
$GPRMC,030044.80,A,2234.49626805,N,11431.74873618,E,0.316,312.3,071224,3.4,W,D*28
$GNVTG,319.220,T,322.659,M,0.34140,N,0.63228,K,D*35
$GNHDT,308.6798,T*10
$GPGGA,030045.00,2234.49628246,N,11431.74872280,E,4,22,0.7,-4.4825,M,-1.3639,M,01,0000*58
$GPRMC,030045.00,A,2234.49628246,N,11431.74872280,E,0.341,319.2,071224,3.4,W,D*2E
$GNVTG,311.911,T,315.350,M,0.44946,N,0.83240,K,D*35
$GNHDT,308.2252,T*17
$GPGGA,030045.20,2234.49629919,N,11431.74870272,E,4,22,0.7,-4.4548,M,-1.3639,M,01,0000*53
$GPRMC,030045.20,A,2234.49629919,N,11431.74870272,E,0.449,311.9,071224,3.4,W,D*2F
$GNVTG,309.064,T,312.503,M,0.31511,N,0.58358,K,D*32
$GNHDT,307.5119,T*13
$GPGGA,030045.40,2234.49631026,N,11431.74868803,E,4,22,0.7,-4.4955,M,-1.3639,M,01,0000*5C
$GPRMC,030045.40,A,2234.49631026,N,11431.74868803,E,0.315,309.1,071224,3.4,W,D*2F
$GNVTG,289.614,T,293.053,M,0.62239,N,1.15266,K,D*3D
$GNHDT,307.2383,T*15
$GPGGA,030045.60,2234.49632191,N,11431.74865284,E,4,22,0.7,-4.5175,M,-1.3639,M,01,0000*53
$GPRMC,030045.60,A,2234.49632191,N,11431.74865284,E,0.622,289.6,071224,3.4,W,D*24
$GNVTG,289.086,T,292.525,M,0.46820,N,0.86711,K,D*3F
$GNHDT,306.9828,T*15
$GPGGA,030045.80,2234.49633045,N,11431.74862628,E,4,22,0.7,-4.5091,M,-1.3639,M,00,0000*5B
$GPRMC,030045.80,A,2234.49633045,N,11431.74862628,E,0.468,289.1,071224,3.4,W,D*2D
$GNVTG,276.916,T,280.355,M,0.49914,N,0.92441,K,D*37
$GNHDT,307.2805,T*10
$GPGGA,030046.00,2234.49633380,N,11431.74859653,E,4,22,0.7,-4.5302,M,-1.3639,M,01,0000*56
$GPRMC,030046.00,A,2234.49633380,N,11431.74859653,E,0.499,276.9,071224,3.4,W,D*2E
$GNVTG,297.788,T,301.227,M,0.29110,N,0.53912,K,D*31
$GNHDT,306.9585,T*1F
$GPGGA,030046.20,2234.49634136,N,11431.74858107,E,4,22,0.7,-4.5381,M,-1.3639,M,01,0000*50
$GPRMC,030046.20,A,2234.49634136,N,11431.74858107,E,0.291,297.8,071224,3.4,W,D*23
$GNVTG,289.595,T,293.035,M,0.14786,N,0.27384,K,D*3A
$GNHDT,307.3961,T*12
$GPGGA,030046.40,2234.49634413,N,11431.74857271,E,4,22,0.7,-4.5751,M,-1.3639,M,01,0000*50
$GPRMC,030046.40,A,2234.49634413,N,11431.74857271,E,0.148,289.6,071224,3.4,W,D*2C
$GNVTG,322.776,T,326.216,M,0.15346,N,0.28421,K,D*37
$GNHDT,307.1744,T*19
$GPGGA,030046.60,2234.49635094,N,11431.74856714,E,4,22,0.7,-4.6124,M,-1.3639,M,01,0000*58
$GPRMC,030046.60,A,2234.49635094,N,11431.74856714,E,0.153,322.8,071224,3.4,W,D*27
$GNVTG,315.095,T,318.534,M,0.23810,N,0.44096,K,D*3C
$GNHDT,307.0459,T*17
$GPGGA,030046.80,2234.49636034,N,11431.74855705,E,4,22,0.7,-4.6036,M,-1.3639,M,00,0000*5F
$GPRMC,030046.80,A,2234.49636034,N,11431.74855705,E,0.238,315.1,071224,3.4,W,D*20
$GNVTG,302.309,T,305.748,M,0.43004,N,0.79644,K,D*35
$GNHDT,306.7169,T*17
$GPGGA,030047.00,2234.49637315,N,11431.74853523,E,4,22,0.7,-4.5445,M,-1.3639,M,01,0000*55
$GPRMC,030047.00,A,2234.49637315,N,11431.74853523,E,0.430,302.3,071224,3.4,W,D*22
$GNVTG,296.042,T,299.481,M,0.59644,N,1.10461,K,D*35
$GNHDT,307.1273,T*18
$GPGGA,030047.20,2234.49638775,N,11431.74850306,E,4,21,0.8,-4.5194,M,-1.3639,M,01,0000*5D
$GPRMC,030047.20,A,2234.49638775,N,11431.74850306,E,0.596,296.0,071224,3.4,W,D*2D
$GNVTG,296.478,T,299.917,M,0.83382,N,1.54424,K,D*33
$GNHDT,306.6761,T*18
$GPGGA,030047.40,2234.49640848,N,11431.74845826,E,4,21,0.8,-4.4794,M,-1.3639,M,01,0000*5F
$GPRMC,030047.40,A,2234.49640848,N,11431.74845826,E,0.834,296.5,071224,3.4,W,D*28
$GNVTG,293.874,T,297.314,M,0.79984,N,1.48131,K,D*34
$GNHDT,306.0618,T*11
$GPGGA,030047.60,2234.49642652,N,11431.74841436,E,4,22,0.7,-4.4367,M,-1.3640,M,01,0000*59
$GPRMC,030047.60,A,2234.49642652,N,11431.74841436,E,0.800,293.9,071224,3.4,W,D*2A
$GNVTG,291.137,T,294.576,M,0.73929,N,1.36917,K,D*31
$GNHDT,305.7620,T*1E
$GPGGA,030047.80,2234.49644138,N,11431.74837296,E,4,22,0.7,-4.3896,M,-1.3640,M,00,0000*54
$GPRMC,030047.80,A,2234.49644138,N,11431.74837296,E,0.739,291.1,071224,3.4,W,D*2B
$GNVTG,282.531,T,285.970,M,0.67844,N,1.25647,K,D*3C
$GNHDT,305.8257,T*15
$GPGGA,030048.00,2234.49644959,N,11431.74833321,E,4,22,0.7,-4.4084,M,-1.3640,M,01,0000*58
$GPRMC,030048.00,A,2234.49644959,N,11431.74833321,E,0.678,282.5,071224,3.4,W,D*28
$GNVTG,284.235,T,287.674,M,0.64696,N,1.19817,K,D*36
$GNHDT,305.1232,T*1F
$GPGGA,030048.20,2234.49645846,N,11431.74829556,E,4,22,0.7,-4.3804,M,-1.3640,M,01,0000*5E
$GPRMC,030048.20,A,2234.49645846,N,11431.74829556,E,0.647,284.2,071224,3.4,W,D*24
$GNVTG,284.899,T,288.338,M,0.53844,N,0.99719,K,D*35
$GNHDT,304.9268,T*19
$GPGGA,030048.40,2234.49646618,N,11431.74826433,E,4,22,0.7,-4.3959,M,-1.3640,M,01,0000*5A
$GPRMC,030048.40,A,2234.49646618,N,11431.74826433,E,0.538,284.9,071224,3.4,W,D*29
$GNVTG,285.787,T,289.226,M,0.55101,N,1.02046,K,D*3B
$GNHDT,304.9715,T*16
$GPGGA,030048.60,2234.49647453,N,11431.74823250,E,4,22,0.7,-4.4646,M,-1.3640,M,01,0000*54
$GPRMC,030048.60,A,2234.49647453,N,11431.74823250,E,0.551,285.8,071224,3.4,W,D*2E
$GNVTG,285.368,T,288.807,M,0.63813,N,1.18181,K,D*38
$GNHDT,304.9125,T*13
$GPGGA,030048.80,2234.49648396,N,11431.74819557,E,4,22,0.7,-4.4675,M,-1.3640,M,00,0000*53
$GPRMC,030048.80,A,2234.49648396,N,11431.74819557,E,0.638,285.4,071224,3.4,W,D*28
$GNVTG,282.896,T,286.335,M,0.81389,N,1.50732,K,D*37
$GNHDT,304.7004,T*1F
$GPGGA,030049.00,2234.49649409,N,11431.74814794,E,4,22,0.7,-4.4742,M,-1.3640,M,01,0000*5E
$GPRMC,030049.00,A,2234.49649409,N,11431.74814794,E,0.814,282.9,071224,3.4,W,D*2B
$GNVTG,281.310,T,284.749,M,1.00478,N,1.86085,K,D*3D
$GNHDT,304.5254,T*1A
$GPGGA,030049.20,2234.49650507,N,11431.74808880,E,4,22,0.7,-4.4248,M,-1.3640,M,01,0000*53
$GPRMC,030049.20,A,2234.49650507,N,11431.74808880,E,1.005,281.3,071224,3.4,W,D*29
$GNVTG,286.569,T,290.008,M,0.89723,N,1.66168,K,D*34
$GNHDT,303.8957,T*18
$GPGGA,030049.40,2234.49651934,N,11431.74803718,E,4,22,0.7,-4.4276,M,-1.3640,M,01,0000*50
$GPRMC,030049.40,A,2234.49651934,N,11431.74803718,E,0.897,286.6,071224,3.4,W,D*27
$GNVTG,288.304,T,291.743,M,0.70897,N,1.31302,K,D*34
$GNHDT,303.6242,T*19
$GPGGA,030049.60,2234.49653175,N,11431.74799677,E,4,22,0.7,-4.4067,M,-1.3640,M,01,0000*5B
$GPRMC,030049.60,A,2234.49653175,N,11431.74799677,E,0.709,288.3,071224,3.4,W,D*2D
$GNVTG,297.654,T,301.093,M,0.47110,N,0.87249,K,D*38
$GNHDT,302.9330,T*13
$GPGGA,030049.80,2234.49654394,N,11431.74797172,E,4,22,0.7,-4.4241,M,-1.3640,M,00,0000*54
$GPRMC,030049.80,A,2234.49654394,N,11431.74797172,E,0.471,297.7,071224,3.4,W,D*23
$GNVTG,294.719,T,298.158,M,0.34657,N,0.64184,K,D*3B
$GNHDT,302.3636,T*1A
$GPGGA,030050.00,2234.49655202,N,11431.74795282,E,4,22,0.7,-4.4959,M,-1.3640,M,01,0000*56
$GPRMC,030050.00,A,2234.49655202,N,11431.74795282,E,0.347,294.7,071224,3.4,W,D*23
$GNVTG,301.279,T,304.718,M,0.34281,N,0.63488,K,D*32
$GNHDT,302.3753,T*18
$GPGGA,030050.20,2234.49656194,N,11431.74793524,E,4,20,0.8,-4.5553,M,-1.3640,M,01,0000*5C
$GPRMC,030050.20,A,2234.49656194,N,11431.74793524,E,0.343,301.3,071224,3.4,W,D*2E
$GNVTG,288.610,T,292.049,M,0.34399,N,0.63706,K,D*39
$GNHDT,302.3682,T*15
$GPGGA,030050.40,2234.49656806,N,11431.74791567,E,4,20,0.8,-4.6098,M,-1.3640,M,01,0000*5C
$GPRMC,030050.40,A,2234.49656806,N,11431.74791567,E,0.344,288.6,071224,3.4,W,D*2D
$GNVTG,295.059,T,298.498,M,0.37115,N,0.68736,K,D*31
$GNHDT,301.8187,T*1F
$GPGGA,030050.60,2234.49657682,N,11431.74789549,E,4,20,0.8,-4.6205,M,-1.3640,M,01,0000*5E
$GPRMC,030050.60,A,2234.49657682,N,11431.74789549,E,0.371,295.1,071224,3.4,W,D*24
$GNVTG,288.121,T,291.560,M,0.40193,N,0.74437,K,D*3D
$GNHDT,302.0326,T*1D
$GPGGA,030050.80,2234.49658379,N,11431.74787256,E,4,20,0.8,-4.6273,M,-1.3640,M,00,0000*59
$GPRMC,030050.80,A,2234.49658379,N,11431.74787256,E,0.402,288.1,071224,3.4,W,D*2C
$GNVTG,295.896,T,299.336,M,0.54059,N,1.00118,K,D*31
$GNHDT,301.7461,T*1D
$GPGGA,030051.00,2234.49659695,N,11431.74784336,E,4,20,0.8,-4.6129,M,-1.3640,M,01,0000*5F
$GPRMC,030051.00,A,2234.49659695,N,11431.74784336,E,0.541,295.9,071224,3.4,W,D*25
$GNVTG,299.340,T,302.779,M,0.40463,N,0.74938,K,D*31
$GNHDT,301.3207,T*1F
$GPGGA,030051.20,2234.49660801,N,11431.74782219,E,4,21,0.7,-4.5758,M,-1.3640,M,01,0000*53
$GPRMC,030051.20,A,2234.49660801,N,11431.74782219,E,0.405,299.3,071224,3.4,W,D*23
$GNVTG,297.403,T,300.842,M,0.36084,N,0.66828,K,D*35
$GNHDT,300.9934,T*1F
$GPGGA,030051.40,2234.49661726,N,11431.74780296,E,4,21,0.7,-4.5646,M,-1.3640,M,01,0000*55
$GPRMC,030051.40,A,2234.49661726,N,11431.74780296,E,0.361,297.4,071224,3.4,W,D*27
$GNVTG,294.382,T,297.821,M,0.25222,N,0.46712,K,D*3A
$GNHDT,300.8477,T*14
$GPGGA,030051.60,2234.49662307,N,11431.74778917,E,4,21,0.7,-4.5361,M,-1.3640,M,01,0000*56
$GPRMC,030051.60,A,2234.49662307,N,11431.74778917,E,0.252,294.4,071224,3.4,W,D*26
$GNVTG,322.614,T,326.053,M,0.14995,N,0.27772,K,D*3E
$GNHDT,300.5234,T*18
$GPGGA,030051.80,2234.49662971,N,11431.74778370,E,4,20,0.8,-4.5544,M,-1.3640,M,00,0000*56
$GPRMC,030051.80,A,2234.49662971,N,11431.74778370,E,0.150,322.6,071224,3.4,W,D*27
$GNVTG,289.122,T,292.561,M,0.24299,N,0.45002,K,D*36
$GNHDT,300.2437,T*1A
$GPGGA,030052.00,2234.49663415,N,11431.74776992,E,4,20,0.8,-4.5465,M,-1.3640,M,01,0000*58
$GPRMC,030052.00,A,2234.49663415,N,11431.74776992,E,0.243,289.1,071224,3.4,W,D*2C
$GNVTG,296.211,T,299.650,M,0.37266,N,0.69016,K,D*38
$GNHDT,299.3534,T*18
$GPGGA,030052.20,2234.49664332,N,11431.74774985,E,4,20,0.8,-4.5114,M,-1.3640,M,01,0000*58
$GPRMC,030052.20,A,2234.49664332,N,11431.74774985,E,0.373,296.2,071224,3.4,W,D*20
$GNVTG,275.535,T,278.975,M,0.62075,N,1.14963,K,D*33
$GNHDT,299.1595,T*11
$GPGGA,030052.40,2234.49664666,N,11431.74771276,E,4,22,0.7,-4.4912,M,-1.3640,M,01,0000*5A
$GPRMC,030052.40,A,2234.49664666,N,11431.74771276,E,0.621,275.5,071224,3.4,W,D*28
$GNVTG,279.483,T,282.922,M,0.75340,N,1.39530,K,D*32
$GNHDT,298.9743,T*11
$GPGGA,030052.60,2234.49665358,N,11431.74766816,E,4,22,0.7,-4.4692,M,-1.3640,M,01,0000*5C
$GPRMC,030052.60,A,2234.49665358,N,11431.74766816,E,0.753,279.5,071224,3.4,W,D*21
$GNVTG,276.576,T,280.015,M,0.71037,N,1.31561,K,D*32
$GNHDT,298.7574,T*19
$GPGGA,030052.80,2234.49665812,N,11431.74762579,E,4,21,0.8,-4.4647,M,-1.3640,M,00,0000*52
$GPRMC,030052.80,A,2234.49665812,N,11431.74762579,E,0.710,276.6,071224,3.4,W,D*21
$GNVTG,282.828,T,286.267,M,0.58939,N,1.09154,K,D*3B
$GNHDT,298.0536,T*18
$GPGGA,030053.00,2234.49666541,N,11431.74759130,E,4,21,0.8,-4.4131,M,-1.3640,M,01,0000*55
$GPRMC,030053.00,A,2234.49666541,N,11431.74759130,E,0.589,282.8,071224,3.4,W,D*26
$GNVTG,263.520,T,266.959,M,0.48235,N,0.89332,K,D*34
$GNHDT,298.3069,T*14
$GPGGA,030053.20,2234.49666238,N,11431.74756253,E,4,21,0.8,-4.4424,M,-1.3640,M,01,0000*56
$GPRMC,030053.20,A,2234.49666238,N,11431.74756253,E,0.482,263.5,071224,3.4,W,D*2C
$GNVTG,292.493,T,295.933,M,0.27772,N,0.51433,K,D*3F
$GNHDT,297.6392,T*19
$GPGGA,030053.40,2234.49666830,N,11431.74754712,E,4,21,0.8,-4.4468,M,-1.3640,M,01,0000*58
$GPRMC,030053.40,A,2234.49666830,N,11431.74754712,E,0.278,292.5,071224,3.4,W,D*27
$GNVTG,281.743,T,285.182,M,0.25677,N,0.47554,K,D*31
$GNHDT,297.4911,T*1A
$GPGGA,030053.60,2234.49667121,N,11431.74753203,E,4,21,0.8,-4.4880,M,-1.3640,M,01,0000*5A
$GPRMC,030053.60,A,2234.49667121,N,11431.74753203,E,0.257,281.7,071224,3.4,W,D*22
$GNVTG,288.096,T,291.535,M,0.60399,N,1.11858,K,D*3D
$GNHDT,297.1642,T*16
$GPGGA,030053.80,2234.49668167,N,11431.74749757,E,4,20,0.8,-4.4715,M,-1.3640,M,00,0000*55
$GPRMC,030053.80,A,2234.49668167,N,11431.74749757,E,0.604,288.1,071224,3.4,W,D*23
$GNVTG,285.278,T,288.717,M,0.60589,N,1.12211,K,D*3B
$GNHDT,296.9614,T*1C
$GPGGA,030054.00,2234.49669057,N,11431.74746249,E,4,20,0.8,-4.4775,M,-1.3640,M,01,0000*5B
$GPRMC,030054.00,A,2234.49669057,N,11431.74746249,E,0.606,285.3,071224,3.4,W,D*27
$GNVTG,291.651,T,295.090,M,0.77694,N,1.43889,K,D*33
$GNHDT,296.3904,T*18
$GPGGA,030054.20,2234.49670655,N,11431.74741914,E,4,20,0.8,-4.4543,M,-1.3640,M,01,0000*56
$GPRMC,030054.20,A,2234.49670655,N,11431.74741914,E,0.777,291.7,071224,3.4,W,D*2B
$GNVTG,285.793,T,289.232,M,0.66518,N,1.23192,K,D*3C
$GNHDT,296.0301,T*14
$GPGGA,030054.40,2234.49671664,N,11431.74738072,E,4,20,0.8,-4.4195,M,-1.3640,M,01,0000*5B
$GPRMC,030054.40,A,2234.49671664,N,11431.74738072,E,0.665,285.8,071224,3.4,W,D*21
$GNVTG,280.201,T,283.640,M,0.63858,N,1.18264,K,D*32
$GNHDT,295.8475,T*1B
$GPGGA,030054.60,2234.49672295,N,11431.74734299,E,4,20,0.8,-4.3772,M,-1.3640,M,01,0000*53
$GPRMC,030054.60,A,2234.49672295,N,11431.74734299,E,0.639,280.2,071224,3.4,W,D*27
$GNVTG,285.943,T,289.382,M,0.54309,N,1.00580,K,D*34
$GNHDT,295.2648,T*1D
$GPGGA,030054.80,2234.49673126,N,11431.74731164,E,4,21,0.8,-4.3718,M,-1.3640,M,01,0000*5E
$GPRMC,030054.80,A,2234.49673126,N,11431.74731164,E,0.543,285.9,071224,3.4,W,D*27
$GNVTG,282.376,T,285.815,M,0.44094,N,0.81662,K,D*37
$GNHDT,294.6696,T*1B
$GPGGA,030055.00,2234.49673653,N,11431.74728579,E,4,21,0.8,-4.3836,M,-1.3640,M,02,0000*52
$GPRMC,030055.00,A,2234.49673653,N,11431.74728579,E,0.441,282.4,071224,3.4,W,D*22
$GNVTG,279.389,T,282.828,M,0.45141,N,0.83602,K,D*36
$GNHDT,294.1313,T*14
$GPGGA,030055.20,2234.49674064,N,11431.74725905,E,4,21,0.8,-4.4111,M,-1.3640,M,02,0000*54
$GPRMC,030055.20,A,2234.49674064,N,11431.74725905,E,0.451,279.4,071224,3.4,W,D*2A
$GNVTG,275.970,T,279.409,M,0.49998,N,0.92597,K,D*32
$GNHDT,293.8800,T*13
$GPGGA,030055.40,2234.49674354,N,11431.74722920,E,4,20,0.8,-4.4283,M,-1.3640,M,02,0000*5B
$GPRMC,030055.40,A,2234.49674354,N,11431.74722920,E,0.500,276.0,071224,3.4,W,D*22
$GNVTG,285.693,T,289.133,M,0.62666,N,1.16057,K,D*3F
$GNHDT,293.4101,T*17
$GPGGA,030055.60,2234.49675299,N,11431.74719299,E,4,20,0.8,-4.4404,M,-1.3640,M,02,0000*50
$GPRMC,030055.60,A,2234.49675299,N,11431.74719299,E,0.627,285.7,071224,3.4,W,D*2D
$GNVTG,283.114,T,286.553,M,0.75926,N,1.40614,K,D*33
$GNHDT,293.2419,T*1D
$GPGGA,030055.80,2234.49676259,N,11431.74714860,E,4,20,0.8,-4.4777,M,-1.3640,M,00,0000*55
$GPRMC,030055.80,A,2234.49676259,N,11431.74714860,E,0.759,283.1,071224,3.4,W,D*25
$GNVTG,280.541,T,283.980,M,0.66583,N,1.23313,K,D*35
$GNHDT,293.2142,T*16
$GPGGA,030056.00,2234.49676938,N,11431.74710931,E,4,21,0.8,-4.4418,M,-1.3640,M,01,0000*59
$GPRMC,030056.00,A,2234.49676938,N,11431.74710931,E,0.666,280.5,071224,3.4,W,D*29
$GNVTG,280.411,T,283.851,M,0.55861,N,1.03454,K,D*3B
$GNHDT,293.2594,T*19
$GPGGA,030056.20,2234.49677501,N,11431.74707633,E,4,21,0.8,-4.4395,M,-1.3640,M,01,0000*55
$GPRMC,030056.20,A,2234.49677501,N,11431.74707633,E,0.559,280.4,071224,3.4,W,D*29
$GNVTG,281.351,T,284.790,M,0.42033,N,0.77845,K,D*3B
$GNHDT,293.0118,T*1B
$GPGGA,030056.40,2234.49677962,N,11431.74705159,E,4,21,0.8,-4.4562,M,-1.3640,M,01,0000*5D
$GPRMC,030056.40,A,2234.49677962,N,11431.74705159,E,0.420,281.4,071224,3.4,W,D*21
$GNVTG,302.051,T,305.491,M,0.33859,N,0.62707,K,D*37
$GNHDT,292.4218,T*1D
$GPGGA,030056.60,2234.49678964,N,11431.74703436,E,4,22,0.7,-4.4641,M,-1.3640,M,01,0000*52
$GPRMC,030056.60,A,2234.49678964,N,11431.74703436,E,0.339,302.1,071224,3.4,W,D*20
$GNVTG,288.523,T,291.962,M,0.34884,N,0.64605,K,D*3B
$GNHDT,292.1314,T*15
$GPGGA,030056.80,2234.49679581,N,11431.74701451,E,4,22,0.7,-4.5043,M,-1.3640,M,01,0000*5C
$GPRMC,030056.80,A,2234.49679581,N,11431.74701451,E,0.349,288.5,071224,3.4,W,D*2B
$GNVTG,290.431,T,293.870,M,0.58455,N,1.08259,K,D*3C
$GNHDT,291.7945,T*1E
$GPGGA,030057.00,2234.49680719,N,11431.74698162,E,4,22,0.7,-4.5165,M,-1.3640,M,02,0000*52
$GPRMC,030057.00,A,2234.49680719,N,11431.74698162,E,0.585,290.4,071224,3.4,W,D*2D
$GNVTG,284.799,T,288.238,M,0.70914,N,1.31333,K,D*31
$GNHDT,291.8818,T*18
$GPGGA,030057.20,2234.49681729,N,11431.74694047,E,4,22,0.7,-4.4996,M,-1.3640,M,02,0000*5D
$GPRMC,030057.20,A,2234.49681729,N,11431.74694047,E,0.709,284.8,071224,3.4,W,D*28
$GNVTG,287.828,T,291.267,M,0.64787,N,1.19986,K,D*3A
$GNHDT,291.4750,T*17
$GPGGA,030057.40,2234.49682834,N,11431.74690344,E,4,22,0.7,-4.5000,M,-1.3640,M,02,0000*58
$GPRMC,030057.40,A,2234.49682834,N,11431.74690344,E,0.648,287.8,071224,3.4,W,D*2D
$GNVTG,279.424,T,282.864,M,0.48518,N,0.89856,K,D*3E
$GNHDT,291.8483,T*16
$GPGGA,030057.60,2234.49683277,N,11431.74687471,E,4,22,0.7,-4.5376,M,-1.3640,M,02,0000*53
$GPRMC,030057.60,A,2234.49683277,N,11431.74687471,E,0.485,279.4,071224,3.4,W,D*2A
$GNVTG,302.349,T,305.789,M,0.38123,N,0.70604,K,D*39
$GNHDT,291.5743,T*14
$GPGGA,030057.80,2234.49684415,N,11431.74685538,E,4,22,0.7,-4.4943,M,-1.3641,M,00,0000*58
$GPRMC,030057.80,A,2234.49684415,N,11431.74685538,E,0.381,302.3,071224,3.4,W,D*26
$GNVTG,292.844,T,296.283,M,0.14743,N,0.27304,K,D*3A
$GNHDT,291.7822,T*1E
$GPGGA,030058.00,2234.49684734,N,11431.74684722,E,4,22,0.7,-4.5120,M,-1.3641,M,01,0000*5A
$GPRMC,030058.00,A,2234.49684734,N,11431.74684722,E,0.147,292.8,071224,3.4,W,D*22
$GNVTG,302.233,T,305.672,M,0.27405,N,0.50755,K,D*38
$GNHDT,291.4475,T*13
$GPGGA,030058.20,2234.49685548,N,11431.74683331,E,4,22,0.7,-4.5221,M,-1.3641,M,01,0000*53
$GPRMC,030058.20,A,2234.49685548,N,11431.74683331,E,0.274,302.2,071224,3.4,W,D*28
$GNVTG,282.766,T,286.206,M,0.40592,N,0.75177,K,D*36
$GNHDT,291.5370,T*10
$GPGGA,030058.40,2234.49686048,N,11431.74680954,E,4,22,0.7,-4.5213,M,-1.3641,M,01,0000*58
$GPRMC,030058.40,A,2234.49686048,N,11431.74680954,E,0.406,282.8,071224,3.4,W,D*22
$GNVTG,292.034,T,295.474,M,0.53653,N,0.99366,K,D*3A
$GNHDT,290.5849,T*10
$GPGGA,030058.60,2234.49687171,N,11431.74677969,E,4,22,0.7,-4.5138,M,-1.3641,M,01,0000*5C
$GPRMC,030058.60,A,2234.49687171,N,11431.74677969,E,0.537,292.0,071224,3.4,W,D*26
$GNVTG,287.859,T,291.299,M,0.48170,N,0.89212,K,D*33
$GNHDT,290.6738,T*1A
$GPGGA,030058.80,2234.49687994,N,11431.74675217,E,4,22,0.7,-4.5264,M,-1.3641,M,00,0000*5A
$GPRMC,030058.80,A,2234.49687994,N,11431.74675217,E,0.482,287.9,071224,3.4,W,D*29
$GNVTG,280.806,T,284.245,M,0.47598,N,0.88152,K,D*30
$GNHDT,291.0817,T*1F
$GPGGA,030059.00,2234.49688492,N,11431.74672410,E,4,22,0.7,-4.5531,M,-1.3641,M,01,0000*57
$GPRMC,030059.00,A,2234.49688492,N,11431.74672410,E,0.476,280.8,071224,3.4,W,D*2F
$GNVTG,297.424,T,300.863,M,0.25853,N,0.47880,K,D*32
$GNHDT,290.9579,T*12
$GPGGA,030059.20,2234.49689155,N,11431.74671033,E,4,22,0.7,-4.5605,M,-1.3641,M,01,0000*58
$GPRMC,030059.20,A,2234.49689155,N,11431.74671033,E,0.259,297.4,071224,3.4,W,D*25
$GNVTG,302.430,T,305.870,M,0.09636,N,0.17846,K,D*31
$GNHDT,291.0658,T*1A
$GPGGA,030059.40,2234.49689443,N,11431.74670544,E,4,22,0.7,-4.5171,M,-1.3641,M,01,0000*5C
$GPRMC,030059.40,A,2234.49689443,N,11431.74670544,E,0.096,302.4,071224,3.4,W,D*29
$GNVTG,281.239,T,284.678,M,0.32386,N,0.59979,K,D*3B
$GNHDT,290.9432,T*1C
$GPGGA,030059.60,2234.49689795,N,11431.74668638,E,4,22,0.7,-4.5071,M,-1.3641,M,01,0000*56
$GPRMC,030059.60,A,2234.49689795,N,11431.74668638,E,0.324,281.2,071224,3.4,W,D*24
$GNVTG,269.643,T,273.082,M,0.37881,N,0.70155,K,D*3B
$GNHDT,290.6125,T*10
$GPGGA,030059.80,2234.49689782,N,11431.74666364,E,4,21,0.8,-4.5000,M,-1.3641,M,00,0000*57
$GPRMC,030059.80,A,2234.49689782,N,11431.74666364,E,0.379,269.6,071224,3.4,W,D*24
$GNVTG,280.215,T,283.654,M,0.56378,N,1.04411,K,D*34
$GNHDT,290.1993,T*12
$GPGGA,030100.00,2234.49690340,N,11431.74663033,E,4,21,0.8,-4.5119,M,-1.3641,M,01,0000*5C
$GPRMC,030100.00,A,2234.49690340,N,11431.74663033,E,0.564,280.2,071224,3.4,W,D*2E
$GNVTG,286.121,T,289.560,M,0.57172,N,1.05883,K,D*37
$GNHDT,289.9462,T*11
$GPGGA,030100.20,2234.49691225,N,11431.74659736,E,4,20,0.8,-4.4632,M,-1.3641,M,01,0000*58
$GPRMC,030100.20,A,2234.49691225,N,11431.74659736,E,0.572,286.1,071224,3.4,W,D*26
$GNVTG,282.967,T,286.407,M,0.54078,N,1.00153,K,D*3F
$GNHDT,290.0244,T*12
$GPGGA,030100.40,2234.49691901,N,11431.74656573,E,4,19,0.8,-4.5113,M,-1.3641,M,01,0000*50
$GPRMC,030100.40,A,2234.49691901,N,11431.74656573,E,0.541,283.0,071224,3.4,W,D*25
$GNVTG,291.911,T,295.350,M,0.25701,N,0.47598,K,D*35
$GNHDT,290.1796,T*19
$GPGGA,030100.60,2234.49692436,N,11431.74655141,E,4,19,0.8,-4.5237,M,-1.3641,M,01,0000*5B
$GPRMC,030100.60,A,2234.49692436,N,11431.74655141,E,0.257,291.9,071224,3.4,W,D*21
$GNVTG,311.985,T,315.424,M,0.21217,N,0.39293,K,D*3F
$GNHDT,290.1442,T*13
$GPGGA,030100.80,2234.49693227,N,11431.74654195,E,4,21,0.8,-4.5493,M,-1.3641,M,00,0000*58
$GPRMC,030100.80,A,2234.49693227,N,11431.74654195,E,0.212,312.0,071224,3.4,W,D*22
$GNVTG,289.093,T,292.533,M,0.31049,N,0.57503,K,D*36
$GNHDT,290.5139,T*1E
$GPGGA,030101.00,2234.49693793,N,11431.74652433,E,4,21,0.8,-4.5457,M,-1.3641,M,01,0000*5D
$GPRMC,030101.00,A,2234.49693793,N,11431.74652433,E,0.310,289.1,071224,3.4,W,D*2F
$GNVTG,292.969,T,296.408,M,0.43708,N,0.80948,K,D*33
$GNHDT,289.8987,T*16
$GPGGA,030101.20,2234.49694744,N,11431.74650018,E,4,21,0.8,-4.5152,M,-1.3641,M,01,0000*5D
$GPRMC,030101.20,A,2234.49694744,N,11431.74650018,E,0.437,293.0,071224,3.4,W,D*27
$GNVTG,282.592,T,286.031,M,0.65819,N,1.21896,K,D*36
$GNHDT,289.9682,T*1D
$GPGGA,030101.40,2234.49695544,N,11431.74646162,E,4,21,0.8,-4.4856,M,-1.3641,M,01,0000*5F
$GPRMC,030101.40,A,2234.49695544,N,11431.74646162,E,0.658,282.6,071224,3.4,W,D*24
$GNVTG,281.684,T,285.124,M,0.67847,N,1.25654,K,D*3A
$GNHDT,289.0937,T*15
$GPGGA,030101.60,2234.49696310,N,11431.74642173,E,4,21,0.8,-4.4417,M,-1.3641,M,01,0000*54
$GPRMC,030101.60,A,2234.49696310,N,11431.74642173,E,0.678,281.7,071224,3.4,W,D*26
$GNVTG,279.246,T,282.685,M,0.60888,N,1.12764,K,D*3E
$GNHDT,288.7727,T*1C
$GPGGA,030101.80,2234.49696855,N,11431.74638566,E,4,21,0.8,-4.4600,M,-1.3641,M,00,0000*58
$GPRMC,030101.80,A,2234.49696855,N,11431.74638566,E,0.609,279.2,071224,3.4,W,D*2B
$GNVTG,280.606,T,284.046,M,0.50883,N,0.94236,K,D*32
$GNHDT,288.6345,T*1D
$GPGGA,030102.00,2234.49697377,N,11431.74635564,E,4,21,0.8,-4.4527,M,-1.3641,M,01,0000*51
$GPRMC,030102.00,A,2234.49697377,N,11431.74635564,E,0.509,280.6,071224,3.4,W,D*24
$GNVTG,291.752,T,295.191,M,0.48159,N,0.89191,K,D*3C
$GNHDT,288.2591,T*16
$GPGGA,030102.20,2234.49698372,N,11431.74632879,E,4,21,0.8,-4.4630,M,-1.3641,M,01,0000*5A
$GPRMC,030102.20,A,2234.49698372,N,11431.74632879,E,0.482,291.8,071224,3.4,W,D*26
$GNVTG,278.347,T,281.786,M,0.37392,N,0.69251,K,D*32
$GNHDT,288.9600,T*16
$GPGGA,030102.40,2234.49698675,N,11431.74630658,E,4,21,0.8,-4.5413,M,-1.3641,M,01,0000*53
$GPRMC,030102.40,A,2234.49698675,N,11431.74630658,E,0.374,278.3,071224,3.4,W,D*2F
$GNVTG,298.541,T,301.980,M,0.36199,N,0.67040,K,D*39
$GNHDT,288.8357,T*10
$GPGGA,030102.60,2234.49699639,N,11431.74628749,E,4,21,0.8,-4.5793,M,-1.3641,M,01,0000*5B
$GPRMC,030102.60,A,2234.49699639,N,11431.74628749,E,0.362,298.5,071224,3.4,W,D*23
$GNVTG,296.659,T,300.098,M,0.47948,N,0.88800,K,D*33
$GNHDT,288.5510,T*18
$GPGGA,030102.80,2234.49700838,N,11431.74626177,E,4,21,0.8,-4.5074,M,-1.3641,M,00,0000*51
$GPRMC,030102.80,A,2234.49700838,N,11431.74626177,E,0.479,296.7,071224,3.4,W,D*27
$GNVTG,279.096,T,282.535,M,0.62492,N,1.15735,K,D*3F
$GNHDT,288.6226,T*19
$GPGGA,030103.00,2234.49701389,N,11431.74622473,E,4,21,0.8,-4.4730,M,-1.3641,M,01,0000*5A
$GPRMC,030103.00,A,2234.49701389,N,11431.74622473,E,0.625,279.1,071224,3.4,W,D*27
$GNVTG,289.324,T,292.763,M,0.70374,N,1.30332,K,D*32
$GNHDT,287.9747,T*1B
$GPGGA,030103.20,2234.49702687,N,11431.74618486,E,4,21,0.8,-4.4497,M,-1.3641,M,01,0000*5D
$GPRMC,030103.20,A,2234.49702687,N,11431.74618486,E,0.704,289.3,071224,3.4,W,D*21
$GNVTG,279.373,T,282.812,M,0.67230,N,1.24510,K,D*33
$GNHDT,288.0047,T*1A
$GPGGA,030103.40,2234.49703298,N,11431.74614504,E,4,21,0.8,-4.3987,M,-1.3641,M,01,0000*5C
$GPRMC,030103.40,A,2234.49703298,N,11431.74614504,E,0.672,279.4,071224,3.4,W,D*23
$GNVTG,286.104,T,289.544,M,0.68741,N,1.27309,K,D*35
$GNHDT,287.0666,T*10
$GPGGA,030103.60,2234.49704361,N,11431.74610540,E,4,22,0.7,-4.4249,M,-1.3641,M,01,0000*58
$GPRMC,030103.60,A,2234.49704361,N,11431.74610540,E,0.687,286.1,071224,3.4,W,D*2A
$GNVTG,291.789,T,295.228,M,0.59808,N,1.10765,K,D*3A
$GNHDT,286.4310,T*11
$GPGGA,030103.80,2234.49705598,N,11431.74607206,E,4,22,0.7,-4.3863,M,-1.3641,M,00,0000*50
$GPRMC,030103.80,A,2234.49705598,N,11431.74607206,E,0.598,291.8,071224,3.4,W,D*24
$GNVTG,282.561,T,286.001,M,0.47246,N,0.87499,K,D*37
$GNHDT,286.5869,T*15
$GPGGA,030104.00,2234.49706171,N,11431.74604438,E,4,21,0.8,-4.4607,M,-1.3641,M,01,0000*51
$GPRMC,030104.00,A,2234.49706171,N,11431.74604438,E,0.472,282.6,071224,3.4,W,D*2A
$GNVTG,286.541,T,289.980,M,0.60413,N,1.11885,K,D*32
$GNHDT,286.3413,T*12
$GPGGA,030104.20,2234.49707130,N,11431.74600962,E,4,21,0.8,-4.4825,M,-1.3641,M,01,0000*5F
$GPRMC,030104.20,A,2234.49707130,N,11431.74600962,E,0.604,286.5,071224,3.4,W,D*2E
$GNVTG,282.022,T,285.462,M,0.63798,N,1.18154,K,D*34
$GNHDT,285.5909,T*11
$GPGGA,030104.40,2234.49707871,N,11431.74597216,E,4,21,0.8,-4.4806,M,-1.3641,M,01,0000*51
$GPRMC,030104.40,A,2234.49707871,N,11431.74597216,E,0.638,282.0,071224,3.4,W,D*2F
$GNVTG,270.317,T,273.756,M,0.69422,N,1.28569,K,D*30
$GNHDT,285.9771,T*1C
$GPGGA,030104.60,2234.49707892,N,11431.74593049,E,4,21,0.8,-4.4612,M,-1.3641,M,01,0000*59
$GPRMC,030104.60,A,2234.49707892,N,11431.74593049,E,0.694,270.3,071224,3.4,W,D*24
$GNVTG,275.231,T,278.671,M,0.77426,N,1.43394,K,D*3D
$GNHDT,286.2266,T*17
$GPGGA,030104.80,2234.49708286,N,11431.74588420,E,4,21,0.8,-4.4319,M,-1.3641,M,00,0000*59
$GPRMC,030104.80,A,2234.49708286,N,11431.74588420,E,0.774,275.2,071224,3.4,W,D*20
$GNVTG,279.537,T,282.977,M,0.60162,N,1.11421,K,D*31
$GNHDT,286.0771,T*16
$GPGGA,030105.00,2234.49708841,N,11431.74584859,E,4,21,0.8,-4.4640,M,-1.3641,M,01,0000*57
$GPRMC,030105.00,A,2234.49708841,N,11431.74584859,E,0.602,279.5,071224,3.4,W,D*2D
$GNVTG,282.382,T,285.821,M,0.60398,N,1.11857,K,D*32
$GNHDT,285.8695,T*16
$GPGGA,030105.20,2234.49709563,N,11431.74581318,E,4,21,0.8,-4.5003,M,-1.3641,M,01,0000*52
$GPRMC,030105.20,A,2234.49709563,N,11431.74581318,E,0.604,282.4,071224,3.4,W,D*2B
$GNVTG,289.257,T,292.697,M,0.48941,N,0.90639,K,D*3F
$GNHDT,285.1631,T*11
$GPGGA,030105.40,2234.49710463,N,11431.74578544,E,4,21,0.8,-4.4608,M,-1.3641,M,01,0000*58
$GPRMC,030105.40,A,2234.49710463,N,11431.74578544,E,0.489,289.3,071224,3.4,W,D*26
$GNVTG,296.791,T,300.230,M,0.37398,N,0.69262,K,D*37
$GNHDT,284.5364,T*11
$GPGGA,030105.60,2234.49711403,N,11431.74576540,E,4,21,0.8,-4.5252,M,-1.3641,M,01,0000*5D
$GPRMC,030105.60,A,2234.49711403,N,11431.74576540,E,0.374,296.8,071224,3.4,W,D*29
$GNVTG,284.694,T,288.133,M,0.47805,N,0.88536,K,D*30
$GNHDT,284.7841,T*1F
$GPGGA,030105.80,2234.49712079,N,11431.74573764,E,4,21,0.8,-4.5809,M,-1.3641,M,01,0000*5C
$GPRMC,030105.80,A,2234.49712079,N,11431.74573764,E,0.478,284.7,071224,3.4,W,D*2B
$GNVTG,292.697,T,296.136,M,0.48594,N,0.89996,K,D*33
$GNHDT,284.8573,T*1C
$GPGGA,030106.00,2234.49713124,N,11431.74571073,E,4,21,0.8,-4.5184,M,-1.3641,M,02,0000*53
$GPRMC,030106.00,A,2234.49713124,N,11431.74571073,E,0.486,292.7,071224,3.4,W,D*2D
$GNVTG,272.286,T,275.725,M,0.52330,N,0.96916,K,D*35
$GNHDT,284.8069,T*12
$GPGGA,030106.20,2234.49713240,N,11431.74567934,E,4,21,0.8,-4.5131,M,-1.3641,M,02,0000*53
$GPRMC,030106.20,A,2234.49713240,N,11431.74567934,E,0.523,272.3,071224,3.4,W,D*27
$GNVTG,278.050,T,281.489,M,0.60300,N,1.11676,K,D*3D
$GNHDT,284.8979,T*1A
$GPGGA,030106.40,2234.49713711,N,11431.74564350,E,4,21,0.8,-4.5067,M,-1.3641,M,02,0000*5D
$GPRMC,030106.40,A,2234.49713711,N,11431.74564350,E,0.603,278.0,071224,3.4,W,D*23
$GNVTG,271.939,T,275.379,M,0.48828,N,0.90430,K,D*32
$GNHDT,284.9299,T*1E
$GPGGA,030106.60,2234.49713803,N,11431.74561421,E,4,21,0.8,-4.5412,M,-1.3641,M,02,0000*51
$GPRMC,030106.60,A,2234.49713803,N,11431.74561421,E,0.488,271.9,071224,3.4,W,D*28
$GNVTG,283.669,T,287.108,M,0.31535,N,0.58403,K,D*37
$GNHDT,284.4288,T*13
$GPGGA,030106.80,2234.49714219,N,11431.74559582,E,4,22,0.7,-4.5489,M,-1.3641,M,00,0000*56
$GPRMC,030106.80,A,2234.49714219,N,11431.74559582,E,0.315,283.7,071224,3.4,W,D*23
$GNVTG,306.344,T,309.783,M,0.28666,N,0.53090,K,D*3B
$GNHDT,283.7444,T*11
$GPGGA,030107.00,2234.49715166,N,11431.74558195,E,4,22,0.7,-4.5853,M,-1.3641,M,01,0000*5C
$GPRMC,030107.00,A,2234.49715166,N,11431.74558195,E,0.287,306.3,071224,3.4,W,D*21
$GNVTG,317.594,T,321.033,M,0.14130,N,0.26169,K,D*38
$GNHDT,283.8985,T*1E
$GPGGA,030107.20,2234.49715747,N,11431.74557623,E,4,22,0.7,-4.6427,M,-1.3641,M,01,0000*52
$GPRMC,030107.20,A,2234.49715747,N,11431.74557623,E,0.141,317.6,071224,3.4,W,D*2F
$GNVTG,337.620,T,341.060,M,0.19426,N,0.35977,K,D*3C
$GNHDT,283.5815,T*1B
$GPGGA,030107.40,2234.49716749,N,11431.74557179,E,4,20,0.8,-4.6938,M,-1.3641,M,01,0000*5F
$GPRMC,030107.40,A,2234.49716749,N,11431.74557179,E,0.194,337.6,071224,3.4,W,D*26
$GNVTG,301.020,T,304.460,M,0.14667,N,0.27163,K,D*3E
$GNHDT,283.6390,T*1E
$GPGGA,030107.60,2234.49717170,N,11431.74556425,E,4,20,0.8,-4.7133,M,-1.3641,M,01,0000*5F
$GPRMC,030107.60,A,2234.49717170,N,11431.74556425,E,0.147,301.0,071224,3.4,W,D*29
$GNVTG,289.104,T,292.544,M,0.29745,N,0.55088,K,D*3F
$GNHDT,283.5413,T*11
$GPGGA,030107.80,2234.49717713,N,11431.74554738,E,4,20,0.8,-4.6695,M,-1.3641,M,00,0000*54
$GPRMC,030107.80,A,2234.49717713,N,11431.74554738,E,0.297,289.1,071224,3.4,W,D*27
$GNVTG,283.707,T,287.146,M,0.44685,N,0.82757,K,D*3B
$GNHDT,283.9419,T*17
$GPGGA,030108.00,2234.49718303,N,11431.74552132,E,4,21,0.8,-4.5987,M,-1.3641,M,01,0000*5C
$GPRMC,030108.00,A,2234.49718303,N,11431.74552132,E,0.447,283.7,071224,3.4,W,D*27
$GNVTG,277.115,T,280.555,M,0.49785,N,0.92202,K,D*3C
$GNHDT,283.8314,T*1C
$GPGGA,030108.20,2234.49718647,N,11431.74549166,E,4,20,0.8,-4.5569,M,-1.3641,M,01,0000*5D
$GPRMC,030108.20,A,2234.49718647,N,11431.74549166,E,0.498,277.1,071224,3.4,W,D*24
$GNVTG,289.420,T,292.859,M,0.47334,N,0.87662,K,D*3A
$GNHDT,284.0421,T*12
$GPGGA,030108.40,2234.49719524,N,11431.74546487,E,4,20,0.8,-4.5388,M,-1.3641,M,01,0000*50
$GPRMC,030108.40,A,2234.49719524,N,11431.74546487,E,0.473,289.4,071224,3.4,W,D*21
$GNVTG,306.162,T,309.602,M,0.28004,N,0.51863,K,D*31
$GNHDT,283.5325,T*13
$GPGGA,030108.60,2234.49720445,N,11431.74545129,E,4,21,0.8,-4.4910,M,-1.3641,M,01,0000*57
$GPRMC,030108.60,A,2234.49720445,N,11431.74545129,E,0.280,306.2,071224,3.4,W,D*27
$GNVTG,35.735,T,39.174,M,0.10239,N,0.18963,K,D*3B
$GNHDT,283.7976,T*1D
$GPGGA,030108.80,2234.49720909,N,11431.74545488,E,4,21,0.8,-4.5071,M,-1.3641,M,01,0000*5D
$GPRMC,030108.80,A,2234.49720909,N,11431.74545488,E,0.102,35.7,071224,3.4,W,D*1D
$GNVTG,304.704,T,308.143,M,0.27762,N,0.51415,K,D*33
$GNHDT,283.7742,T*14
$GPGGA,030109.00,2234.49721790,N,11431.74544118,E,4,21,0.8,-4.5331,M,-1.3641,M,02,0000*52
$GPRMC,030109.00,A,2234.49721790,N,11431.74544118,E,0.278,304.7,071224,3.4,W,D*29
$GNVTG,301.564,T,305.003,M,0.25175,N,0.46624,K,D*3E
$GNHDT,283.2892,T*13
$GPGGA,030109.20,2234.49722525,N,11431.74542831,E,4,21,0.8,-4.5107,M,-1.3641,M,02,0000*5C
$GPRMC,030109.20,A,2234.49722525,N,11431.74542831,E,0.252,301.6,071224,3.4,W,D*2C
$GNVTG,270.869,T,274.309,M,0.71722,N,1.32829,K,D*33
$GNHDT,283.3803,T*1A
$GPGGA,030109.40,2234.49722585,N,11431.74538526,E,4,21,0.8,-4.4306,M,-1.3641,M,01,0000*57
$GPRMC,030109.40,A,2234.49722585,N,11431.74538526,E,0.717,270.9,071224,3.4,W,D*2A
$GNVTG,279.449,T,282.888,M,0.84913,N,1.57260,K,D*3D
$GNHDT,283.3099,T*11
$GPGGA,030109.60,2234.49723362,N,11431.74533498,E,4,21,0.8,-4.3763,M,-1.3641,M,01,0000*54
$GPRMC,030109.60,A,2234.49723362,N,11431.74533498,E,0.849,279.4,071224,3.4,W,D*29
$GNVTG,275.585,T,279.024,M,1.10806,N,2.05213,K,D*33
$GNHDT,283.6191,T*1D
$GPGGA,030109.80,2234.49723964,N,11431.74526878,E,4,21,0.8,-4.3172,M,-1.3641,M,00,0000*57
$GPRMC,030109.80,A,2234.49723964,N,11431.74526878,E,1.108,275.6,071224,3.4,W,D*2E
$GNVTG,280.468,T,283.907,M,0.78244,N,1.44908,K,D*32
$GNHDT,283.7722,T*12
$GPGGA,030110.00,2234.49724756,N,11431.74522259,E,4,21,0.8,-4.2986,M,-1.3642,M,01,0000*52
$GPRMC,030110.00,A,2234.49724756,N,11431.74522259,E,0.782,280.5,071224,3.4,W,D*27
$GNVTG,289.132,T,292.571,M,0.61205,N,1.13351,K,D*35
$GNHDT,284.1982,T*17
$GPGGA,030110.20,2234.49725874,N,11431.74518788,E,4,21,0.8,-4.2987,M,-1.3642,M,01,0000*5F
$GPRMC,030110.20,A,2234.49725874,N,11431.74518788,E,0.612,289.1,071224,3.4,W,D*2E
$GNVTG,304.655,T,308.095,M,0.34346,N,0.63609,K,D*32
$GNHDT,284.1840,T*18
$GPGGA,030110.40,2234.49726963,N,11431.74517092,E,4,20,0.8,-4.4022,M,-1.3642,M,01,0000*5F
$GPRMC,030110.40,A,2234.49726963,N,11431.74517092,E,0.343,304.7,071224,3.4,W,D*2C
$GNVTG,308.705,T,312.145,M,0.40745,N,0.75460,K,D*33
$GNHDT,284.4333,T*12
$GPGGA,030110.60,2234.49728383,N,11431.74515184,E,4,20,0.8,-4.4653,M,-1.3642,M,01,0000*53
$GPRMC,030110.60,A,2234.49728383,N,11431.74515184,E,0.407,308.7,071224,3.4,W,D*2B
$GNVTG,311.481,T,314.920,M,0.32604,N,0.60382,K,D*37
$GNHDT,284.5674,T*15
$GPGGA,030110.80,2234.49729587,N,11431.74513717,E,4,20,0.8,-4.4763,M,-1.3642,M,00,0000*57
$GPRMC,030110.80,A,2234.49729587,N,11431.74513717,E,0.326,311.5,071224,3.4,W,D*22
$GNVTG,288.911,T,292.350,M,0.70751,N,1.31031,K,D*39
$GNHDT,284.5722,T*17
$GPGGA,030111.00,2234.49730866,N,11431.74509700,E,4,20,0.8,-4.4572,M,-1.3642,M,01,0000*5A
$GPRMC,030111.00,A,2234.49730866,N,11431.74509700,E,0.708,288.9,071224,3.4,W,D*29
$GNVTG,277.805,T,281.244,M,0.92826,N,1.71913,K,D*35
$GNHDT,284.5297,T*1C
$GPGGA,030111.20,2234.49731568,N,11431.74504179,E,4,20,0.8,-4.4887,M,-1.3642,M,01,0000*58
$GPRMC,030111.20,A,2234.49731568,N,11431.74504179,E,0.928,277.8,071224,3.4,W,D*21
$GNVTG,273.642,T,277.081,M,1.22840,N,2.27499,K,D*3B
$GNHDT,284.7693,T*1E
$GPGGA,030111.40,2234.49732003,N,11431.74496820,E,4,20,0.8,-4.3413,M,-1.3642,M,01,0000*5C
$GPRMC,030111.40,A,2234.49732003,N,11431.74496820,E,1.228,273.6,071224,3.4,W,D*23
$GNVTG,272.013,T,275.452,M,1.01506,N,1.87990,K,D*33
$GNHDT,284.5671,T*10
$GPGGA,030111.60,2234.49732202,N,11431.74490731,E,4,21,0.8,-4.3149,M,-1.3642,M,01,0000*5F
$GPRMC,030111.60,A,2234.49732202,N,11431.74490731,E,1.015,272.0,071224,3.4,W,D*20
$GNVTG,274.548,T,277.987,M,0.76041,N,1.40827,K,D*38
$GNHDT,284.6401,T*16
$GPGGA,030111.80,2234.49732538,N,11431.74486180,E,4,21,0.8,-4.3164,M,-1.3642,M,01,0000*5B
$GPRMC,030111.80,A,2234.49732538,N,11431.74486180,E,0.760,274.5,071224,3.4,W,D*2C
$GNVTG,279.284,T,282.723,M,0.38026,N,0.70424,K,D*3E
$GNHDT,284.4398,T*13
$GPGGA,030112.00,2234.49732880,N,11431.74483928,E,4,21,0.8,-4.3373,M,-1.3642,M,02,0000*56
$GPRMC,030112.00,A,2234.49732880,N,11431.74483928,E,0.380,279.3,071224,3.4,W,D*27
$GNVTG,282.147,T,285.587,M,0.26400,N,0.48893,K,D*39
$GNHDT,284.5303,T*10
$GPGGA,030112.20,2234.49733190,N,11431.74482378,E,4,21,0.8,-4.4206,M,-1.3642,M,02,0000*57
$GPRMC,030112.20,A,2234.49733190,N,11431.74482378,E,0.264,282.1,071224,3.4,W,D*2F
$GNVTG,220.805,T,224.245,M,0.05154,N,0.09546,K,D*39
$GNHDT,285.3566,T*12
$GPGGA,030112.40,2234.49732972,N,11431.74482176,E,4,20,0.8,-4.5910,M,-1.3642,M,01,0000*57
$GPRMC,030112.40,A,2234.49732972,N,11431.74482176,E,0.052,220.8,071224,3.4,W,D*26
$GNVTG,289.409,T,292.849,M,0.23840,N,0.44151,K,D*32
$GNHDT,285.3360,T*12
$GPGGA,030112.60,2234.49733414,N,11431.74480827,E,4,19,0.8,-4.6669,M,-1.3642,M,01,0000*5E
$GPRMC,030112.60,A,2234.49733414,N,11431.74480827,E,0.238,289.4,071224,3.4,W,D*26
$GNVTG,282.690,T,286.129,M,0.51856,N,0.96038,K,D*32
$GNHDT,285.6140,T*17
$GPGGA,030112.80,2234.49734049,N,11431.74477790,E,4,19,0.8,-4.6476,M,-1.3642,M,00,0000*5D
$GPRMC,030112.80,A,2234.49734049,N,11431.74477790,E,0.519,282.7,071224,3.4,W,D*24
$GNVTG,282.896,T,286.335,M,0.62738,N,1.16191,K,D*39
$GNHDT,285.1281,T*1E
$GPGGA,030113.00,2234.49734830,N,11431.74474119,E,4,19,0.8,-4.6137,M,-1.3642,M,01,0000*57
$GPRMC,030113.00,A,2234.49734830,N,11431.74474119,E,0.627,282.9,071224,3.4,W,D*2F
$GNVTG,278.036,T,281.476,M,0.60848,N,1.12691,K,D*30
$GNHDT,285.8013,T*1E
$GPGGA,030113.20,2234.49735304,N,11431.74470502,E,4,19,0.8,-4.5804,M,-1.3642,M,01,0000*58
$GPRMC,030113.20,A,2234.49735304,N,11431.74470502,E,0.608,278.0,071224,3.4,W,D*2B
$GNVTG,285.639,T,289.078,M,0.70843,N,1.31202,K,D*3C
$GNHDT,285.6860,T*1C
$GPGGA,030113.40,2234.49736368,N,11431.74466407,E,4,19,0.8,-4.5220,M,-1.3642,M,01,0000*58
$GPRMC,030113.40,A,2234.49736368,N,11431.74466407,E,0.708,285.6,071224,3.4,W,D*22
$GNVTG,298.395,T,301.834,M,0.18349,N,0.33983,K,D*3C
$GNHDT,285.7008,T*1B
$GPGGA,030113.60,2234.49736855,N,11431.74465438,E,4,21,0.8,-4.5041,M,-1.3642,M,01,0000*5E
$GPRMC,030113.60,A,2234.49736855,N,11431.74465438,E,0.183,298.4,071224,3.4,W,D*21
$GNVTG,314.003,T,317.443,M,0.12761,N,0.23633,K,D*3F
$GNHDT,285.8193,T*17
$GPGGA,030113.80,2234.49737349,N,11431.74464887,E,4,19,0.8,-4.5493,M,-1.3642,M,00,0000*5F
$GPRMC,030113.80,A,2234.49737349,N,11431.74464887,E,0.128,314.0,071224,3.4,W,D*21
$GNVTG,11.155,T,14.594,M,0.16986,N,0.31457,K,D*30
$GNHDT,285.3301,T*15
$GPGGA,030114.00,2234.49738278,N,11431.74465084,E,4,19,0.8,-4.5368,M,-1.3642,M,01,0000*54
$GPRMC,030114.00,A,2234.49738278,N,11431.74465084,E,0.170,11.2,071224,3.4,W,D*11
$GNVTG,283.787,T,287.226,M,0.21417,N,0.39664,K,D*3D
$GNHDT,285.8378,T*10
$GPGGA,030114.20,2234.49738563,N,11431.74463835,E,4,19,0.8,-4.6065,M,-1.3642,M,01,0000*52
$GPRMC,030114.20,A,2234.49738563,N,11431.74463835,E,0.214,283.8,071224,3.4,W,D*28
$GNVTG,293.912,T,297.352,M,0.26852,N,0.49730,K,D*30
$GNHDT,286.4104,T*16
$GPGGA,030114.40,2234.49739169,N,11431.74462362,E,4,19,0.8,-4.5941,M,-1.3642,M,01,0000*5F
$GPRMC,030114.40,A,2234.49739169,N,11431.74462362,E,0.269,293.9,071224,3.4,W,D*23
$GNVTG,282.153,T,285.593,M,0.38794,N,0.71846,K,D*3A
$GNHDT,286.5468,T*18
$GPGGA,030114.60,2234.49739625,N,11431.74460085,E,4,21,0.8,-4.5629,M,-1.3642,M,01,0000*50
$GPRMC,030114.60,A,2234.49739625,N,11431.74460085,E,0.388,282.2,071224,3.4,W,D*23
$GNVTG,287.781,T,291.220,M,0.40025,N,0.74126,K,D*34
$GNHDT,286.6608,T*1F
