,4,16,0.8,-4.4449,M,-1.3477,M,01,0000*53
$GPRMC,021235.00,A,2234.14151664,N,11431.86733356,E,3.059,39.4,071224,3.4,W,D*1D
$GNVTG,38.178,T,41.617,M,3.10800,N,5.75601,K,D*32
$GNHDT,333.0938,T*1A
$GPGGA,021235.20,2234.14165284,N,11431.86744887,E,4,16,0.8,-4.4394,M,-1.3477,M,01,0000*5C
$GPRMC,021235.20,A,2234.14165284,N,11431.86744887,E,3.108,38.2,071224,3.4,W,D*17
$GNVTG,39.829,T,43.268,M,3.09217,N,5.72671,K,D*34
$GNHDT,333.7095,T*13
$GPGGA,021235.40,2234.14178522,N,11431.86756776,E,4,15,0.9,-4.4480,M,-1.3477,M,01,0000*5F
$GPRMC,021235.40,A,2234.14178522,N,11431.86756776,E,3.092,39.8,071224,3.4,W,D*1D
$GNVTG,42.062,T,45.501,M,3.16744,N,5.86610,K,D*30
$GNHDT,334.0167,T*1F
$GPGGA,021235.60,2234.14191631,N,11431.86769513,E,4,15,0.9,-4.4244,M,-1.3477,M,01,0000*58
$GPRMC,021235.60,A,2234.14191631,N,11431.86769513,E,3.167,42.1,071224,3.4,W,D*1A
$GNVTG,41.638,T,45.077,M,3.17783,N,5.88534,K,D*3F
$GNHDT,333.9835,T*1F
$GPGGA,021235.80,2234.14204871,N,11431.86782187,E,4,15,0.9,-4.4119,M,-1.3477,M,00,0000*55
$GPRMC,021235.80,A,2234.14204871,N,11431.86782187,E,3.178,41.6,071224,3.4,W,D*17
$GNVTG,41.864,T,45.302,M,3.08624,N,5.71572,K,D*3F
$GNHDT,334.5964,T*11
$GPGGA,021236.00,2234.14217684,N,11431.86794550,E,4,15,0.9,-4.4090,M,-1.3476,M,01,0000*51
$GPRMC,021236.00,A,2234.14217684,N,11431.86794550,E,3.086,41.9,071224,3.4,W,D*1C
$GNVTG,40.530,T,43.968,M,3.20121,N,5.92865,K,D*3C
$GNHDT,334.5886,T*1C
$GPGGA,021236.20,2234.14231248,N,11431.86807037,E,4,15,0.9,-4.4255,M,-1.3476,M,01,0000*59
$GPRMC,021236.20,A,2234.14231248,N,11431.86807037,E,3.201,40.5,071224,3.4,W,D*1F
$GNVTG,42.820,T,46.259,M,3.16801,N,5.86716,K,D*3E
$GNHDT,334.5708,T*15
$GPGGA,021236.40,2234.14244202,N,11431.86819962,E,4,15,0.9,-4.4388,M,-1.3476,M,01,0000*54
$GPRMC,021236.40,A,2234.14244202,N,11431.86819962,E,3.168,42.8,071224,3.4,W,D*10
$GNVTG,41.532,T,44.970,M,3.08261,N,5.70898,K,D*32
$GNHDT,335.2951,T*11
$GPGGA,021236.60,2234.14257067,N,11431.86832231,E,4,15,0.9,-4.4392,M,-1.3477,M,01,0000*5B
$GPRMC,021236.60,A,2234.14257067,N,11431.86832231,E,3.083,41.5,071224,3.4,W,D*1F
$GNVTG,42.415,T,45.853,M,3.16643,N,5.86423,K,D*3A
$GNHDT,335.3813,T*17
$GPGGA,021236.80,2234.14270099,N,11431.86845051,E,4,15,0.9,-4.4483,M,-1.3476,M,00,0000*52
$GPRMC,021236.80,A,2234.14270099,N,11431.86845051,E,3.166,42.4,071224,3.4,W,D*19
$GNVTG,42.233,T,45.671,M,3.10917,N,5.75817,K,D*39
$GNHDT,336.1642,T*1C
$GPGGA,021237.00,2234.14282932,N,11431.86857595,E,4,15,0.9,-4.4269,M,-1.3476,M,01,0000*53
$GPRMC,021237.00,A,2234.14282932,N,11431.86857595,E,3.109,42.2,071224,3.4,W,D*14
$GNVTG,44.392,T,47.831,M,3.20194,N,5.93000,K,D*3B
$GNHDT,336.0501,T*19
$GPGGA,021237.20,2234.14295687,N,11431.86871040,E,4,15,0.9,-4.4027,M,-1.3476,M,01,0000*57
$GPRMC,021237.20,A,2234.14295687,N,11431.86871040,E,3.202,44.4,071224,3.4,W,D*10
$GNVTG,43.905,T,47.343,M,3.24972,N,6.01847,K,D*31
$GNHDT,336.5470,T*1B
$GPGGA,021237.40,2234.14308740,N,11431.86884567,E,4,15,0.9,-4.4365,M,-1.3476,M,01,0000*51
$GPRMC,021237.40,A,2234.14308740,N,11431.86884567,E,3.250,43.9,071224,3.4,W,D*1E
$GNVTG,43.611,T,47.049,M,3.19134,N,5.91035,K,D*31
$GNHDT,336.6023,T*1A
$GPGGA,021237.60,2234.14321621,N,11431.86897780,E,4,15,0.9,-4.4470,M,-1.3476,M,01,0000*54
$GPRMC,021237.60,A,2234.14321621,N,11431.86897780,E,3.191,43.6,071224,3.4,W,D*19
$GNVTG,42.781,T,46.219,M,3.18493,N,5.89850,K,D*35
$GNHDT,336.7870,T*15
$GPGGA,021237.80,2234.14334653,N,11431.86910765,E,4,15,0.9,-4.4685,M,-1.3476,M,00,0000*57
$GPRMC,021237.80,A,2234.14334653,N,11431.86910765,E,3.185,42.8,071224,3.4,W,D*19
$GNVTG,44.698,T,48.137,M,3.13329,N,5.80285,K,D*3D
$GNHDT,336.9337,T*13
$GPGGA,021238.00,2234.14347069,N,11431.86923994,E,4,15,0.9,-4.4787,M,-1.3476,M,01,0000*59
$GPRMC,021238.00,A,2234.14347069,N,11431.86923994,E,3.133,44.7,071224,3.4,W,D*11
$GNVTG,41.910,T,45.348,M,3.05681,N,5.66121,K,D*35
$GNHDT,337.1013,T*1F
$GPGGA,021238.20,2234.14359751,N,11431.86936250,E,4,15,0.9,-4.4809,M,-1.3476,M,01,0000*56
$GPRMC,021238.20,A,2234.14359751,N,11431.86936250,E,3.057,41.9,071224,3.4,W,D*1F
$GNVTG,46.045,T,49.483,M,3.17414,N,5.87851,K,D*3B
$GNHDT,337.3217,T*1B
$GPGGA,021238.40,2234.14372033,N,11431.86949966,E,4,15,0.9,-4.4477,M,-1.3476,M,01,0000*59
$GPRMC,021238.40,A,2234.14372033,N,11431.86949966,E,3.174,46.0,071224,3.4,W,D*1B
$GNVTG,43.612,T,47.051,M,3.11218,N,5.76376,K,D*33
$GNHDT,337.5985,T*1D
$GPGGA,021238.60,2234.14384594,N,11431.86962852,E,4,15,0.9,-4.4194,M,-1.3476,M,01,0000*5D
$GPRMC,021238.60,A,2234.14384594,N,11431.86962852,E,3.112,43.6,071224,3.4,W,D*14
$GNVTG,45.129,T,48.567,M,3.14546,N,5.82540,K,D*34
$GNHDT,337.6326,T*1D
$GPGGA,021238.80,2234.14396965,N,11431.86976232,E,4,15,0.9,-4.4097,M,-1.3476,M,00,0000*58
$GPRMC,021238.80,A,2234.14396965,N,11431.86976232,E,3.145,45.1,071224,3.4,W,D*11
$GNVTG,45.289,T,48.728,M,3.19947,N,5.92541,K,D*34
$GNHDT,337.5619,T*17
$GPGGA,021239.00,2234.14409514,N,11431.86989881,E,4,15,0.9,-4.4520,M,-1.3476,M,01,0000*50
$GPRMC,021239.00,A,2234.14409514,N,11431.86989881,E,3.199,45.3,071224,3.4,W,D*12
$GNVTG,44.280,T,47.719,M,3.22327,N,5.96949,K,D*35
$GNHDT,337.5312,T*19
$GPGGA,021239.20,2234.14422378,N,11431.87003389,E,4,15,0.9,-4.4916,M,-1.3476,M,01,0000*57
$GPRMC,021239.20,A,2234.14422378,N,11431.87003389,E,3.223,44.3,071224,3.4,W,D*1F
$GNVTG,44.204,T,47.642,M,3.01174,N,5.57774,K,D*3E
$GNHDT,338.0491,T*1F
$GPGGA,021239.40,2234.14434414,N,11431.87015993,E,4,15,0.9,-4.4956,M,-1.3476,M,01,0000*59
$GPRMC,021239.40,A,2234.14434414,N,11431.87015993,E,3.012,44.2,071224,3.4,W,D*14
$GNVTG,44.298,T,47.736,M,3.02556,N,5.60333,K,D*3D
$GNHDT,337.8861,T*1B
$GPGGA,021239.60,2234.14446486,N,11431.87028676,E,4,16,0.8,-4.4621,M,-1.3476,M,01,0000*52
$GPRMC,021239.60,A,2234.14446486,N,11431.87028676,E,3.026,44.3,071224,3.4,W,D*14
$GNVTG,48.046,T,51.485,M,3.06264,N,5.67201,K,D*39
$GNHDT,338.3847,T*1B
$GPGGA,021239.80,2234.14457900,N,11431.87042348,E,4,16,0.8,-4.4394,M,-1.3476,M,00,0000*51
$GPRMC,021239.80,A,2234.14457900,N,11431.87042348,E,3.063,48.0,071224,3.4,W,D*13
$GNVTG,49.159,T,52.598,M,3.10048,N,5.74210,K,D*30
$GNHDT,338.2180,T*18
$GPGGA,021240.00,2234.14469203,N,11431.87056428,E,4,16,0.8,-4.4089,M,-1.3476,M,01,0000*58
$GPRMC,021240.00,A,2234.14469203,N,11431.87056428,E,3.100,49.2,071224,3.4,W,D*13
$GNVTG,45.945,T,49.384,M,3.16133,N,5.85479,K,D*34
$GNHDT,339.0431,T*14
$GPGGA,021240.20,2234.14481458,N,11431.87070066,E,4,16,0.8,-4.4275,M,-1.3475,M,01,0000*5C
$GPRMC,021240.20,A,2234.14481458,N,11431.87070066,E,3.161,45.9,071224,3.4,W,D*15
$GNVTG,48.253,T,51.692,M,3.37804,N,6.25614,K,D*30
$GNHDT,338.0479,T*19
$GPGGA,021240.40,2234.14493996,N,11431.87085194,E,4,16,0.8,-4.4225,M,-1.3476,M,01,0000*56
$GPRMC,021240.40,A,2234.14493996,N,11431.87085194,E,3.378,48.3,071224,3.4,W,D*14
$GNVTG,43.273,T,46.712,M,3.15703,N,5.84682,K,D*39
$GNHDT,337.9574,T*13
$GPGGA,021240.60,2234.14506811,N,11431.87098184,E,4,16,0.8,-4.4236,M,-1.3476,M,01,0000*58
$GPRMC,021240.60,A,2234.14506811,N,11431.87098184,E,3.157,43.3,071224,3.4,W,D*1C
$GNVTG,43.594,T,47.033,M,3.12784,N,5.79276,K,D*37
$GNHDT,337.7356,T*1B
$GPGGA,021240.80,2234.14519439,N,11431.87111130,E,4,16,0.8,-4.4417,M,-1.3475,M,00,0000*56
$GPRMC,021240.80,A,2234.14519439,N,11431.87111130,E,3.128,43.6,071224,3.4,W,D*18
$GNVTG,44.158,T,47.597,M,3.15950,N,5.85139,K,D*34
$GNHDT,337.3718,T*11
$GPGGA,021241.00,2234.14532075,N,11431.87124342,E,4,16,0.8,-4.4392,M,-1.3475,M,01,0000*50
$GPRMC,021241.00,A,2234.14532075,N,11431.87124342,E,3.159,44.2,071224,3.4,W,D*10
$GNVTG,46.137,T,49.576,M,2.98875,N,5.53516,K,D*3E
$GNHDT,337.5535,T*1A
$GPGGA,021241.20,2234.14543620,N,11431.87137277,E,4,16,0.8,-4.4313,M,-1.3475,M,01,0000*5E
$GPRMC,021241.20,A,2234.14543620,N,11431.87137277,E,2.989,46.1,071224,3.4,W,D*12
$GNVTG,48.726,T,52.165,M,3.08380,N,5.71119,K,D*38
$GNHDT,337.3426,T*1F
$GPGGA,021241.40,2234.14554961,N,11431.87151189,E,4,16,0.8,-4.4109,M,-1.3475,M,01,0000*5F
$GPRMC,021241.40,A,2234.14554961,N,11431.87151189,E,3.084,48.7,071224,3.4,W,D*17
$GNVTG,46.025,T,49.464,M,3.05541,N,5.65862,K,D*3A
$GNHDT,336.9461,T*17
$GPGGA,021241.60,2234.14566788,N,11431.87164387,E,4,16,0.8,-4.3837,M,-1.3475,M,01,0000*5C
$GPRMC,021241.60,A,2234.14566788,N,11431.87164387,E,3.055,46.0,071224,3.4,W,D*12
$GNVTG,42.802,T,46.241,M,3.08158,N,5.70708,K,D*3B
$GNHDT,337.1057,T*1F
$GPGGA,021241.80,2234.14579392,N,11431.87176956,E,4,16,0.8,-4.4032,M,-1.3475,M,00,0000*5D
$GPRMC,021241.80,A,2234.14579392,N,11431.87176956,E,3.082,42.8,071224,3.4,W,D*1E
$GNVTG,46.784,T,50.223,M,3.12436,N,5.78631,K,D*38
$GNHDT,336.8507,T*17
$GPGGA,021242.00,2234.14591318,N,11431.87190624,E,4,16,0.8,-4.4464,M,-1.3475,M,01,0000*56
$GPRMC,021242.00,A,2234.14591318,N,11431.87190624,E,3.124,46.8,071224,3.4,W,D*1A
$GNVTG,45.526,T,48.965,M,3.07566,N,5.69612,K,D*30
$GNHDT,336.6930,T*11
$GPGGA,021242.20,2234.14603330,N,11431.87203797,E,4,16,0.8,-4.4645,M,-1.3475,M,01,0000*57
$GPRMC,021242.20,A,2234.14603330,N,11431.87203797,E,3.076,45.5,071224,3.4,W,D*12
$GNVTG,43.838,T,47.277,M,3.06053,N,5.66809,K,D*3A
$GNHDT,336.6537,T*1A
$GPGGA,021242.40,2234.14615637,N,11431.87216522,E,4,16,0.8,-4.4619,M,-1.3475,M,01,0000*55
$GPRMC,021242.40,A,2234.14615637,N,11431.87216522,E,3.061,43.8,071224,3.4,W,D*14
$GNVTG,45.556,T,48.994,M,3.15904,N,5.85055,K,D*35
$GNHDT,336.9690,T*1B
$GPGGA,021242.60,2234.14627968,N,11431.87230059,E,4,16,0.8,-4.4325,M,-1.3475,M,01,0000*54
$GPRMC,021242.60,A,2234.14627968,N,11431.87230059,E,3.159,45.6,071224,3.4,W,D*1D
$GNVTG,43.175,T,46.613,M,3.10280,N,5.74638,K,D*39
$GNHDT,336.8851,T*19
$GPGGA,021242.80,2234.14640583,N,11431.87242803,E,4,16,0.8,-4.4112,M,-1.3475,M,00,0000*57
$GPRMC,021242.80,A,2234.14640583,N,11431.87242803,E,3.103,43.2,071224,3.4,W,D*14
$GNVTG,43.830,T,47.269,M,3.12989,N,5.79655,K,D*3F
$GNHDT,336.4572,T*19
$GPGGA,021243.00,2234.14653170,N,11431.87255813,E,4,16,0.8,-4.3967,M,-1.3475,M,01,0000*5F
$GPRMC,021243.00,A,2234.14653170,N,11431.87255813,E,3.130,43.8,071224,3.4,W,D*1A
$GNVTG,44.125,T,47.564,M,3.08496,N,5.71334,K,D*3D
$GNHDT,336.0482,T*13
$GPGGA,021243.20,2234.14665515,N,11431.87268706,E,4,16,0.8,-4.3821,M,-1.3475,M,01,0000*59
$GPRMC,021243.20,A,2234.14665515,N,11431.87268706,E,3.085,44.1,071224,3.4,W,D*1E
$GNVTG,45.453,T,48.891,M,2.95627,N,5.47501,K,D*38
$GNHDT,335.9521,T*11
$GPGGA,021243.40,2234.14677076,N,11431.87281352,E,4,16,0.8,-4.4180,M,-1.3475,M,01,0000*5B
$GPRMC,021243.40,A,2234.14677076,N,11431.87281352,E,2.956,45.5,071224,3.4,W,D*1A
$GNVTG,47.000,T,50.438,M,3.11042,N,5.76050,K,D*35
$GNHDT,335.7640,T*1B
$GPGGA,021243.60,2234.14688901,N,11431.87295007,E,4,16,0.8,-4.4479,M,-1.3475,M,01,0000*55
$GPRMC,021243.60,A,2234.14688901,N,11431.87295007,E,3.110,47.0,071224,3.4,W,D*1B
$GNVTG,44.376,T,47.815,M,3.07698,N,5.69857,K,D*36
$GNHDT,336.1042,T*1A
$GPGGA,021243.80,2234.14701162,N,11431.87307924,E,4,16,0.8,-4.4809,M,-1.3475,M,01,0000*5F
$GPRMC,021243.80,A,2234.14701162,N,11431.87307924,E,3.077,44.4,071224,3.4,W,D*1D
$GNVTG,45.132,T,48.571,M,3.14690,N,5.82807,K,D*3F
$GNHDT,335.5673,T*19
$GPGGA,021244.00,2234.14713538,N,11431.87321312,E,4,16,0.8,-4.4978,M,-1.3475,M,02,0000*57
$GPRMC,021244.00,A,2234.14713538,N,11431.87321312,E,3.147,45.1,071224,3.4,W,D*17
$GNVTG,42.199,T,45.638,M,3.23575,N,5.99260,K,D*37
$GNHDT,335.2832,T*15
$GPGGA,021244.20,2234.14726901,N,11431.87334358,E,4,16,0.8,-4.4852,M,-1.3475,M,02,0000*56
$GPRMC,021244.20,A,2234.14726901,N,11431.87334358,E,3.236,42.2,071224,3.4,W,D*1E
$GNVTG,44.728,T,48.166,M,3.16712,N,5.86550,K,D*33
$GNHDT,335.7653,T*19
$GPGGA,021244.40,2234.14739445,N,11431.87347737,E,4,15,0.9,-4.4729,M,-1.3475,M,02,0000*5B
$GPRMC,021244.40,A,2234.14739445,N,11431.87347737,E,3.167,44.7,071224,3.4,W,D*16
$GNVTG,44.622,T,48.060,M,3.14747,N,5.82911,K,D*30
$GNHDT,335.8161,T*10
$GPGGA,021244.60,2234.14751934,N,11431.87361008,E,4,15,0.9,-4.4356,M,-1.3475,M,00,0000*5D
$GPRMC,021244.60,A,2234.14751934,N,11431.87361008,E,3.147,44.6,071224,3.4,W,D*1D
$GNVTG,46.220,T,49.658,M,3.11081,N,5.76122,K,D*33
$GNHDT,335.9377,T*14
$GPGGA,021244.80,2234.14763932,N,11431.87374490,E,4,15,0.9,-4.4006,M,-1.3475,M,00,0000*53
$GPRMC,021244.80,A,2234.14763932,N,11431.87374490,E,3.111,46.2,071224,3.4,W,D*10
$GNVTG,46.152,T,49.590,M,3.13992,N,5.81512,K,D*34
$GNHDT,336.2066,T*1F
$GPGGA,021245.00,2234.14776059,N,11431.87388082,E,4,15,0.9,-4.3819,M,-1.3474,M,01,0000*5F
$GPRMC,021245.00,A,2234.14776059,N,11431.87388082,E,3.140,46.2,071224,3.4,W,D*19
$GNVTG,43.053,T,46.491,M,3.19433,N,5.91590,K,D*39
$GNHDT,336.0233,T*1F
$GPGGA,021245.20,2234.14789071,N,11431.87401172,E,4,15,0.9,-4.3961,M,-1.3474,M,01,0000*51
$GPRMC,021245.20,A,2234.14789071,N,11431.87401172,E,3.194,43.1,071224,3.4,W,D*16
$GNVTG,40.308,T,43.747,M,3.16852,N,5.86810,K,D*3D
$GNHDT,335.8907,T*18
$GPGGA,021245.40,2234.14802541,N,11431.87413475,E,4,15,0.9,-4.4411,M,-1.3474,M,01,0000*51
$GPRMC,021245.40,A,2234.14802541,N,11431.87413475,E,3.169,40.3,071224,3.4,W,D*18
$GNVTG,44.144,T,47.583,M,3.21850,N,5.96067,K,D*32
$GNHDT,335.1280,T*15
$GPGGA,021245.60,2234.14815416,N,11431.87426930,E,4,15,0.9,-4.4780,M,-1.3474,M,00,0000*56
$GPRMC,021245.60,A,2234.14815416,N,11431.87426930,E,3.219,44.1,071224,3.4,W,D*17
$GNVTG,45.293,T,48.731,M,3.09241,N,5.72714,K,D*37
$GNHDT,335.6168,T*17
$GPGGA,021245.80,2234.14827544,N,11431.87440123,E,4,16,0.8,-4.4962,M,-1.3474,M,00,0000*55
$GPRMC,021245.80,A,2234.14827544,N,11431.87440123,E,3.092,45.3,071224,3.4,W,D*16
$GNVTG,46.184,T,49.623,M,3.12445,N,5.78649,K,D*39
$GNHDT,336.0073,T*19
$GPGGA,021246.00,2234.14839603,N,11431.87453656,E,4,16,0.8,-4.4962,M,-1.3474,M,01,0000*57
$GPRMC,021246.00,A,2234.14839603,N,11431.87453656,E,3.124,46.2,071224,3.4,W,D*1B
$GNVTG,47.635,T,51.073,M,3.16905,N,5.86908,K,D*39
$GNHDT,335.9085,T*1A
$GPGGA,021246.20,2234.14851508,N,11431.87467711,E,4,16,0.8,-4.4607,M,-1.3474,M,01,0000*5A
$GPRMC,021246.20,A,2234.14851508,N,11431.87467711,E,3.169,47.6,071224,3.4,W,D*16
$GNVTG,45.238,T,48.677,M,3.07143,N,5.68829,K,D*30
$GNHDT,335.6190,T*10
$GPGGA,021246.40,2234.14863564,N,11431.87480801,E,4,16,0.8,-4.3767,M,-1.3474,M,01,0000*50
$GPRMC,021246.40,A,2234.14863564,N,11431.87480801,E,3.071,45.2,071224,3.4,W,D*12
$GNVTG,39.778,T,43.217,M,3.12972,N,5.79625,K,D*3F
$GNHDT,335.3271,T*19
$GPGGA,021246.60,2234.14876973,N,11431.87492821,E,4,16,0.8,-4.3348,M,-1.3474,M,00,0000*55
$GPRMC,021246.60,A,2234.14876973,N,11431.87492821,E,3.130,39.8,071224,3.4,W,D*1A
$GNVTG,43.806,T,47.245,M,3.21986,N,5.96318,K,D*36
$GNHDT,335.1251,T*19
$GPGGA,021246.80,2234.14889927,N,11431.87506200,E,4,16,0.8,-4.3284,M,-1.3474,M,00,0000*5E
$GPRMC,021246.80,A,2234.14889927,N,11431.87506200,E,3.220,43.8,071224,3.4,W,D*1F
$GNVTG,44.048,T,47.487,M,3.17052,N,5.87180,K,D*3D
$GNHDT,335.1877,T*17
$GPGGA,021247.00,2234.14902631,N,11431.87519432,E,4,16,0.8,-4.3876,M,-1.3474,M,01,0000*52
$GPRMC,021247.00,A,2234.14902631,N,11431.87519432,E,3.171,44.0,071224,3.4,W,D*1D
$GNVTG,45.847,T,49.286,M,3.05621,N,5.66010,K,D*34
$GNHDT,335.4814,T*17
$GPGGA,021247.20,2234.14914499,N,11431.87532594,E,4,16,0.8,-4.4834,M,-1.3474,M,01,0000*52
$GPRMC,021247.20,A,2234.14914499,N,11431.87532594,E,3.056,45.8,071224,3.4,W,D*11
$GNVTG,47.170,T,50.608,M,3.06065,N,5.66832,K,D*3C
$GNHDT,335.5998,T*13
$GPGGA,021247.40,2234.14926098,N,11431.87546067,E,4,16,0.8,-4.5106,M,-1.3474,M,01,0000*53
$GPRMC,021247.40,A,2234.14926098,N,11431.87546067,E,3.061,47.2,071224,3.4,W,D*15
$GNVTG,45.144,T,48.583,M,2.99626,N,5.54908,K,D*3F
$GNHDT,335.8500,T*13
$GPGGA,021247.60,2234.14937880,N,11431.87558817,E,4,16,0.8,-4.4508,M,-1.3474,M,00,0000*5A
$GPRMC,021247.60,A,2234.14937880,N,11431.87558817,E,2.996,45.1,071224,3.4,W,D*17
$GNVTG,44.994,T,48.432,M,3.05610,N,5.65990,K,D*32
$GNHDT,335.9827,T*1A
$GPGGA,021247.80,2234.14949928,N,11431.87571787,E,4,16,0.8,-4.3947,M,-1.3474,M,00,0000*53
$GPRMC,021247.80,A,2234.14949928,N,11431.87571787,E,3.056,45.0,071224,3.4,W,D*1B
$GNVTG,41.044,T,44.482,M,3.14643,N,5.82718,K,D*35
$GNHDT,335.5256,T*1A
$GPGGA,021248.00,2234.14963157,N,11431.87584188,E,4,16,0.8,-4.3390,M,-1.3474,M,01,0000*5E
$GPRMC,021248.00,A,2234.14963157,N,11431.87584188,E,3.146,41.0,071224,3.4,W,D*13
$GNVTG,47.165,T,50.603,M,3.23777,N,5.99635,K,D*39
$GNHDT,335.5339,T*12
$GPGGA,021248.20,2234.14975429,N,11431.87598440,E,4,16,0.8,-4.3663,M,-1.3474,M,01,0000*52
$GPRMC,021248.20,A,2234.14975429,N,11431.87598440,E,3.238,47.2,071224,3.4,W,D*18
$GNVTG,44.998,T,48.437,M,3.23187,N,5.98543,K,D*36
$GNHDT,335.4431,T*1C
$GPGGA,021248.40,2234.14988169,N,11431.87612157,E,4,16,0.8,-4.4900,M,-1.3474,M,01,0000*58
$GPRMC,021248.40,A,2234.14988169,N,11431.87612157,E,3.232,45.0,071224,3.4,W,D*15
$GNVTG,44.161,T,47.599,M,2.97582,N,5.51121,K,D*38
$GNHDT,335.5057,T*19
$GPGGA,021248.60,2234.15000070,N,11431.87624602,E,4,16,0.8,-4.5202,M,-1.3474,M,01,0000*51
$GPRMC,021248.60,A,2234.15000070,N,11431.87624602,E,2.976,44.2,071224,3.4,W,D*1D
$GNVTG,45.092,T,48.531,M,3.03213,N,5.61550,K,D*3B
$GNHDT,335.2783,T*10
$GPGGA,021248.80,2234.15012003,N,11431.87637492,E,4,16,0.8,-4.4888,M,-1.3474,M,01,0000*58
$GPRMC,021248.80,A,2234.15012003,N,11431.87637492,E,3.032,45.1,071224,3.4,W,D*17
$GNVTG,41.760,T,45.198,M,2.98880,N,5.53526,K,D*3C
$GNHDT,335.9126,T*12
$GPGGA,021249.00,2234.15024432,N,11431.87649440,E,4,16,0.8,-4.4562,M,-1.3474,M,02,0000*5E
$GPRMC,021249.00,A,2234.15024432,N,11431.87649440,E,2.989,41.8,071224,3.4,W,D*1E
$GNVTG,43.928,T,47.366,M,3.13227,N,5.80096,K,D*38
$GNHDT,336.0022,T*1D
$GPGGA,021249.20,2234.15037008,N,11431.87662484,E,4,15,0.9,-4.4344,M,-1.3473,M,02,0000*55
$GPRMC,021249.20,A,2234.15037008,N,11431.87662484,E,3.132,43.9,071224,3.4,W,D*18
$GNVTG,45.848,T,49.286,M,3.16582,N,5.86310,K,D*3E
$GNHDT,336.2426,T*1F
$GPGGA,021249.40,2234.15049302,N,11431.87676119,E,4,15,0.9,-4.4544,M,-1.3473,M,02,0000*51
$GPRMC,021249.40,A,2234.15049302,N,11431.87676119,E,3.166,45.8,071224,3.4,W,D*1C
$GNVTG,48.088,T,51.526,M,3.38555,N,6.27003,K,D*3C
$GNHDT,336.1600,T*1A
$GPGGA,021249.60,2234.15061909,N,11431.87691242,E,4,15,0.9,-4.5047,M,-1.3473,M,02,0000*5B
$GPRMC,021249.60,A,2234.15061909,N,11431.87691242,E,3.386,48.1,071224,3.4,W,D*19
$GNVTG,46.007,T,49.446,M,3.04003,N,5.63014,K,D*37
$GNHDT,336.1416,T*1F
$GPGGA,021249.80,2234.15073680,N,11431.87704370,E,4,15,0.9,-4.5108,M,-1.3473,M,02,0000*5F
$GPRMC,021249.80,A,2234.15073680,N,11431.87704370,E,3.040,46.0,071224,3.4,W,D*11
$GNVTG,45.759,T,49.197,M,3.08508,N,5.71356,K,D*35
$GNHDT,336.1226,T*1A
$GPGGA,021250.00,2234.15085679,N,11431.87717636,E,4,15,0.9,-4.4742,M,-1.3473,M,03,0000*5D
$GPRMC,021250.00,A,2234.15085679,N,11431.87717636,E,3.085,45.8,071224,3.4,W,D*19
$GNVTG,44.383,T,47.822,M,3.14219,N,5.81933,K,D*32
$GNHDT,336.4320,T*18
$GPGGA,021250.20,2234.15098198,N,11431.87730829,E,4,15,0.9,-4.4459,M,-1.3473,M,03,0000*57
$GPRMC,021250.20,A,2234.15098198,N,11431.87730829,E,3.142,44.4,071224,3.4,W,D*1D
$GNVTG,41.337,T,44.776,M,3.18348,N,5.89580,K,D*30
$GNHDT,336.6426,T*1B
$GPGGA,021250.40,2234.15111523,N,11431.87743450,E,4,15,0.9,-4.4226,M,-1.3473,M,03,0000*5D
$GPRMC,021250.40,A,2234.15111523,N,11431.87743450,E,3.183,41.3,071224,3.4,W,D*16
$GNVTG,45.466,T,48.905,M,3.16271,N,5.85735,K,D*34
$GNHDT,336.6797,T*12
$GPGGA,021250.60,2234.15123888,N,11431.87756983,E,4,16,0.8,-4.4464,M,-1.3473,M,03,0000*57
$GPRMC,021250.60,A,2234.15123888,N,11431.87756983,E,3.163,45.5,071224,3.4,W,D*12
$GNVTG,48.036,T,51.474,M,3.18047,N,5.89023,K,D*3E
$GNHDT,336.8167,T*15
$GPGGA,021250.80,2234.15135744,N,11431.87771178,E,4,16,0.8,-4.4644,M,-1.3473,M,03,0000*58
$GPRMC,021250.80,A,2234.15135744,N,11431.87771178,E,3.180,48.0,071224,3.4,W,D*18
$GNVTG,46.686,T,50.125,M,3.10896,N,5.75780,K,D*3C
$GNHDT,336.9105,T*10
$GPGGA,021251.00,2234.15147633,N,11431.87784757,E,4,16,0.8,-4.4435,M,-1.3473,M,04,0000*57
$GPRMC,021251.00,A,2234.15147633,N,11431.87784757,E,3.109,46.7,071224,3.4,W,D*1C
$GNVTG,45.178,T,48.616,M,3.12787,N,5.79281,K,D*32
$GNHDT,336.6998,T*13
$GPGGA,021251.20,2234.15159925,N,11431.87798074,E,4,16,0.8,-4.4174,M,-1.3473,M,04,0000*59
$GPRMC,021251.20,A,2234.15159925,N,11431.87798074,E,3.128,45.2,071224,3.4,W,D*17
$GNVTG,45.831,T,49.270,M,3.05108,N,5.65061,K,D*35
$GNHDT,337.2315,T*19
$GPGGA,021251.40,2234.15171776,N,11431.87811211,E,4,16,0.8,-4.4011,M,-1.3473,M,04,0000*50
$GPRMC,021251.40,A,2234.15171776,N,11431.87811211,E,3.051,45.8,071224,3.4,W,D*19
$GNVTG,46.774,T,50.213,M,3.24715,N,6.01372,K,D*3C
$GNHDT,337.0518,T*10
$GPGGA,021251.60,2234.15184174,N,11431.87825413,E,4,16,0.8,-4.3688,M,-1.3473,M,04,0000*5E
$GPRMC,021251.60,A,2234.15184174,N,11431.87825413,E,3.247,46.8,071224,3.4,W,D*10
$GNVTG,47.477,T,50.915,M,3.14342,N,5.82162,K,D*3E
$GNHDT,337.1193,T*16
$GPGGA,021251.80,2234.15196018,N,11431.87839319,E,4,16,0.8,-4.3934,M,-1.3473,M,00,0000*54
$GPRMC,021251.80,A,2234.15196018,N,11431.87839319,E,3.143,47.5,071224,3.4,W,D*1D
$GNVTG,45.485,T,48.924,M,3.13400,N,5.80416,K,D*38
$GNHDT,337.9331,T*14
$GPGGA,021252.00,2234.15208267,N,11431.87852733,E,4,16,0.8,-4.3949,M,-1.3473,M,01,0000*5B
$GPRMC,021252.00,A,2234.15208267,N,11431.87852733,E,3.134,45.5,071224,3.4,W,D*1B
$GNVTG,46.563,T,50.002,M,3.20207,N,5.93024,K,D*30
$GNHDT,337.6482,T*14
$GPGGA,021252.20,2234.15220540,N,11431.87866690,E,4,16,0.8,-4.3970,M,-1.3473,M,01,0000*54
$GPRMC,021252.20,A,2234.15220540,N,11431.87866690,E,3.202,46.6,071224,3.4,W,D*18
$GNVTG,44.726,T,48.165,M,3.09954,N,5.74035,K,D*37
$GNHDT,338.0247,T*12
$GPGGA,021252.40,2234.15232817,N,11431.87879783,E,4,16,0.8,-4.4175,M,-1.3473,M,01,0000*59
$GPRMC,021252.40,A,2234.15232817,N,11431.87879783,E,3.100,44.7,071224,3.4,W,D*1D
$GNVTG,46.812,T,50.251,M,3.07743,N,5.69940,K,D*31
$GNHDT,338.8579,T*10
$GPGGA,021252.60,2234.15244558,N,11431.87893251,E,4,16,0.8,-4.4153,M,-1.3473,M,01,0000*56
$GPRMC,021252.60,A,2234.15244558,N,11431.87893251,E,3.077,46.8,071224,3.4,W,D*1A
$GNVTG,47.990,T,51.429,M,3.07508,N,5.69504,K,D*32
$GNHDT,338.4116,T*11
$GPGGA,021252.80,2234.15256031,N,11431.87906967,E,4,16,0.8,-4.4009,M,-1.3473,M,01,0000*5C
$GPRMC,021252.80,A,2234.15256031,N,11431.87906967,E,3.075,48.0,071224,3.4,W,D*1A
$GNVTG,47.606,T,51.044,M,3.20852,N,5.94218,K,D*32
$GNHDT,338.2568,T*1A
$GPGGA,021253.00,2234.15268091,N,11431.87921190,E,4,16,0.8,-4.4191,M,-1.3473,M,02,0000*54
$GPRMC,021253.00,A,2234.15268091,N,11431.87921190,E,3.209,47.6,071224,3.4,W,D*11
$GNVTG,47.607,T,51.046,M,3.13255,N,5.80147,K,D*30
$GNHDT,338.3579,T*1B
$GPGGA,021253.20,2234.15279864,N,11431.87935077,E,4,16,0.8,-4.4087,M,-1.3472,M,02,0000*5E
$GPRMC,021253.20,A,2234.15279864,N,11431.87935077,E,3.133,47.6,071224,3.4,W,D*16
$GNVTG,47.158,T,50.597,M,3.15257,N,5.83856,K,D*3B
$GNHDT,338.6340,T*12
$GPGGA,021253.40,2234.15291815,N,11431.87948952,E,4,16,0.8,-4.4061,M,-1.3472,M,02,0000*54
$GPRMC,021253.40,A,2234.15291815,N,11431.87948952,E,3.153,47.2,071224,3.4,W,D*16
$GNVTG,47.858,T,51.297,M,3.18869,N,5.90545,K,D*33
$GNHDT,338.8197,T*14
$GPGGA,021253.60,2234.15303742,N,11431.87963145,E,4,16,0.8,-4.4215,M,-1.3472,M,02,0000*57
$GPRMC,021253.60,A,2234.15303742,N,11431.87963145,E,3.189,47.9,071224,3.4,W,D*18
$GNVTG,48.991,T,52.430,M,3.24401,N,6.00790,K,D*3D
$GNHDT,339.1781,T*1D
$GPGGA,021253.80,2234.15315608,N,11431.87977839,E,4,16,0.8,-4.4729,M,-1.3473,M,00,0000*5F
$GPRMC,021253.80,A,2234.15315608,N,11431.87977839,E,3.244,49.0,071224,3.4,W,D*1C
$GNVTG,48.299,T,51.738,M,3.19881,N,5.92419,K,D*36
$GNHDT,339.6091,T*1C
$GPGGA,021254.00,2234.15327471,N,11431.87992175,E,4,16,0.8,-4.4754,M,-1.3472,M,01,0000*5D
$GPRMC,021254.00,A,2234.15327471,N,11431.87992175,E,3.199,48.3,071224,3.4,W,D*15
$GNVTG,48.268,T,51.706,M,3.21643,N,5.95684,K,D*3F
$GNHDT,339.6005,T*11
$GPGGA,021254.20,2234.15339407,N,11431.88006583,E,4,16,0.8,-4.4513,M,-1.3472,M,01,0000*56
$GPRMC,021254.20,A,2234.15339407,N,11431.88006583,E,3.216,48.3,071224,3.4,W,D*1B
$GNVTG,46.721,T,50.160,M,3.18487,N,5.89838,K,D*3A
$GNHDT,340.0832,T*15
$GPGGA,021254.40,2234.15351579,N,11431.88020501,E,4,16,0.8,-4.4373,M,-1.3472,M,01,0000*58
$GPRMC,021254.40,A,2234.15351579,N,11431.88020501,E,3.185,46.7,071224,3.4,W,D*16
$GNVTG,47.529,T,50.967,M,3.29469,N,6.10176,K,D*3C
$GNHDT,340.4656,T*1D
$GPGGA,021254.60,2234.15363981,N,11431.88035088,E,4,16,0.8,-4.4352,M,-1.3472,M,01,0000*53
$GPRMC,021254.60,A,2234.15363981,N,11431.88035088,E,3.295,47.5,071224,3.4,W,D*1F
$GNVTG,48.388,T,51.827,M,3.38848,N,6.27547,K,D*37
$GNHDT,340.6711,T*1D
$GPGGA,021254.80,2234.15376525,N,11431.88050295,E,4,16,0.8,-4.4837,M,-1.3472,M,00,0000*5F
$GPRMC,021254.80,A,2234.15376525,N,11431.88050295,E,3.388,48.4,071224,3.4,W,D*19
$GNVTG,49.539,T,52.977,M,3.31978,N,6.14824,K,D*3E
$GNHDT,340.8766,T*13
$GPGGA,021255.00,2234.15388535,N,11431.88065457,E,4,16,0.8,-4.5173,M,-1.3472,M,01,0000*51
$GPRMC,021255.00,A,2234.15388535,N,11431.88065457,E,3.320,49.5,071224,3.4,W,D*1C
$GNVTG,48.542,T,51.980,M,3.29077,N,6.09450,K,D*34
$GNHDT,340.7999,T*12
$GPGGA,021255.20,2234.15400680,N,11431.88080260,E,4,16,0.8,-4.4993,M,-1.3472,M,01,0000*57
$GPRMC,021255.20,A,2234.15400680,N,11431.88080260,E,3.291,48.5,071224,3.4,W,D*17
$GNVTG,50.330,T,53.769,M,3.36015,N,6.22299,K,D*35
$GNHDT,340.5172,T*1D
$GPGGA,021255.40,2234.15412638,N,11431.88095786,E,4,16,0.8,-4.4590,M,-1.3472,M,01,0000*57
$GPRMC,021255.40,A,2234.15412638,N,11431.88095786,E,3.360,50.3,071224,3.4,W,D*18
$GNVTG,48.840,T,52.279,M,3.26447,N,6.04579,K,D*3A
$GNHDT,341.2804,T*13
$GPGGA,021255.60,2234.15424616,N,11431.88110538,E,4,16,0.8,-4.4221,M,-1.3472,M,01,0000*5A
$GPRMC,021255.60,A,2234.15424616,N,11431.88110538,E,3.264,48.8,071224,3.4,W,D*1F
$GNVTG,49.403,T,52.842,M,3.24872,N,6.01663,K,D*37
$GNHDT,341.3520,T*19
$GPGGA,021255.80,2234.15436401,N,11431.88125345,E,4,16,0.8,-4.4108,M,-1.3472,M,00,0000*50
$GPRMC,021255.80,A,2234.15436401,N,11431.88125345,E,3.249,49.4,071224,3.4,W,D*1E
$GNVTG,50.394,T,53.832,M,3.17980,N,5.88898,K,D*34
$GNHDT,341.4385,T*17
$GPGGA,021256.00,2234.15447702,N,11431.88140051,E,4,16,0.8,-4.3825,M,-1.3472,M,01,0000*58
$GPRMC,021256.00,A,2234.15447702,N,11431.88140051,E,3.180,50.4,071224,3.4,W,D*18
$GNVTG,49.789,T,53.227,M,3.13687,N,5.80947,K,D*3D
$GNHDT,341.8155,T*14
$GPGGA,021256.20,2234.15458992,N,11431.88154430,E,4,16,0.8,-4.3707,M,-1.3472,M,01,0000*5A
$GPRMC,021256.20,A,2234.15458992,N,11431.88154430,E,3.137,49.8,071224,3.4,W,D*1D
$GNVTG,50.700,T,54.139,M,3.25064,N,6.02018,K,D*3B
$GNHDT,341.5527,T*18
$GPGGA,021256.40,2234.15470469,N,11431.88169529,E,4,16,0.8,-4.3702,M,-1.3472,M,01,0000*5D
$GPRMC,021256.40,A,2234.15470469,N,11431.88169529,E,3.251,50.7,071224,3.4,W,D*1B
$GNVTG,47.877,T,51.316,M,3.25622,N,6.03052,K,D*33
$GNHDT,342.1038,T*14
$GPGGA,021256.60,2234.15482644,N,11431.88184027,E,4,16,0.8,-4.4196,M,-1.3472,M,01,0000*5B
$GPRMC,021256.60,A,2234.15482644,N,11431.88184027,E,3.256,47.9,071224,3.4,W,D*1E
$GNVTG,50.785,T,54.224,M,3.24956,N,6.01818,K,D*3B
$GNHDT,342.5562,T*1A
$GPGGA,021256.80,2234.15494098,N,11431.88199139,E,4,15,0.9,-4.4688,M,-1.3472,M,00,0000*5C
$GPRMC,021256.80,A,2234.15494098,N,11431.88199139,E,3.250,50.8,071224,3.4,W,D*13
$GNVTG,51.943,T,55.382,M,3.27088,N,6.05767,K,D*38
$GNHDT,342.5293,T*13
$GPGGA,021257.00,2234.15505338,N,11431.88214599,E,4,15,0.9,-4.4975,M,-1.3471,M,01,0000*52
$GPRMC,021257.00,A,2234.15505338,N,11431.88214599,E,3.271,51.9,071224,3.4,W,D*11
$GNVTG,49.689,T,53.128,M,3.09885,N,5.73907,K,D*3F
$GNHDT,343.0330,T*1F
$GPGGA,021257.20,2234.15516514,N,11431.88228783,E,4,15,0.9,-4.4653,M,-1.3471,M,01,0000*57
$GPRMC,021257.20,A,2234.15516514,N,11431.88228783,E,3.099,49.7,071224,3.4,W,D*1C
$GNVTG,50.183,T,53.621,M,3.08430,N,5.71213,K,D*3B
$GNHDT,343.3089,T*1D
$GPGGA,021257.40,2234.15527524,N,11431.88243003,E,4,15,0.9,-4.4221,M,-1.3471,M,01,0000*53
$GPRMC,021257.40,A,2234.15527524,N,11431.88243003,E,3.084,50.2,071224,3.4,W,D*18
$GNVTG,52.061,T,55.500,M,2.97341,N,5.50675,K,D*33
$GNHDT,343.6028,T*13
$GPGGA,021257.60,2234.15537715,N,11431.88257079,E,4,15,0.9,-4.3435,M,-1.3471,M,01,0000*5C
$GPRMC,021257.60,A,2234.15537715,N,11431.88257079,E,2.973,52.1,071224,3.4,W,D*12
$GNVTG,53.063,T,56.502,M,3.05058,N,5.64967,K,D*3B
$GNHDT,343.4860,T*15
$GPGGA,021257.80,2234.15547935,N,11431.88271716,E,4,15,0.9,-4.2788,M,-1.3471,M,01,0000*57
$GPRMC,021257.80,A,2234.15547935,N,11431.88271716,E,3.051,53.1,071224,3.4,W,D*14
$GNVTG,53.090,T,56.529,M,3.26711,N,6.05069,K,D*36
$GNHDT,342.8943,T*18
$GPGGA,021258.00,2234.15558873,N,11431.88287396,E,4,15,0.9,-4.3526,M,-1.3471,M,02,0000*5C
$GPRMC,021258.00,A,2234.15558873,N,11431.88287396,E,3.267,53.1,071224,3.4,W,D*1C
$GNVTG,52.709,T,56.147,M,3.28159,N,6.07750,K,D*37
$GNHDT,343.4760,T*1A
$GPGGA,021258.20,2234.15569957,N,11431.88303067,E,4,15,0.9,-4.4648,M,-1.3471,M,02,0000*57
$GPRMC,021258.20,A,2234.15569957,N,11431.88303067,E,3.282,52.7,071224,3.4,W,D*17
$GNVTG,53.267,T,56.706,M,3.03133,N,5.61403,K,D*3B
$GNHDT,343.8959,T*12
$GPGGA,021258.40,2234.15580064,N,11431.88317650,E,4,15,0.9,-4.5319,M,-1.3471,M,02,0000*58
$GPRMC,021258.40,A,2234.15580064,N,11431.88317650,E,3.031,53.3,071224,3.4,W,D*17
$GNVTG,54.235,T,57.673,M,3.00915,N,5.57295,K,D*3A
$GNHDT,344.5235,T*19
$GPGGA,021258.60,2234.15589868,N,11431.88332306,E,4,15,0.9,-4.5361,M,-1.3471,M,02,0000*59
$GPRMC,021258.60,A,2234.15589868,N,11431.88332306,E,3.009,54.2,071224,3.4,W,D*14
$GNVTG,53.014,T,56.453,M,3.20234,N,5.93072,K,D*34
$GNHDT,344.1492,T*16
$GPGGA,021258.80,2234.15600608,N,11431.88347661,E,4,15,0.9,-4.4509,M,-1.3471,M,02,0000*52
$GPRMC,021258.80,A,2234.15600608,N,11431.88347661,E,3.202,53.0,071224,3.4,W,D*1A
$GNVTG,48.599,T,52.038,M,2.93582,N,5.43715,K,D*3B
$GNHDT,344.4586,T*17
$GPGGA,021259.00,2234.15611432,N,11431.88360879,E,4,15,0.9,-4.3652,M,-1.3471,M,03,0000*59
$GPRMC,021259.00,A,2234.15611432,N,11431.88360879,E,2.936,48.6,071224,3.4,W,D*1B
$GNVTG,54.993,T,58.432,M,2.87618,N,5.32669,K,D*3D
$GNHDT,345.2194,T*17
$GPGGA,021259.20,2234.15620630,N,11431.88375020,E,4,15,0.9,-4.2982,M,-1.3471,M,03,0000*5A
$GPRMC,021259.20,A,2234.15620630,N,11431.88375020,E,2.876,55.0,071224,3.4,W,D*14
$GNVTG,55.067,T,58.505,M,3.13425,N,5.80462,K,D*3B
$GNHDT,344.6198,T*1E
$GPGGA,021259.40,2234.15630635,N,11431.88390444,E,4,15,0.9,-4.3301,M,-1.3471,M,03,0000*55
$GPRMC,021259.40,A,2234.15630635,N,11431.88390444,E,3.134,55.1,071224,3.4,W,D*14
$GNVTG,53.150,T,56.589,M,3.12281,N,5.78345,K,D*3E
$GNHDT,344.5134,T*1B
$GPGGA,021259.60,2234.15641076,N,11431.88405444,E,4,15,0.9,-4.4374,M,-1.3471,M,01,0000*5C
$GPRMC,021259.60,A,2234.15641076,N,11431.88405444,E,3.123,53.2,071224,3.4,W,D*19
$GNVTG,53.934,T,57.373,M,2.86286,N,5.30203,K,D*32
$GNHDT,345.4785,T*17
$GPGGA,021259.80,2234.15650471,N,11431.88419335,E,4,15,0.9,-4.5243,M,-1.3471,M,00,0000*58
$GPRMC,021259.80,A,2234.15650471,N,11431.88419335,E,2.863,53.9,071224,3.4,W,D*1F
$GNVTG,54.800,T,58.239,M,2.92940,N,5.42525,K,D*31
$GNHDT,345.7061,T*19
$GPGGA,021300.00,2234.15659885,N,11431.88433704,E,4,15,0.9,-4.5489,M,-1.3471,M,01,0000*5C
$GPRMC,021300.00,A,2234.15659885,N,11431.88433704,E,2.929,54.8,071224,3.4,W,D*13
$GNVTG,52.881,T,56.320,M,3.07995,N,5.70407,K,D*3C
$GNHDT,345.6684,T*15
$GPGGA,021300.20,2234.15670246,N,11431.88448445,E,4,15,0.9,-4.5225,M,-1.3470,M,01,0000*5B
$GPRMC,021300.20,A,2234.15670246,N,11431.88448445,E,3.080,52.9,071224,3.4,W,D*19
$GNVTG,49.192,T,52.631,M,3.00484,N,5.56497,K,D*3B
$GNHDT,345.7189,T*1E
$GPGGA,021300.40,2234.15681193,N,11431.88462097,E,4,15,0.9,-4.4920,M,-1.3470,M,01,0000*54
$GPRMC,021300.40,A,2234.15681193,N,11431.88462097,E,3.005,49.2,071224,3.4,W,D*15
$GNVTG,52.123,T,55.561,M,3.05262,N,5.65346,K,D*3A
$GNHDT,345.8005,T*14
$GPGGA,021300.60,2234.15691642,N,11431.88476561,E,4,15,0.9,-4.4116,M,-1.3470,M,01,0000*58
$GPRMC,021300.60,A,2234.15691642,N,11431.88476561,E,3.053,52.1,071224,3.4,W,D*1E
$GNVTG,54.878,T,58.316,M,2.90504,N,5.38014,K,D*36
$GNHDT,346.4931,T*15
$GPGGA,021300.80,2234.15700959,N,11431.88490823,E,4,15,0.9,-4.4162,M,-1.3470,M,00,0000*5B
$GPRMC,021300.80,A,2234.15700959,N,11431.88490823,E,2.905,54.9,071224,3.4,W,D*1A
$GNVTG,55.692,T,59.130,M,3.02333,N,5.59921,K,D*3A
$GNHDT,346.1967,T*13
$GPGGA,021301.00,2234.15710459,N,11431.88505814,E,4,15,0.9,-4.4134,M,-1.3470,M,01,0000*55
$GPRMC,021301.00,A,2234.15710459,N,11431.88505814,E,3.023,55.7,071224,3.4,W,D*15
$GNVTG,54.580,T,58.018,M,3.06097,N,5.66891,K,D*3E
$GNHDT,346.1306,T*1E
$GPGGA,021301.20,2234.15720349,N,11431.88520787,E,4,15,0.9,-4.4538,M,-1.3470,M,01,0000*58
$GPRMC,021301.20,A,2234.15720349,N,11431.88520787,E,3.061,54.6,071224,3.4,W,D*16
$GNVTG,55.002,T,58.440,M,3.04888,N,5.64652,K,D*3E
$GNHDT,346.5964,T*14
$GPGGA,021301.40,2234.15730097,N,11431.88535779,E,4,15,0.9,-4.4591,M,-1.3470,M,01,0000*59
$GPRMC,021301.40,A,2234.15730097,N,11431.88535779,E,3.049,55.0,071224,3.4,W,D*19
$GNVTG,53.374,T,56.813,M,2.91845,N,5.40497,K,D*3F
$GNHDT,347.0567,T*1F
$GPGGA,021301.60,2234.15739803,N,11431.88549838,E,4,15,0.9,-4.4482,M,-1.3470,M,01,0000*55
$GPRMC,021301.60,A,2234.15739803,N,11431.88549838,E,2.918,53.4,071224,3.4,W,D*18
$GNVTG,55.339,T,58.777,M,3.04392,N,5.63733,K,D*33
$GNHDT,346.9153,T*14
$GPGGA,021301.80,2234.15749454,N,11431.88564866,E,4,15,0.9,-4.4361,M,-1.3470,M,00,0000*5D
$GPRMC,021301.80,A,2234.15749454,N,11431.88564866,E,3.044,55.3,071224,3.4,W,D*1B
$GNVTG,53.276,T,56.714,M,3.03485,N,5.62055,K,D*34
$GNHDT,347.4988,T*16
$GPGGA,021302.00,2234.15759571,N,11431.88579468,E,4,15,0.9,-4.4453,M,-1.3470,M,01,0000*58
$GPRMC,021302.00,A,2234.15759571,N,11431.88579468,E,3.035,53.3,071224,3.4,W,D*19
$GNVTG,54.539,T,57.978,M,3.10809,N,5.75618,K,D*39
$GNHDT,347.7275,T*1C
$GPGGA,021302.20,2234.15769623,N,11431.88594664,E,4,16,0.8,-4.4396,M,-1.3470,M,01,0000*5C
$GPRMC,021302.20,A,2234.15769623,N,11431.88594664,E,3.108,54.5,071224,3.4,W,D*1F
$GNVTG,58.781,T,62.219,M,3.17953,N,5.88848,K,D*3E
$GNHDT,347.5186,T*11
$GPGGA,021302.40,2234.15778810,N,11431.88610985,E,4,16,0.8,-4.4382,M,-1.3470,M,01,0000*5E
$GPRMC,021302.40,A,2234.15778810,N,11431.88610985,E,3.180,58.8,071224,3.4,W,D*19
$GNVTG,56.596,T,60.035,M,2.97770,N,5.51470,K,D*3F
$GNHDT,348.2092,T*1D
$GPGGA,021302.60,2234.15787949,N,11431.88625907,E,4,16,0.8,-4.4212,M,-1.3470,M,01,0000*55
$GPRMC,021302.60,A,2234.15787949,N,11431.88625907,E,2.978,56.6,071224,3.4,W,D*14
$GNVTG,55.193,T,58.632,M,3.08593,N,5.71513,K,D*39
$GNHDT,348.7543,T*11
$GPGGA,021302.80,2234.15797768,N,11431.88641116,E,4,16,0.8,-4.4135,M,-1.3470,M,01,0000*5B
$GPRMC,021302.80,A,2234.15797768,N,11431.88641116,E,3.086,55.2,071224,3.4,W,D*12
$GNVTG,58.389,T,61.828,M,3.18537,N,5.89931,K,D*36
$GNHDT,348.1721,T*11
$GPGGA,021303.00,2234.15807076,N,11431.88657399,E,4,16,0.8,-4.4155,M,-1.3470,M,02,0000*5B
$GPRMC,021303.00,A,2234.15807076,N,11431.88657399,E,3.185,58.4,071224,3.4,W,D*1E
$GNVTG,56.516,T,59.954,M,3.03505,N,5.62091,K,D*34
$GNHDT,348.9878,T*1A
$GPGGA,021303.20,2234.15816410,N,11431.88672594,E,4,16,0.8,-4.4552,M,-1.3469,M,02,0000*5A
$GPRMC,021303.20,A,2234.15816410,N,11431.88672594,E,3.035,56.5,071224,3.4,W,D*11
$GNVTG,56.551,T,59.990,M,3.01224,N,5.57867,K,D*3E
$GNHDT,349.4258,T*1E
$GPGGA,021303.40,2234.15825666,N,11431.88687681,E,4,16,0.8,-4.4446,M,-1.3469,M,02,0000*56
$GPRMC,021303.40,A,2234.15825666,N,11431.88687681,E,3.012,56.6,071224,3.4,W,D*1F
$GNVTG,58.461,T,61.899,M,3.05867,N,5.66465,K,D*34
$GNHDT,349.5146,T*13
$GPGGA,021303.60,2234.15834586,N,11431.88703328,E,4,16,0.8,-4.4276,M,-1.3469,M,02,0000*57
$GPRMC,021303.60,A,2234.15834586,N,11431.88703328,E,3.059,58.5,071224,3.4,W,D*19
$GNVTG,58.667,T,62.105,M,3.07282,N,5.69086,K,D*3A
$GNHDT,349.7524,T*11
$GPGGA,021303.80,2234.15843494,N,11431.88719083,E,4,16,0.8,-4.4103,M,-1.3469,M,00,0000*51
$GPRMC,021303.80,A,2234.15843494,N,11431.88719083,E,3.073,58.7,071224,3.4,W,D*16
$GNVTG,59.300,T,62.739,M,3.08566,N,5.71464,K,D*35
$GNHDT,349.5756,T*14
$GPGGA,021304.00,2234.15852276,N,11431.88735009,E,4,16,0.8,-4.3957,M,-1.3469,M,01,0000*57
$GPRMC,021304.00,A,2234.15852276,N,11431.88735009,E,3.086,59.3,071224,3.4,W,D*10
$GNVTG,56.776,T,60.215,M,3.23307,N,5.98764,K,D*3A
$GNHDT,349.7168,T*1D
$GPGGA,021304.20,2234.15862151,N,11431.88751244,E,4,16,0.8,-4.4484,M,-1.3469,M,01,0000*5D
$GPRMC,021304.20,A,2234.15862151,N,11431.88751244,E,3.233,56.8,071224,3.4,W,D*16
$GNVTG,55.994,T,59.433,M,3.11485,N,5.76870,K,D*35
$GNHDT,349.8786,T*14
$GPGGA,021304.40,2234.15871862,N,11431.88766743,E,4,16,0.8,-4.4834,M,-1.3469,M,01,0000*51
$GPRMC,021304.40,A,2234.15871862,N,11431.88766743,E,3.115,56.0,071224,3.4,W,D*12
$GNVTG,60.667,T,64.106,M,3.07692,N,5.69846,K,D*35
$GNHDT,349.9037,T*18
$GPGGA,021304.60,2234.15880265,N,11431.88782845,E,4,16,0.8,-4.4543,M,-1.3469,M,01,0000*5E
$GPRMC,021304.60,A,2234.15880265,N,11431.88782845,E,3.077,60.7,071224,3.4,W,D*17
$GNVTG,60.626,T,64.065,M,3.09835,N,5.73814,K,D*35
$GNHDT,350.2995,T*1A
$GPGGA,021304.80,2234.15888738,N,11431.88799052,E,4,16,0.8,-4.4082,M,-1.3469,M,01,0000*59
$GPRMC,021304.80,A,2234.15888738,N,11431.88799052,E,3.098,60.6,071224,3.4,W,D*18
$GNVTG,61.415,T,64.854,M,3.05471,N,5.65732,K,D*30
$GNHDT,350.5614,T*1B
$GPGGA,021305.00,2234.15896885,N,11431.88815153,E,4,16,0.8,-4.3697,M,-1.3469,M,02,0000*5B
$GPRMC,021305.00,A,2234.15896885,N,11431.88815153,E,3.055,61.4,071224,3.4,W,D*1E
$GNVTG,58.847,T,62.286,M,3.31673,N,6.14258,K,D*39
$GNHDT,349.9618,T*13
$GPGGA,021305.20,2234.15906451,N,11431.88832190,E,4,16,0.8,-4.3691,M,-1.3469,M,02,0000*58
$GPRMC,021305.20,A,2234.15906451,N,11431.88832190,E,3.317,58.8,071224,3.4,W,D*18
$GNVTG,61.518,T,64.956,M,3.24410,N,6.00806,K,D*33
$GNHDT,350.3512,T*18
$GPGGA,021305.40,2234.15915075,N,11431.88849307,E,4,16,0.8,-4.4093,M,-1.3469,M,02,0000*5D
$GPRMC,021305.40,A,2234.15915075,N,11431.88849307,E,3.244,61.5,071224,3.4,W,D*1E
$GNVTG,61.696,T,65.135,M,3.02542,N,5.60307,K,D*37
$GNHDT,351.2518,T*12
$GPGGA,021305.60,2234.15923072,N,11431.88865296,E,4,16,0.8,-4.4481,M,-1.3469,M,02,0000*5D
$GPRMC,021305.60,A,2234.15923072,N,11431.88865296,E,3.025,61.7,071224,3.4,W,D*1E
$GNVTG,62.097,T,65.536,M,2.84771,N,5.27396,K,D*32
$GNHDT,352.1285,T*11
$GPGGA,021305.80,2234.15930501,N,11431.88880402,E,4,16,0.8,-4.4411,M,-1.3469,M,00,0000*5B
$GPRMC,021305.80,A,2234.15930501,N,11431.88880402,E,2.848,62.1,071224,3.4,W,D*14
$GNVTG,63.656,T,67.095,M,3.09979,N,5.74081,K,D*37
$GNHDT,352.8434,T*14
$GPGGA,021306.00,2234.15938169,N,11431.88897076,E,4,16,0.8,-4.4255,M,-1.3468,M,01,0000*55
$GPRMC,021306.00,A,2234.15938169,N,11431.88897076,E,3.100,63.7,071224,3.4,W,D*1F
$GNVTG,62.716,T,66.155,M,2.98805,N,5.53387,K,D*3C
$GNHDT,353.4833,T*12
$GPGGA,021306.20,2234.15945805,N,11431.88913017,E,4,16,0.8,-4.4242,M,-1.3468,M,01,0000*52
$GPRMC,021306.20,A,2234.15945805,N,11431.88913017,E,2.988,62.7,071224,3.4,W,D*16
$GNVTG,61.755,T,65.194,M,3.09522,N,5.73235,K,D*3D
$GNHDT,353.0641,T*1D
$GPGGA,021306.40,2234.15953971,N,11431.88929384,E,4,15,0.9,-4.4167,M,-1.3468,M,01,0000*57
$GPRMC,021306.40,A,2234.15953971,N,11431.88929384,E,3.095,61.8,071224,3.4,W,D*1D
$GNVTG,57.819,T,61.258,M,3.15534,N,5.84368,K,D*33
$GNHDT,352.8144,T*16
$GPGGA,021306.60,2234.15963339,N,11431.88945414,E,4,15,0.9,-4.4303,M,-1.3468,M,01,0000*54
$GPRMC,021306.60,A,2234.15963339,N,11431.88945414,E,3.155,57.8,071224,3.4,W,D*16
$GNVTG,57.306,T,60.744,M,3.16714,N,5.86555,K,D*36
$GNHDT,351.8989,T*1C
$GPGGA,021306.80,2234.15972876,N,11431.88961413,E,4,15,0.9,-4.4296,M,-1.3468,M,00,0000*57
$GPRMC,021306.80,A,2234.15972876,N,11431.88961413,E,3.167,57.3,071224,3.4,W,D*13
$GNVTG,58.740,T,62.178,M,3.05698,N,5.66153,K,D*3F
$GNHDT,351.7607,T*1A
$GPGGA,021307.00,2234.15981720,N,11431.88977099,E,4,15,0.9,-4.4537,M,-1.3468,M,01,0000*52
$GPRMC,021307.00,A,2234.15981720,N,11431.88977099,E,3.057,58.7,071224,3.4,W,D*12
$GNVTG,60.473,T,63.911,M,3.04866,N,5.64611,K,D*3C
$GNHDT,352.1225,T*1B
$GPGGA,021307.20,2234.15990096,N,11431.88993022,E,4,15,0.9,-4.5010,M,-1.3468,M,01,0000*51
$GPRMC,021307.20,A,2234.15990096,N,11431.88993022,E,3.049,60.5,071224,3.4,W,D*16
$GNVTG,59.491,T,62.930,M,3.11298,N,5.76523,K,D*36
$GNHDT,352.0562,T*1E
$GPGGA,021307.40,2234.15998906,N,11431.89009121,E,4,15,0.9,-4.5499,M,-1.3468,M,01,0000*53
$GPRMC,021307.40,A,2234.15998906,N,11431.89009121,E,3.113,59.5,071224,3.4,W,D*15
$GNVTG,61.071,T,64.510,M,3.11975,N,5.77777,K,D*35
$GNHDT,351.8689,T*13
$GPGGA,021307.60,2234.16007319,N,11431.89025511,E,4,15,0.9,-4.5477,M,-1.3468,M,01,0000*50
$GPRMC,021307.60,A,2234.16007319,N,11431.89025511,E,3.120,61.1,071224,3.4,W,D*19
$GNVTG,61.727,T,65.166,M,3.14591,N,5.82623,K,D*3C
$GNHDT,351.9427,T*14
$GPGGA,021307.80,2234.16015626,N,11431.89042141,E,4,15,0.9,-4.4984,M,-1.3468,M,00,0000*55
$GPRMC,021307.80,A,2234.16015626,N,11431.89042141,E,3.146,61.7,071224,3.4,W,D*1B
$GNVTG,60.458,T,63.896,M,3.08842,N,5.71976,K,D*3B
$GNHDT,352.6437,T*19
$GPGGA,021308.00,2234.16024115,N,11431.89058270,E,4,15,0.9,-4.4685,M,-1.3468,M,01,0000*52
$GPRMC,021308.00,A,2234.16024115,N,11431.89058270,E,3.088,60.5,071224,3.4,W,D*13
$GNVTG,61.317,T,64.755,M,3.29731,N,6.10662,K,D*37
$GNHDT,352.4938,T*19
$GPGGA,021308.20,2234.16032938,N,11431.89075633,E,4,15,0.9,-4.4299,M,-1.3468,M,01,0000*55
$GPRMC,021308.20,A,2234.16032938,N,11431.89075633,E,3.297,61.3,071224,3.4,W,D*16
$GNVTG,60.679,T,64.117,M,3.45369,N,6.39623,K,D*36
$GNHDT,352.0685,T*14
$GPGGA,021308.40,2234.16042366,N,11431.89093708,E,4,15,0.9,-4.4274,M,-1.3468,M,01,0000*57
$GPRMC,021308.40,A,2234.16042366,N,11431.89093708,E,3.454,60.7,071224,3.4,W,D*1B
$GNVTG,63.856,T,67.294,M,3.23948,N,5.99952,K,D*34
$GNHDT,352.0642,T*1F
$GPGGA,021308.60,2234.16050324,N,11431.89111164,E,4,15,0.9,-4.4257,M,-1.3468,M,01,0000*56
$GPRMC,021308.60,A,2234.16050324,N,11431.89111164,E,3.239,63.9,071224,3.4,W,D*1B
$GNVTG,62.367,T,65.806,M,3.02020,N,5.59342,K,D*3C
$GNHDT,353.0184,T*13
$GPGGA,021308.80,2234.16058133,N,11431.89127225,E,4,15,0.9,-4.4433,M,-1.3467,M,00,0000*5D
$GPRMC,021308.80,A,2234.16058133,N,11431.89127225,E,3.020,62.4,071224,3.4,W,D*1C
$GNVTG,62.821,T,66.259,M,3.11364,N,5.76647,K,D*3A
$GNHDT,352.7530,T*1E
$GPGGA,021309.00,2234.16066061,N,11431.89143851,E,4,15,0.9,-4.4238,M,-1.3467,M,01,0000*58
$GPRMC,021309.00,A,2234.16066061,N,11431.89143851,E,3.114,62.8,071224,3.4,W,D*1F
$GNVTG,65.569,T,69.008,M,3.07220,N,5.68971,K,D*36
$GNHDT,352.7200,T*1A
$GPGGA,021309.20,2234.16073145,N,11431.89160641,E,4,15,0.9,-4.3895,M,-1.3467,M,01,0000*5D
$GPRMC,021309.20,A,2234.16073145,N,11431.89160641,E,3.072,65.6,071224,3.4,W,D*18
$GNVTG,61.733,T,65.171,M,3.14393,N,5.82256,K,D*3D
$GNHDT,352.6451,T*19
$GPGGA,021309.40,2234.16081445,N,11431.89177262,E,4,15,0.9,-4.3985,M,-1.3467,M,01,0000*50
$GPRMC,021309.40,A,2234.16081445,N,11431.89177262,E,3.144,61.7,071224,3.4,W,D*14
$GNVTG,60.276,T,63.715,M,3.08949,N,5.72174,K,D*36
$GNHDT,352.8866,T*1F
$GPGGA,021309.60,2234.16089985,N,11431.89193367,E,4,15,0.9,-4.4118,M,-1.3467,M,01,0000*5E
$GPRMC,021309.60,A,2234.16089985,N,11431.89193367,E,3.089,60.3,071224,3.4,W,D*14
$GNVTG,60.070,T,63.509,M,3.10587,N,5.75207,K,D*3A
$GNHDT,352.3090,T*15
$GPGGA,021309.80,2234.16098623,N,11431.89209524,E,4,15,0.9,-4.4475,M,-1.3467,M,00,0000*5D
$GPRMC,021309.80,A,2234.16098623,N,11431.89209524,E,3.106,60.1,071224,3.4,W,D*1C
$GNVTG,59.096,T,62.535,M,3.03676,N,5.62407,K,D*39
$GNHDT,352.1268,T*12
$GPGGA,021310.00,2234.16107318,N,11431.89225165,E,4,15,0.9,-4.4436,M,-1.3467,M,01,0000*5E
$GPRMC,021310.00,A,2234.16107318,N,11431.89225165,E,3.037,59.1,071224,3.4,W,D*10
$GNVTG,62.358,T,65.797,M,3.05270,N,5.65361,K,D*39
$GNHDT,351.8250,T*13
$GPGGA,021310.20,2234.16115213,N,11431.89241397,E,4,15,0.9,-4.4406,M,-1.3467,M,01,0000*5B
$GPRMC,021310.20,A,2234.16115213,N,11431.89241397,E,3.053,62.4,071224,3.4,W,D*19
$GNVTG,60.573,T,64.011,M,3.06124,N,5.66942,K,D*35
$GNHDT,351.8803,T*1F
$GPGGA,021310.40,2234.16123598,N,11431.89257402,E,4,15,0.9,-4.4534,M,-1.3467,M,01,0000*50
$GPRMC,021310.40,A,2234.16123598,N,11431.89257402,E,3.061,60.6,071224,3.4,W,D*13
$GNVTG,61.925,T,65.364,M,3.17475,N,5.87964,K,D*31
$GNHDT,351.7779,T*12
$GPGGA,021310.60,2234.16131927,N,11431.89274216,E,4,15,0.9,-4.4927,M,-1.3467,M,01,0000*55
$GPRMC,021310.60,A,2234.16131927,N,11431.89274216,E,3.175,61.9,071224,3.4,W,D*12
$GNVTG,60.887,T,64.326,M,3.08301,N,5.70974,K,D*3D
$GNHDT,351.7228,T*13
$GPGGA,021310.80,2234.16140289,N,11431.89290384,E,4,15,0.9,-4.4557,M,-1.3467,M,00,0000*58
$GPRMC,021310.80,A,2234.16140289,N,11431.89290384,E,3.083,60.9,071224,3.4,W,D*1C
$GNVTG,60.096,T,63.534,M,3.12238,N,5.78265,K,D*34
$GNHDT,351.6304,T*1D
$GPGGA,021311.00,2234.16148967,N,11431.89306631,E,4,15,0.9,-4.4195,M,-1.3467,M,01,0000*5C
$GPRMC,021311.00,A,2234.16148967,N,11431.89306631,E,3.122,60.1,071224,3.4,W,D*11
$GNVTG,61.024,T,64.463,M,3.17699,N,5.88379,K,D*31
$GNHDT,351.1767,T*1B
$GPGGA,021311.20,2234.16157547,N,11431.89323314,E,4,15,0.9,-4.3907,M,-1.3466,M,01,0000*5E
$GPRMC,021311.20,A,2234.16157547,N,11431.89323314,E,3.177,61.0,071224,3.4,W,D*16
$GNVTG,62.335,T,65.774,M,3.33460,N,6.17567,K,D*3B
$GNHDT,351.3349,T*11
$GPGGA,021311.40,2234.16166178,N,11431.89341042,E,4,15,0.9,-4.3988,M,-1.3466,M,01,0000*51
$GPRMC,021311.40,A,2234.16166178,N,11431.89341042,E,3.335,62.3,071224,3.4,W,D*1A
$GNVTG,61.362,T,64.800,M,3.24996,N,6.01892,K,D*35
$GNHDT,351.2185,T*12
$GPGGA,021311.60,2234.16174862,N,11431.89358164,E,4,15,0.9,-4.4897,M,-1.3466,M,01,0000*57
$GPRMC,021311.60,A,2234.16174862,N,11431.89358164,E,3.250,61.4,071224,3.4,W,D*12
$GNVTG,63.152,T,66.591,M,3.12286,N,5.78355,K,D*33
$GNHDT,350.8598,T*11
$GPGGA,021311.80,2234.16182724,N,11431.89374888,E,4,15,0.9,-4.5329,M,-1.3466,M,00,0000*56
$GPRMC,021311.80,A,2234.16182724,N,11431.89374888,E,3.123,63.2,071224,3.4,W,D*1E
$GNVTG,62.160,T,65.599,M,2.96885,N,5.49831,K,D*37
$GNHDT,351.2615,T*1C
$GPGGA,021312.00,2234.16190453,N,11431.89390646,E,4,15,0.9,-4.5024,M,-1.3466,M,01,0000*54
$GPRMC,021312.00,A,2234.16190453,N,11431.89390646,E,2.969,62.2,071224,3.4,W,D*15
$GNVTG,63.191,T,66.629,M,3.09725,N,5.73611,K,D*34
$GNHDT,351.4659,T*12
$GPGGA,021312.20,2234.16198241,N,11431.89407239,E,4,15,0.9,-4.4662,M,-1.3466,M,01,0000*5B
$GPRMC,021312.20,A,2234.16198241,N,11431.89407239,E,3.097,63.2,071224,3.4,W,D*17
$GNVTG,59.589,T,63.028,M,2.92480,N,5.41672,K,D*39
$GNHDT,350.8963,T*19
$GPGGA,021312.40,2234.16206494,N,11431.89422380,E,4,15,0.9,-4.4034,M,-1.3466,M,01,0000*56
$GPRMC,021312.40,A,2234.16206494,N,11431.89422380,E,2.925,59.6,071224,3.4,W,D*13
$GNVTG,60.231,T,63.669,M,3.13157,N,5.79967,K,D*33
$GNHDT,350.5926,T*15
$GPGGA,021312.60,2234.16215162,N,11431.89438697,E,4,15,0.9,-4.3718,M,-1.3466,M,01,0000*5C
$GPRMC,021312.60,A,2234.16215162,N,11431.89438697,E,3.132,60.2,071224,3.4,W,D*16
$GNVTG,60.671,T,64.109,M,3.18607,N,5.90060,K,D*35
$GNHDT,350.4318,T*13
$GPGGA,021312.80,2234.16223862,N,11431.89455370,E,4,15,0.9,-4.4069,M,-1.3466,M,00,0000*5E
$GPRMC,021312.80,A,2234.16223862,N,11431.89455370,E,3.186,60.7,071224,3.4,W,D*19
$GNVTG,60.631,T,64.070,M,3.11475,N,5.76851,K,D*32
$GNHDT,350.7572,T*1A
$GPGGA,021313.00,2234.16232378,N,11431.89471664,E,4,15,0.9,-4.4701,M,-1.3466,M,01,0000*59
$GPRMC,021313.00,A,2234.16232378,N,11431.89471664,E,3.115,60.6,071224,3.4,W,D*1D
$GNVTG,59.517,T,62.956,M,3.05194,N,5.65218,K,D*3E
$GNHDT,351.1125,T*1B
$GPGGA,021313.20,2234.16241008,N,11431.89487451,E,4,15,0.9,-4.5499,M,-1.3466,M,01,0000*55
$GPRMC,021313.20,A,2234.16241008,N,11431.89487451,E,3.052,59.5,071224,3.4,W,D*19
$GNVTG,61.316,T,64.755,M,2.97917,N,5.51742,K,D*3D
$GNHDT,350.9359,T*1B
$GPGGA,021313.40,2234.16248980,N,11431.89503139,E,4,15,0.9,-4.5359,M,-1.3466,M,01,0000*5E
$GPRMC,021313.40,A,2234.16248980,N,11431.89503139,E,2.979,61.3,071224,3.4,W,D*15
$GNVTG,60.202,T,63.641,M,2.92950,N,5.42544,K,D*3B
$GNHDT,350.7372,T*1C
$GPGGA,021313.60,2234.16257096,N,11431.89518399,E,4,15,0.9,-4.4817,M,-1.3466,M,01,0000*5E
$GPRMC,021313.60,A,2234.16257096,N,11431.89518399,E,2.930,60.2,071224,3.4,W,D*18
$GNVTG,59.578,T,63.017,M,2.86904,N,5.31347,K,D*3B
$GNHDT,351.2360,T*1B
$GPGGA,021313.80,2234.16265194,N,11431.89533250,E,4,15,0.9,-4.4003,M,-1.3466,M,00,0000*53
$GPRMC,021313.80,A,2234.16265194,N,11431.89533250,E,2.869,59.6,071224,3.4,W,D*1A
$GNVTG,61.132,T,64.570,M,3.10536,N,5.75112,K,D*38
$GNHDT,350.3407,T*1D
$GPGGA,021314.00,2234.16273552,N,11431.89549573,E,4,15,0.9,-4.3366,M,-1.3465,M,01,0000*5B
$GPRMC,021314.00,A,2234.16273552,N,11431.89549573,E,3.105,61.1,071224,3.4,W,D*19
$GNVTG,57.224,T,60.662,M,3.03999,N,5.63005,K,D*36
$GNHDT,350.4914,T*15
$GPGGA,021314.20,2234.16282727,N,11431.89564916,E,4,15,0.9,-4.3791,M,-1.3465,M,01,0000*5B
$GPRMC,021314.20,A,2234.16282727,N,11431.89564916,E,3.040,57.2,071224,3.4,W,D*13
$GNVTG,59.603,T,63.041,M,3.14060,N,5.81638,K,D*30
$GNHDT,350.2148,T*12
$GPGGA,021314.40,2234.16291586,N,11431.89581176,E,4,15,0.9,-4.4563,M,-1.3465,M,01,0000*5B
$GPRMC,021314.40,A,2234.16291586,N,11431.89581176,E,3.141,59.6,071224,3.4,W,D*11
$GNVTG,62.134,T,65.573,M,2.81887,N,5.22055,K,D*31
$GNHDT,350.4155,T*18
$GPGGA,021314.60,2234.16298931,N,11431.89596135,E,4,15,0.9,-4.5176,M,-1.3465,M,01,0000*50
$GPRMC,021314.60,A,2234.16298931,N,11431.89596135,E,2.819,62.1,071224,3.4,W,D*11
$GNVTG,60.445,T,63.884,M,2.89210,N,5.35616,K,D*38
$GNHDT,349.9980,T*1D
$GPGGA,021314.80,2234.16306883,N,11431.89611236,E,4,15,0.9,-4.5282,M,-1.3465,M,01,0000*54
$GPRMC,021314.80,A,2234.16306883,N,11431.89611236,E,2.892,60.4,071224,3.4,W,D*19
$GNVTG,60.022,T,63.461,M,2.98660,N,5.53118,K,D*30
$GNHDT,349.9185,T*10
$GPGGA,021315.00,2234.16315203,N,11431.89626765,E,4,15,0.9,-4.5049,M,-1.3465,M,02,0000*5C
$GPRMC,021315.00,A,2234.16315203,N,11431.89626765,E,2.987,60.0,071224,3.4,W,D*16
$GNVTG,62.844,T,66.283,M,3.04583,N,5.64087,K,D*3C
$GNHDT,350.2017,T*19
$GPGGA,021315.20,2234.16322952,N,11431.89643032,E,4,16,0.8,-4.4776,M,-1.3465,M,02,0000*5B
$GPRMC,021315.20,A,2234.16322952,N,11431.89643032,E,3.046,62.8,071224,3.4,W,D*16
$GNVTG,59.031,T,62.469,M,3.16509,N,5.86174,K,D*38
$GNHDT,350.3730,T*1A
$GPGGA,021315.40,2234.16332032,N,11431.89659322,E,4,16,0.8,-4.4446,M,-1.3465,M,02,0000*5A
$GPRMC,021315.40,A,2234.16332032,N,11431.89659322,E,3.165,59.0,071224,3.4,W,D*17
$GNVTG,59.010,T,62.449,M,3.08592,N,5.71513,K,D*39
$GNHDT,350.2795,T*14
$GPGGA,021315.60,2234.16340889,N,11431.89675202,E,4,16,0.8,-4.4109,M,-1.3465,M,02,0000*56
$GPRMC,021315.60,A,2234.16340889,N,11431.89675202,E,3.086,59.0,071224,3.4,W,D*19
$GNVTG,57.508,T,60.947,M,3.12054,N,5.77924,K,D*30
$GNHDT,350.0185,T*11
$GPGGA,021315.80,2234.16350234,N,11431.89691001,E,4,16,0.8,-4.3927,M,-1.3465,M,00,0000*5F
$GPRMC,021315.80,A,2234.16350234,N,11431.89691001,E,3.121,57.5,071224,3.4,W,D*16
$GNVTG,58.540,T,61.979,M,3.18453,N,5.89775,K,D*3D
$GNHDT,350.0820,T*17
$GPGGA,021316.00,2234.16359499,N,11431.89707307,E,4,16,0.8,-4.3906,M,-1.3465,M,01,0000*55
$GPRMC,021316.00,A,2234.16359499,N,11431.89707307,E,3.185,58.5,071224,3.4,W,D*1F
$GNVTG,62.245,T,65.684,M,3.08635,N,5.71592,K,D*30
$GNHDT,349.9657,T*18
$GPGGA,021316.20,2234.16367512,N,11431.89723701,E,4,16,0.8,-4.4088,M,-1.3465,M,01,0000*54
$GPRMC,021316.20,A,2234.16367512,N,11431.89723701,E,3.086,62.2,071224,3.4,W,D*1A
$GNVTG,59.942,T,63.381,M,3.09263,N,5.72755,K,D*3E
$GNHDT,349.9136,T*18
$GPGGA,021316.40,2234.16376147,N,11431.89739768,E,4,16,0.8,-4.4361,M,-1.3465,M,01,0000*56
$GPRMC,021316.40,A,2234.16376147,N,11431.89739768,E,3.093,59.9,071224,3.4,W,D*1B
$GNVTG,61.730,T,65.169,M,2.99511,N,5.54694,K,D*3E
$GNHDT,350.0550,T*1D
$GPGGA,021316.60,2234.16384055,N,11431.89755603,E,4,16,0.8,-4.4626,M,-1.3465,M,01,0000*5B
$GPRMC,021316.60,A,2234.16384055,N,11431.89755603,E,2.995,61.7,071224,3.4,W,D*1B
$GNVTG,61.408,T,64.846,M,3.07714,N,5.69887,K,D*30
$GNHDT,349.7268,T*1E
$GPGGA,021316.80,2234.16392265,N,11431.89771821,E,4,16,0.8,-4.4794,M,-1.3464,M,00,0000*53
$GPRMC,021316.80,A,2234.16392265,N,11431.89771821,E,3.077,61.4,071224,3.4,W,D*1C
$GNVTG,59.979,T,63.418,M,3.11058,N,5.76079,K,D*3F
$GNHDT,349.2822,T*1F
$GPGGA,021317.00,2234.16400941,N,11431.89787987,E,4,16,0.8,-4.4928,M,-1.3464,M,01,0000*57
$GPRMC,021317.00,A,2234.16400941,N,11431.89787987,E,3.111,60.0,071224,3.4,W,D*14
$GNVTG,58.787,T,62.225,M,3.07529,N,5.69544,K,D*39
$GNHDT,349.2275,T*17
$GPGGA,021317.20,2234.16409825,N,11431.89803775,E,4,16,0.8,-4.4958,M,-1.3464,M,01,0000*58
$GPRMC,021317.20,A,2234.16409825,N,11431.89803775,E,3.075,58.8,071224,3.4,W,D*1C
$GNVTG,59.857,T,63.296,M,3.12664,N,5.79053,K,D*3F
$GNHDT,348.9082,T*17
$GPGGA,021317.40,2234.16418578,N,11431.89820005,E,4,16,0.8,-4.4887,M,-1.3464,M,01,0000*59
$GPRMC,021317.40,A,2234.16418578,N,11431.89820005,E,3.127,59.9,071224,3.4,W,D*18
$GNVTG,60.879,T,64.318,M,3.00493,N,5.56514,K,D*3B
$GNHDT,349.1787,T*1C
$GPGGA,021317.60,2234.16426730,N,11431.89835762,E,4,16,0.8,-4.4621,M,-1.3464,M,01,0000*58
$GPRMC,021317.60,A,2234.16426730,N,11431.89835762,E,3.005,60.9,071224,3.4,W,D*10
$GNVTG,59.397,T,62.836,M,3.08909,N,5.72099,K,D*3B
$GNHDT,349.3542,T*15
$GPGGA,021317.80,2234.16435497,N,11431.89851722,E,4,16,0.8,-4.4383,M,-1.3464,M,01,0000*51
$GPRMC,021317.80,A,2234.16435497,N,11431.89851722,E,3.089,59.4,071224,3.4,W,D*17
$GNVTG,59.238,T,62.677,M,3.22103,N,5.96535,K,D*37
$GNHDT,349.0611,T*13
$GPGGA,021318.00,2234.16444681,N,11431.89868336,E,4,16,0.8,-4.4122,M,-1.3464,M,02,0000*54
$GPRMC,021318.00,A,2234.16444681,N,11431.89868336,E,3.221,59.2,071224,3.4,W,D*1E
$GNVTG,57.166,T,60.605,M,3.25388,N,6.02619,K,D*33
$GNHDT,348.9513,T*1A
$GPGGA,021318.20,2234.16454516,N,11431.89884748,E,4,16,0.8,-4.4504,M,-1.3464,M,02,0000*55
$GPRMC,021318.20,A,2234.16454516,N,11431.89884748,E,3.254,57.2,071224,3.4,W,D*13
$GNVTG,59.233,T,62.672,M,3.20327,N,5.93245,K,D*3A
$GNHDT,349.3029,T*1D
$GPGGA,021318.40,2234.16463651,N,11431.89901269,E,4,16,0.8,-4.4850,M,-1.3464,M,02,0000*51
$GPRMC,021318.40,A,2234.16463651,N,11431.89901269,E,3.203,59.2,071224,3.4,W,D*17
$GNVTG,59.877,T,63.315,M,3.19671,N,5.92031,K,D*39
$GNHDT,349.1049,T*19
$GPGGA,021318.60,2234.16472595,N,11431.89917866,E,4,16,0.8,-4.5204,M,-1.3464,M,02,0000*50
$GPRMC,021318.60,A,2234.16472595,N,11431.89917866,E,3.197,59.9,071224,3.4,W,D*19
$GNVTG,58.411,T,61.850,M,3.04346,N,5.63649,K,D*36
$GNHDT,349.3835,T*18
$GPGGA,021318.80,2234.16481482,N,11431.89933428,E,4,16,0.8,-4.4879,M,-1.3464,M,02,0000*54
$GPRMC,021318.80,A,2234.16481482,N,11431.89933428,E,3.043,58.4,071224,3.4,W,D*18
$GNVTG,61.010,T,64.449,M,3.10005,N,5.74128,K,D*3F
$GNHDT,349.2903,T*1D
$GPGGA,021319.00,2234.16489858,N,11431.89949705,E,4,16,0.8,-4.4485,M,-1.3463,M,03,0000*56
$GPRMC,021319.00,A,2234.16489858,N,11431.89949705,E,3.100,61.0,071224,3.4,W,D*1B
$GNVTG,58.990,T,62.428,M,3.07434,N,5.69368,K,D*3F
$GNHDT,349.2740,T*14
$GPGGA,021319.20,2234.16498687,N,11431.89965521,E,4,16,0.8,-4.4029,M,-1.3464,M,03,0000*57
$GPRMC,021319.20,A,2234.16498687,N,11431.89965521,E,3.074,59.0,071224,3.4,W,D*16
$GNVTG,57.670,T,61.108,M,3.11822,N,5.77493,K,D*35
$GNHDT,349.0400,T*11
$GPGGA,021319.40,2234.16507984,N,11431.89981337,E,4,16,0.8,-4.3459,M,-1.3464,M,03,0000*55
$GPRMC,021319.40,A,2234.16507984,N,11431.89981337,E,3.118,57.7,071224,3.4,W,D*12
$GNVTG,58.065,T,61.504,M,3.16110,N,5.85435,K,D*3E
$GNHDT,348.6212,T*13
$GPGGA,021319.60,2234.16517305,N,11431.89997440,E,4,16,0.8,-4.3507,M,-1.3463,M,03,0000*58
$GPRMC,021319.60,A,2234.16517305,N,11431.89997440,E,3.161,58.1,071224,3.4,W,D*15
$GNVTG,58.067,T,61.505,M,3.20040,N,5.92715,K,D*3B
$GNHDT,348.1683,T*18
$GPGGA,021319.80,2234.16526742,N,11431.90013743,E,4,16,0.8,-4.3534,M,-1.3463,M,03,0000*5E
$GPRMC,021319.80,A,2234.16526742,N,11431.90013743,E,3.200,58.1,071224,3.4,W,D*17
$GNVTG,60.579,T,64.018,M,3.17338,N,5.87710,K,D*3F
$GNHDT,348.0253,T*10
$GPGGA,021320.00,2234.16535432,N,11431.90030335,E,4,16,0.8,-4.3840,M,-1.3463,M,04,0000*57
$GPRMC,021320.00,A,2234.16535432,N,11431.90030335,E,3.173,60.6,071224,3.4,W,D*1C
$GNVTG,57.254,T,60.692,M,3.02859,N,5.60894,K,D*31
$GNHDT,348.6438,T*1D
$GPGGA,021320.20,2234.16544565,N,11431.90045625,E,4,16,0.8,-4.3821,M,-1.3463,M,04,0000*51
$GPRMC,021320.20,A,2234.16544565,N,11431.90045625,E,3.029,57.3,071224,3.4,W,D*12
$GNVTG,56.956,T,60.395,M,3.07996,N,5.70408,K,D*34
$GNHDT,348.8319,T*17
$GPGGA,021320.40,2234.16553927,N,11431.90061122,E,4,16,0.8,-4.4080,M,-1.3463,M,04,0000*59
$GPRMC,021320.40,A,2234.16553927,N,11431.90061122,E,3.080,57.0,071224,3.4,W,D*1E
$GNVTG,56.911,T,60.350,M,3.08761,N,5.71826,K,D*36
$GNHDT,348.4904,T*1D
$GPGGA,021320.60,2234.16563324,N,11431.90076650,E,4,16,0.8,-4.4128,M,-1.3463,M,04,0000*56
$GPRMC,021320.60,A,2234.16563324,N,11431.90076650,E,3.088,56.9,071224,3.4,W,D*12
$GNVTG,59.613,T,63.051,M,3.13934,N,5.81406,K,D*30
$GNHDT,348.4357,T*11
$GPGGA,021320.80,2234.16572177,N,11431.90092906,E,4,16,0.8,-4.4049,M,-1.3463,M,04,0000*5C
$GPRMC,021320.80,A,2234.16572177,N,11431.90092906,E,3.139,59.6,071224,3.4,W,D*15
$GNVTG,59.907,T,63.345,M,3.12492,N,5.78736,K,D*3A
$GNHDT,348.2292,T*1F
$GPGGA,021321.00,2234.16580912,N,11431.90109135,E,4,16,0.8,-4.4440,M,-1.3463,M,05,0000*54
$GPRMC,021321.00,A,2234.16580912,N,11431.90109135,E,3.125,59.9,071224,3.4,W,D*13
$GNVTG,58.716,T,62.154,M,3.13887,N,5.81319,K,D*30
$GNHDT,348.2940,T*1B
$GPGGA,021321.20,2234.16589998,N,11431.90125237,E,4,16,0.8,-4.4495,M,-1.3463,M,05,0000*5A
$GPRMC,021321.20,A,2234.16589998,N,11431.90125237,E,3.139,58.7,071224,3.4,W,D*17
$GNVTG,56.457,T,59.896,M,3.12016,N,5.77853,K,D*3A
$GNHDT,347.9969,T*14
$GPGGA,021321.40,2234.16599610,N,11431.90140847,E,4,16,0.8,-4.4335,M,-1.3463,M,05,0000*51
$GPRMC,021321.40,A,2234.16599610,N,11431.90140847,E,3.120,56.5,071224,3.4,W,D*15
$GNVTG,57.900,T,61.338,M,3.07420,N,5.69341,K,D*32
$GNHDT,347.9138,T*18
$GPGGA,021321.60,2234.16608717,N,11431.90156479,E,4,16,0.8,-4.4045,M,-1.3463,M,03,0000*5A
$GPRMC,021321.60,A,2234.16608717,N,11431.90156479,E,3.074,57.9,071224,3.4,W,D*11
$GNVTG,58.138,T,61.576,M,3.02836,N,5.60852,K,D*3C
$GNHDT,347.9865,T*19
$GPGGA,021321.80,2234.16617629,N,11431.90171918,E,4,16,0.8,-4.4183,M,-1.3463,M,00,0000*51
$GPRMC,021321.80,A,2234.16617629,N,11431.90171918,E,3.028,58.1,071224,3.4,W,D*1C
$GNVTG,58.239,T,61.677,M,3.17482,N,5.87977,K,D*34
$GNHDT,347.9485,T*1B
$GPGGA,021322.00,2234.16626945,N,11431.90188121,E,4,16,0.8,-4.4029,M,-1.3462,M,01,0000*58
$GPRMC,021322.00,A,2234.16626945,N,11431.90188121,E,3.175,58.2,071224,3.4,W,D*1E
$GNVTG,57.957,T,61.396,M,3.16269,N,5.85730,K,D*3F
$GNHDT,347.7417,T*1E
$GPGGA,021322.20,2234.16636299,N,11431.90204213,E,4,16,0.8,-4.4377,M,-1.3463,M,01,0000*5D
$GPRMC,021322.20,A,2234.16636299,N,11431.90204213,E,3.163,58.0,071224,3.4,W,D*17
$GNVTG,56.805,T,60.244,M,3.21332,N,5.95107,K,D*3F
$GNHDT,347.5315,T*19
$GPGGA,021322.40,2234.16646107,N,11431.90220354,E,4,16,0.8,-4.4929,M,-1.3463,M,01,0000*5D
$GPRMC,021322.40,A,2234.16646107,N,11431.90220354,E,3.213,56.8,071224,3.4,W,D*14
$GNVTG,58.343,T,61.782,M,3.23371,N,5.98883,K,D*3B
$GNHDT,347.4904,T*12
$GPGGA,021322.60,2234.16655568,N,11431.90236876,E,4,16,0.8,-4.5095,M,-1.3462,M,01,0000*52
$GPRMC,021322.60,A,2234.16655568,N,11431.90236876,E,3.234,58.3,071224,3.4,W,D*15
$GNVTG,56.696,T,60.135,M,3.20852,N,5.94219,K,D*3F
$GNHDT,347.3843,T*17
$GPGGA,021322.80,2234.16665389,N,11431.90252972,E,4,16,0.8,-4.4925,M,-1.3462,M,00,0000*53
$GPRMC,021322.80,A,2234.16665389,N,11431.90252972,E,3.209,56.7,071224,3.4,W,D*12
$GNVTG,58.136,T,61.575,M,3.17375,N,5.87779,K,D*36
$GNHDT,347.5403,T*19
$GPGGA,021323.00,2234.16674729,N,11431.90269152,E,4,16,0.8,-4.4465,M,-1.3462,M,01,0000*5E
$GPRMC,021323.00,A,2234.16674729,N,11431.90269152,E,3.174,58.1,071224,3.4,W,D*16
$GNVTG,60.123,T,63.562,M,3.20179,N,5.92972,K,D*36
$GNHDT,347.2686,T*11
$GPGGA,021323.20,2234.16683621,N,11431.90285817,E,4,16,0.8,-4.4071,M,-1.3462,M,01,0000*56
$GPRMC,021323.20,A,2234.16683621,N,11431.90285817,E,3.202,60.1,071224,3.4,W,D*16
$GNVTG,55.824,T,59.262,M,3.22250,N,5.96807,K,D*3D
$GNHDT,347.1038,T*11
$GPGGA,021323.40,2234.16693712,N,11431.90301820,E,4,16,0.8,-4.3967,M,-1.3462,M,01,0000*50
$GPRMC,021323.40,A,2234.16693712,N,11431.90301820,E,3.222,55.8,071224,3.4,W,D*14
$GNVTG,56.238,T,59.677,M,3.18772,N,5.90366,K,D*3F
$GNHDT,347.2039,T*13
$GPGGA,021323.60,2234.16703588,N,11431.90317728,E,4,16,0.8,-4.3885,M,-1.3462,M,01,0000*56
$GPRMC,021323.60,A,2234.16703588,N,11431.90317728,E,3.188,56.2,071224,3.4,W,D*15
$GNVTG,55.964,T,59.403,M,3.07834,N,5.70109,K,D*39
$GNHDT,347.3857,T*12
