888,T,177.322,M,0.14181,N,0.26263,K,D*39
$GNHDT,251.5847,T*13
$GPGGA,082058.20,2234.21286645,N,11432.08628365,E,4,20,0.8,0.9383,M,-1.3365,M,01,0000*77
$GPRMC,082058.20,A,2234.21286645,N,11432.08628365,E,0.142,173.9,051224,3.4,W,D*25
$GNVTG,278.601,T,282.034,M,0.12312,N,0.22802,K,D*34
$GNHDT,251.3630,T*1B
$GPGGA,082058.40,2234.21286748,N,11432.08627635,E,4,20,0.8,0.9478,M,-1.3365,M,01,0000*71
$GPRMC,082058.40,A,2234.21286748,N,11432.08627635,E,0.123,278.6,051224,3.4,W,D*20
$GNVTG,153.635,T,157.068,M,0.05661,N,0.10483,K,D*38
$GNHDT,251.8748,T*1E
$GPGGA,082058.60,2234.21286465,N,11432.08627786,E,4,20,0.8,0.9215,M,-1.3365,M,01,0000*7B
$GPRMC,082058.60,A,2234.21286465,N,11432.08627786,E,0.057,153.6,051224,3.4,W,D*2F
$GNVTG,222.663,T,226.096,M,0.09518,N,0.17627,K,D*30
$GNHDT,252.3056,T*1E
$GPGGA,082058.80,2234.21286075,N,11432.08627398,E,4,20,0.8,0.9040,M,-1.3365,M,00,0000*78
$GPRMC,082058.80,A,2234.21286075,N,11432.08627398,E,0.095,222.7,051224,3.4,W,D*25
$GNVTG,331.837,T,335.270,M,0.03170,N,0.05872,K,D*38
$GNHDT,252.1440,T*1F
$GPGGA,082059.00,2234.21286231,N,11432.08627309,E,4,21,0.7,0.9098,M,-1.3365,M,01,0000*71
$GPRMC,082059.00,A,2234.21286231,N,11432.08627309,E,0.032,331.8,051224,3.4,W,D*27
$GNVTG,320.513,T,323.947,M,0.11513,N,0.21323,K,D*30
$GNHDT,251.8642,T*15
$GPGGA,082059.20,2234.21286726,N,11432.08626869,E,4,21,0.7,0.9006,M,-1.3365,M,01,0000*7B
$GPRMC,082059.20,A,2234.21286726,N,11432.08626869,E,0.115,320.5,051224,3.4,W,D*23
$GNVTG,205.320,T,208.753,M,0.14554,N,0.26954,K,D*38
$GNHDT,252.8610,T*11
$GPGGA,082059.40,2234.21285993,N,11432.08626495,E,4,21,0.7,0.9174,M,-1.3365,M,01,0000*75
$GPRMC,082059.40,A,2234.21285993,N,11432.08626495,E,0.146,205.3,051224,3.4,W,D*2F
$GNVTG,232.490,T,235.924,M,0.13813,N,0.25582,K,D*3D
$GNHDT,253.1868,T*18
$GPGGA,082059.60,2234.21285524,N,11432.08625838,E,4,21,0.7,0.9248,M,-1.3365,M,01,0000*73
$GPRMC,082059.60,A,2234.21285524,N,11432.08625838,E,0.138,232.5,051224,3.4,W,D*2E
$GNVTG,238.187,T,241.620,M,0.25831,N,0.47838,K,D*31
$GNHDT,253.3716,T*1C
$GPGGA,082059.80,2234.21284765,N,11432.08624520,E,4,21,0.7,0.9509,M,-1.3365,M,00,0000*7D
$GPRMC,082059.80,A,2234.21284765,N,11432.08624520,E,0.258,238.2,051224,3.4,W,D*2B
$GNVTG,237.386,T,240.820,M,0.08113,N,0.15026,K,D*34
$GNHDT,253.2983,T*1F
$GPGGA,082100.00,2234.21284521,N,11432.08624110,E,4,21,0.7,0.9723,M,-1.3365,M,01,0000*76
$GPRMC,082100.00,A,2234.21284521,N,11432.08624110,E,0.081,237.4,051224,3.4,W,D*24
$GNVTG,206.351,T,209.784,M,0.04856,N,0.08994,K,D*38
$GNHDT,253.5719,T*15
$GPGGA,082100.20,2234.21284278,N,11432.08623981,E,4,21,0.7,0.9626,M,-1.3365,M,01,0000*7C
$GPRMC,082100.20,A,2234.21284278,N,11432.08623981,E,0.049,206.4,051224,3.4,W,D*2C
$GNVTG,276.369,T,279.803,M,0.08829,N,0.16351,K,D*3B
$GNHDT,253.5233,T*18
$GPGGA,082100.40,2234.21284333,N,11432.08623454,E,4,21,0.7,0.9504,M,-1.3365,M,01,0000*72
$GPRMC,082100.40,A,2234.21284333,N,11432.08623454,E,0.088,276.4,051224,3.4,W,D*2B
$GNVTG,143.166,T,146.599,M,0.04886,N,0.09050,K,D*37
$GNHDT,253.4568,T*10
$GPGGA,082100.60,2234.21284115,N,11432.08623630,E,4,21,0.7,0.9316,M,-1.3365,M,01,0000*73
$GPRMC,082100.60,A,2234.21284115,N,11432.08623630,E,0.049,143.2,051224,3.4,W,D*21
$GNVTG,242.192,T,245.625,M,0.17230,N,0.31910,K,D*39
$GNHDT,253.7921,T*12
$GPGGA,082100.80,2234.21283667,N,11432.08622715,E,4,22,0.7,0.9244,M,-1.3365,M,00,0000*7B
$GPRMC,082100.80,A,2234.21283667,N,11432.08622715,E,0.172,242.2,051224,3.4,W,D*26
$GNVTG,222.386,T,225.819,M,0.14307,N,0.26497,K,D*3D
$GNHDT,253.9245,T*15
$GPGGA,082101.00,2234.21283078,N,11432.08622136,E,4,22,0.7,0.9176,M,-1.3365,M,01,0000*7E
$GPRMC,082101.00,A,2234.21283078,N,11432.08622136,E,0.143,222.4,051224,3.4,W,D*22
$GNVTG,207.162,T,210.595,M,0.13332,N,0.24692,K,D*39
$GNHDT,253.8270,T*12
$GPGGA,082101.20,2234.21282416,N,11432.08621771,E,4,22,0.7,0.9371,M,-1.3365,M,01,0000*72
$GPRMC,082101.20,A,2234.21282416,N,11432.08621771,E,0.133,207.2,051224,3.4,W,D*2D
$GNVTG,147.267,T,150.700,M,0.13576,N,0.25143,K,D*3D
$GNHDT,254.2112,T*18
$GPGGA,082101.40,2234.21281780,N,11432.08622211,E,4,22,0.7,0.9496,M,-1.3365,M,01,0000*75
$GPRMC,082101.40,A,2234.21281780,N,11432.08622211,E,0.136,147.3,051224,3.4,W,D*27
$GNVTG,183.665,T,187.099,M,0.08768,N,0.16238,K,D*36
$GNHDT,254.4888,T*14
$GPGGA,082101.60,2234.21281292,N,11432.08622178,E,4,22,0.7,0.9628,M,-1.3365,M,01,0000*7A
$GPRMC,082101.60,A,2234.21281292,N,11432.08622178,E,0.088,183.7,051224,3.4,W,D*27
$GNVTG,89.684,T,93.118,M,0.16143,N,0.29896,K,D*3C
$GNHDT,254.3582,T*14
$GPGGA,082101.80,2234.21281297,N,11432.08623147,E,4,21,0.8,0.9530,M,-1.3365,M,00,0000*7B
$GPRMC,082101.80,A,2234.21281297,N,11432.08623147,E,0.161,89.7,051224,3.4,W,D*1C
$GNVTG,83.581,T,87.014,M,0.06158,N,0.11404,K,D*3F
$GNHDT,254.4680,T*12
$GPGGA,082102.00,2234.21281335,N,11432.08623514,E,4,21,0.8,0.9369,M,-1.3365,M,01,0000*70
$GPRMC,082102.00,A,2234.21281335,N,11432.08623514,E,0.062,83.6,051224,3.4,W,D*15
$GNVTG,64.400,T,67.833,M,0.22354,N,0.41400,K,D*34
$GNHDT,254.5479,T*17
$GPGGA,082102.20,2234.21281874,N,11432.08624724,E,4,21,0.8,0.8810,M,-1.3365,M,01,0000*7E
$GPRMC,082102.20,A,2234.21281874,N,11432.08624724,E,0.224,64.4,051224,3.4,W,D*14
$GNVTG,46.806,T,50.240,M,0.12032,N,0.22283,K,D*3C
$GNHDT,254.7454,T*1A
$GPGGA,082102.40,2234.21282333,N,11432.08625251,E,4,21,0.8,0.8887,M,-1.3365,M,01,0000*7B
$GPRMC,082102.40,A,2234.21282333,N,11432.08625251,E,0.120,46.8,051224,3.4,W,D*14
$GNVTG,58.073,T,61.506,M,0.16042,N,0.29709,K,D*31
$GNHDT,255.0943,T*17
$GPGGA,082102.60,2234.21282806,N,11432.08626068,E,4,21,0.8,0.8552,M,-1.3365,M,01,0000*7A
$GPRMC,082102.60,A,2234.21282806,N,11432.08626068,E,0.160,58.1,051224,3.4,W,D*12
$GNVTG,18.237,T,21.671,M,0.03572,N,0.06615,K,D*33
$GNHDT,254.8887,T*17
$GPGGA,082102.80,2234.21282995,N,11432.08626135,E,4,21,0.8,0.8825,M,-1.3365,M,01,0000*7B
$GPRMC,082102.80,A,2234.21282995,N,11432.08626135,E,0.036,18.2,051224,3.4,W,D*1B
$GNVTG,75.468,T,78.901,M,0.00896,N,0.01659,K,D*3B
$GNHDT,255.3286,T*16
$GPGGA,082103.00,2234.21283007,N,11432.08626187,E,4,20,0.8,0.9190,M,-1.3365,M,01,0000*7F
$GPRMC,082103.00,A,2234.21283007,N,11432.08626187,E,0.009,75.5,051224,3.4,W,D*18
$GNVTG,221.753,T,225.186,M,0.23653,N,0.43805,K,D*39
$GNHDT,256.1196,T*15
$GPGGA,082103.20,2234.21282024,N,11432.08625241,E,4,19,0.8,0.9570,M,-1.3365,M,01,0000*77
$GPRMC,082103.20,A,2234.21282024,N,11432.08625241,E,0.237,221.8,051224,3.4,W,D*21
$GNVTG,255.488,T,258.921,M,0.04172,N,0.07726,K,D*3F
$GNHDT,256.0742,T*1B
$GPGGA,082103.40,2234.21281965,N,11432.08624999,E,4,19,0.8,0.9846,M,-1.3365,M,01,0000*79
$GPRMC,082103.40,A,2234.21281965,N,11432.08624999,E,0.042,255.5,051224,3.4,W,D*29
$GNVTG,40.405,T,43.839,M,0.08431,N,0.15614,K,D*31
$GNHDT,255.8537,T*10
$GPGGA,082103.60,2234.21282323,N,11432.08625327,E,4,19,0.8,0.9780,M,-1.3365,M,01,0000*7B
$GPRMC,082103.60,A,2234.21282323,N,11432.08625327,E,0.084,40.4,051224,3.4,W,D*13
$GNVTG,35.355,T,38.789,M,0.09311,N,0.17244,K,D*3E
$GNHDT,255.7937,T*13
$GPGGA,082103.80,2234.21282747,N,11432.08625650,E,4,20,0.8,0.9387,M,-1.3365,M,00,0000*7E
$GPRMC,082103.80,A,2234.21282747,N,11432.08625650,E,0.093,35.4,051224,3.4,W,D*1A
$GNVTG,46.637,T,50.071,M,0.03071,N,0.05687,K,D*32
$GNHDT,256.0844,T*12
$GPGGA,082104.00,2234.21282864,N,11432.08625784,E,4,20,0.8,0.9394,M,-1.3365,M,01,0000*74
$GPRMC,082104.00,A,2234.21282864,N,11432.08625784,E,0.031,46.6,051224,3.4,W,D*1D
$GNVTG,139.788,T,143.222,M,0.10306,N,0.19087,K,D*33
$GNHDT,255.9153,T*17
$GPGGA,082104.20,2234.21282425,N,11432.08626184,E,4,20,0.8,0.9208,M,-1.3365,M,01,0000*7E
$GPRMC,082104.20,A,2234.21282425,N,11432.08626184,E,0.103,139.8,051224,3.4,W,D*24
$GNVTG,202.534,T,205.968,M,0.18871,N,0.34949,K,D*3E
$GNHDT,256.4885,T*1B
$GPGGA,082104.40,2234.21281454,N,11432.08625750,E,4,20,0.8,0.9091,M,-1.3365,M,01,0000*73
$GPRMC,082104.40,A,2234.21281454,N,11432.08625750,E,0.189,202.5,051224,3.4,W,D*2F
$GNVTG,224.679,T,228.112,M,0.30135,N,0.55809,K,D*3B
$GNHDT,256.2572,T*18
$GPGGA,082104.60,2234.21280259,N,11432.08624478,E,4,21,0.7,0.9455,M,-1.3365,M,01,0000*71
$GPRMC,082104.60,A,2234.21280259,N,11432.08624478,E,0.301,224.7,051224,3.4,W,D*2B
$GNVTG,247.083,T,250.516,M,0.23893,N,0.44249,K,D*3B
$GNHDT,256.5214,T*18
$GPGGA,082104.80,2234.21279741,N,11432.08623157,E,4,21,0.7,0.9458,M,-1.3365,M,01,0000*77
$GPRMC,082104.80,A,2234.21279741,N,11432.08623157,E,0.239,247.1,051224,3.4,W,D*29
$GNVTG,230.733,T,234.166,M,0.15014,N,0.27806,K,D*30
$GNHDT,256.5497,T*15
$GPGGA,082105.00,2234.21279211,N,11432.08622459,E,4,22,0.7,0.9645,M,-1.3365,M,02,0000*7A
$GPRMC,082105.00,A,2234.21279211,N,11432.08622459,E,0.150,230.7,051224,3.4,W,D*20
$GNVTG,282.124,T,285.557,M,0.15420,N,0.28558,K,D*3F
$GNHDT,256.6794,T*16
$GPGGA,082105.20,2234.21279391,N,11432.08621554,E,4,22,0.7,0.9907,M,-1.3365,M,02,0000*77
$GPRMC,082105.20,A,2234.21279391,N,11432.08621554,E,0.154,282.1,051224,3.4,W,D*2F
$GNVTG,159.982,T,163.415,M,0.10322,N,0.19116,K,D*3E
$GNHDT,256.9326,T*14
$GPGGA,082105.40,2234.21278851,N,11432.08621766,E,4,22,0.7,0.9583,M,-1.3365,M,02,0000*74
$GPRMC,082105.40,A,2234.21278851,N,11432.08621766,E,0.103,160.0,051224,3.4,W,D*20
$GNVTG,213.160,T,216.593,M,0.06479,N,0.11999,K,D*30
$GNHDT,257.3157,T*1B
$GPGGA,082105.60,2234.21278548,N,11432.08621554,E,4,22,0.7,0.9527,M,-1.3365,M,02,0000*7E
$GPRMC,082105.60,A,2234.21278548,N,11432.08621554,E,0.065,213.2,051224,3.4,W,D*20
$GNVTG,204.493,T,207.927,M,0.13408,N,0.24831,K,D*3B
$GNHDT,257.3152,T*1E
$GPGGA,082105.80,2234.21277868,N,11432.08621220,E,4,22,0.7,0.9287,M,-1.3365,M,00,0000*7B
$GPRMC,082105.80,A,2234.21277868,N,11432.08621220,E,0.134,204.5,051224,3.4,W,D*2E
$GNVTG,237.173,T,240.607,M,0.20229,N,0.37464,K,D*35
$GNHDT,257.4597,T*14
$GPGGA,082106.00,2234.21277257,N,11432.08620200,E,4,22,0.7,0.9269,M,-1.3365,M,01,0000*74
$GPRMC,082106.00,A,2234.21277257,N,11432.08620200,E,0.202,237.2,051224,3.4,W,D*21
$GNVTG,235.430,T,238.863,M,0.26630,N,0.49319,K,D*38
$GNHDT,257.2643,T*18
$GPGGA,082106.20,2234.21276414,N,11432.08618883,E,4,22,0.7,0.9080,M,-1.3365,M,01,0000*79
$GPRMC,082106.20,A,2234.21276414,N,11432.08618883,E,0.266,235.4,051224,3.4,W,D*2F
$GNVTG,204.954,T,208.387,M,0.14425,N,0.26715,K,D*31
$GNHDT,257.8974,T*19
$GPGGA,082106.40,2234.21275685,N,11432.08618518,E,4,22,0.7,0.9083,M,-1.3365,M,01,0000*7A
$GPRMC,082106.40,A,2234.21275685,N,11432.08618518,E,0.144,205.0,051224,3.4,W,D*2B
$GNVTG,225.051,T,228.484,M,0.12086,N,0.22384,K,D*3B
$GNHDT,257.8233,T*11
$GPGGA,082106.60,2234.21275209,N,11432.08618005,E,4,22,0.7,0.9222,M,-1.3365,M,01,0000*78
$GPRMC,082106.60,A,2234.21275209,N,11432.08618005,E,0.121,225.1,051224,3.4,W,D*20
$GNVTG,240.420,T,243.854,M,0.03852,N,0.07134,K,D*39
$GNHDT,258.1549,T*1D
$GPGGA,082106.80,2234.21275103,N,11432.08617803,E,4,21,0.7,0.9382,M,-1.3365,M,00,0000*77
$GPRMC,082106.80,A,2234.21275103,N,11432.08617803,E,0.039,240.4,051224,3.4,W,D*28
$GNVTG,43.160,T,46.593,M,0.17465,N,0.32346,K,D*34
$GNHDT,257.6080,T*15
$GPGGA,082107.00,2234.21275814,N,11432.08618521,E,4,21,0.7,0.9157,M,-1.3365,M,01,0000*78
$GPRMC,082107.00,A,2234.21275814,N,11432.08618521,E,0.175,43.2,051224,3.4,W,D*12
$GNVTG,193.450,T,196.884,M,0.11972,N,0.22171,K,D*33
$GNHDT,258.3724,T*16
$GPGGA,082107.20,2234.21275164,N,11432.08618353,E,4,21,0.7,0.9036,M,-1.3365,M,01,0000*71
$GPRMC,082107.20,A,2234.21275164,N,11432.08618353,E,0.120,193.5,051224,3.4,W,D*26
$GNVTG,288.174,T,291.608,M,0.03933,N,0.07285,K,D*3E
$GNHDT,258.7466,T*17
$GPGGA,082107.40,2234.21275233,N,11432.08618129,E,4,21,0.7,0.9027,M,-1.3365,M,01,0000*79
$GPRMC,082107.40,A,2234.21275233,N,11432.08618129,E,0.039,288.2,051224,3.4,W,D*29
$GNVTG,54.156,T,57.590,M,0.04645,N,0.08602,K,D*3A
$GNHDT,258.8864,T*16
$GPGGA,082107.60,2234.21275384,N,11432.08618355,E,4,21,0.7,0.8866,M,-1.3365,M,01,0000*73
$GPRMC,082107.60,A,2234.21275384,N,11432.08618355,E,0.046,54.2,051224,3.4,W,D*14
$GNVTG,56.583,T,60.016,M,0.12000,N,0.22225,K,D*32
$GNHDT,258.6587,T*18
$GPGGA,082107.80,2234.21275753,N,11432.08618956,E,4,21,0.7,0.8807,M,-1.3365,M,00,0000*7C
$GPRMC,082107.80,A,2234.21275753,N,11432.08618956,E,0.120,56.6,051224,3.4,W,D*1A
$GNVTG,138.984,T,142.417,M,0.03814,N,0.07064,K,D*39
$GNHDT,259.3219,T*1C
$GPGGA,082108.00,2234.21275592,N,11432.08619107,E,4,22,0.7,0.8755,M,-1.3365,M,01,0000*73
$GPRMC,082108.00,A,2234.21275592,N,11432.08619107,E,0.038,139.0,051224,3.4,W,D*29
$GNVTG,25.529,T,28.962,M,0.13973,N,0.25879,K,D*38
$GNHDT,259.0937,T*18
$GPGGA,082108.20,2234.21276295,N,11432.08619468,E,4,22,0.7,0.8981,M,-1.3365,M,01,0000*79
$GPRMC,082108.20,A,2234.21276295,N,11432.08619468,E,0.140,25.5,051224,3.4,W,D*13
$GNVTG,79.240,T,82.673,M,0.13755,N,0.25474,K,D*3D
$GNHDT,259.2860,T*19
$GPGGA,082108.40,2234.21276439,N,11432.08620279,E,4,22,0.7,0.8914,M,-1.3365,M,01,0000*7F
$GPRMC,082108.40,A,2234.21276439,N,11432.08620279,E,0.138,79.2,051224,3.4,W,D*18
$GNVTG,71.606,T,75.040,M,0.17804,N,0.32974,K,D*39
$GNHDT,259.2937,T*1A
$GPGGA,082108.60,2234.21276752,N,11432.08621293,E,4,22,0.7,0.8924,M,-1.3365,M,01,0000*75
$GPRMC,082108.60,A,2234.21276752,N,11432.08621293,E,0.178,71.6,051224,3.4,W,D*19
$GNVTG,114.110,T,117.543,M,0.09398,N,0.17406,K,D*36
$GNHDT,259.6516,T*11
$GPGGA,082108.80,2234.21276538,N,11432.08621808,E,4,22,0.7,0.9079,M,-1.3365,M,00,0000*7C
$GPRMC,082108.80,A,2234.21276538,N,11432.08621808,E,0.094,114.1,051224,3.4,W,D*27
$GNVTG,127.258,T,130.692,M,0.09600,N,0.17780,K,D*3A
$GNHDT,259.5826,T*1C
$GPGGA,082109.00,2234.21276214,N,11432.08622267,E,4,21,0.7,0.9275,M,-1.3365,M,01,0000*70
$GPRMC,082109.00,A,2234.21276214,N,11432.08622267,E,0.096,127.3,051224,3.4,W,D*27
$GNVTG,141.416,T,144.850,M,0.11575,N,0.21436,K,D*36
$GNHDT,260.1120,T*1D
$GPGGA,082109.20,2234.21275709,N,11432.08622700,E,4,20,0.8,0.9907,M,-1.3365,M,01,0000*7C
$GPRMC,082109.20,A,2234.21275709,N,11432.08622700,E,0.116,141.4,051224,3.4,W,D*25
$GNVTG,162.327,T,165.761,M,0.16046,N,0.29717,K,D*36
$GNHDT,259.9208,T*16
$GPGGA,082109.40,2234.21274857,N,11432.08622993,E,4,20,0.8,0.9828,M,-1.3365,M,01,0000*77
$GPRMC,082109.40,A,2234.21274857,N,11432.08622993,E,0.160,162.3,051224,3.4,W,D*25
$GNVTG,203.519,T,206.952,M,0.22866,N,0.42348,K,D*3F
$GNHDT,260.2816,T*12
$GPGGA,082109.60,2234.21273688,N,11432.08622445,E,4,20,0.8,1.0108,M,-1.3365,M,01,0000*7B
$GPRMC,082109.60,A,2234.21273688,N,11432.08622445,E,0.229,203.5,051224,3.4,W,D*26
$GNVTG,213.795,T,217.228,M,0.15196,N,0.28143,K,D*39
$GNHDT,260.1057,T*1C
$GPGGA,082109.80,2234.21272984,N,11432.08621938,E,4,20,0.8,1.0327,M,-1.3365,M,00,0000*7D
$GPRMC,082109.80,A,2234.21272984,N,11432.08621938,E,0.152,213.8,051224,3.4,W,D*2D
$GNVTG,206.946,T,210.379,M,0.21828,N,0.40425,K,D*3F
$GNHDT,260.1810,T*17
$GPGGA,082110.00,2234.21271899,N,11432.08621344,E,4,20,0.8,0.9998,M,-1.3365,M,01,0000*75
$GPRMC,082110.00,A,2234.21271899,N,11432.08621344,E,0.218,206.9,051224,3.4,W,D*2A
$GNVTG,224.636,T,228.070,M,0.09216,N,0.17068,K,D*34
$GNHDT,260.4995,T*1E
$GPGGA,082110.20,2234.21271534,N,11432.08620955,E,4,20,0.8,0.9733,M,-1.3365,M,01,0000*79
$GPRMC,082110.20,A,2234.21271534,N,11432.08620955,E,0.092,224.6,051224,3.4,W,D*26
$GNVTG,194.409,T,197.842,M,0.13071,N,0.24207,K,D*3F
$GNHDT,260.9014,T*13
$GPGGA,082110.40,2234.21270828,N,11432.08620760,E,4,21,0.7,0.9569,M,-1.3365,M,01,0000*75
$GPRMC,082110.40,A,2234.21270828,N,11432.08620760,E,0.131,194.4,051224,3.4,W,D*2B
$GNVTG,224.783,T,228.217,M,0.19118,N,0.35407,K,D*39
$GNHDT,260.9314,T*10
$GPGGA,082110.60,2234.21270072,N,11432.08619952,E,4,21,0.7,0.9857,M,-1.3365,M,01,0000*75
$GPRMC,082110.60,A,2234.21270072,N,11432.08619952,E,0.191,224.8,051224,3.4,W,D*25
$GNVTG,227.411,T,230.845,M,0.29909,N,0.55391,K,D*33
$GNHDT,260.8892,T*14
$GPGGA,082110.80,2234.21268943,N,11432.08618630,E,4,21,0.7,1.0127,M,-1.3365,M,01,0000*75
$GPRMC,082110.80,A,2234.21268943,N,11432.08618630,E,0.299,227.4,051224,3.4,W,D*27
$GNVTG,227.884,T,231.317,M,0.34467,N,0.63832,K,D*30
$GNHDT,261.4683,T*17
$GPGGA,082111.00,2234.21267655,N,11432.08617095,E,4,21,0.7,1.0307,M,-1.3365,M,02,0000*7E
$GPRMC,082111.00,A,2234.21267655,N,11432.08617095,E,0.345,227.9,051224,3.4,W,D*22
$GNVTG,227.983,T,231.416,M,0.40264,N,0.74568,K,D*32
$GNHDT,261.6744,T*1F
$GPGGA,082111.20,2234.21266152,N,11432.08615299,E,4,21,0.7,1.0168,M,-1.3365,M,02,0000*7A
$GPRMC,082111.20,A,2234.21266152,N,11432.08615299,E,0.403,228.0,051224,3.4,W,D*2E
$GNVTG,233.230,T,236.664,M,0.17761,N,0.32894,K,D*3A
$GNHDT,261.5794,T*11
$GPGGA,082111.40,2234.21265560,N,11432.08614445,E,4,21,0.7,0.9878,M,-1.3365,M,02,0000*7C
$GPRMC,082111.40,A,2234.21265560,N,11432.08614445,E,0.178,233.2,051224,3.4,W,D*29
$GNVTG,198.211,T,201.644,M,0.16380,N,0.30335,K,D*35
$GNHDT,261.7844,T*11
$GPGGA,082111.60,2234.21264692,N,11432.08614138,E,4,22,0.7,0.9438,M,-1.3365,M,02,0000*75
$GPRMC,082111.60,A,2234.21264692,N,11432.08614138,E,0.164,198.2,051224,3.4,W,D*24
$GNVTG,134.787,T,138.220,M,0.06140,N,0.11371,K,D*3A
$GNHDT,261.7350,T*1F
$GPGGA,082111.80,2234.21264451,N,11432.08614400,E,4,22,0.7,0.9023,M,-1.3365,M,00,0000*74
$GPRMC,082111.80,A,2234.21264451,N,11432.08614400,E,0.061,134.8,051224,3.4,W,D*21
$GNVTG,186.733,T,190.166,M,0.10194,N,0.18879,K,D*3B
$GNHDT,262.0164,T*1E
$GPGGA,082112.00,2234.21263887,N,11432.08614328,E,4,22,0.7,0.9015,M,-1.3365,M,01,0000*76
$GPRMC,082112.00,A,2234.21263887,N,11432.08614328,E,0.102,186.7,051224,3.4,W,D*25
$GNVTG,203.980,T,207.414,M,0.12757,N,0.23627,K,D*38
$GNHDT,262.3673,T*1C
$GPGGA,082112.20,2234.21263237,N,11432.08614017,E,4,22,0.7,0.8947,M,-1.3365,M,01,0000*75
$GPRMC,082112.20,A,2234.21263237,N,11432.08614017,E,0.128,204.0,051224,3.4,W,D*2F
$GNVTG,241.181,T,244.614,M,0.19849,N,0.36760,K,D*3F
$GNHDT,262.6898,T*12
$GPGGA,082112.40,2234.21262704,N,11432.08612973,E,4,22,0.7,0.9059,M,-1.3365,M,01,0000*7D
$GPRMC,082112.40,A,2234.21262704,N,11432.08612973,E,0.198,241.2,051224,3.4,W,D*28
$GNVTG,204.305,T,207.738,M,0.05577,N,0.10329,K,D*38
$GNHDT,262.5032,T*19
$GPGGA,082112.60,2234.21262420,N,11432.08612835,E,4,22,0.7,0.9058,M,-1.3365,M,01,0000*78
$GPRMC,082112.60,A,2234.21262420,N,11432.08612835,E,0.056,204.3,051224,3.4,W,D*2F
$GNVTG,232.540,T,235.974,M,0.07718,N,0.14294,K,D*37
$GNHDT,262.6118,T*13
$GPGGA,082112.80,2234.21262159,N,11432.08612467,E,4,22,0.7,0.9030,M,-1.3365,M,01,0000*78
$GPRMC,082112.80,A,2234.21262159,N,11432.08612467,E,0.077,232.5,051224,3.4,W,D*21
$GNVTG,35.490,T,38.923,M,0.10412,N,0.19282,K,D*36
$GNHDT,262.3313,T*1F
$GPGGA,082113.00,2234.21262631,N,11432.08612830,E,4,22,0.7,0.8703,M,-1.3365,M,02,0000*73
$GPRMC,082113.00,A,2234.21262631,N,11432.08612830,E,0.104,35.5,051224,3.4,W,D*1F
$GNVTG,156.919,T,160.353,M,0.03469,N,0.06425,K,D*34
$GNHDT,262.9433,T*10
$GPGGA,082113.20,2234.21262453,N,11432.08612912,E,4,22,0.7,0.8743,M,-1.3365,M,02,0000*72
$GPRMC,082113.20,A,2234.21262453,N,11432.08612912,E,0.035,156.9,051224,3.4,W,D*21
$GNVTG,62.628,T,66.061,M,0.10438,N,0.19331,K,D*30
$GNHDT,262.8135,T*12
$GPGGA,082113.40,2234.21262721,N,11432.08613468,E,4,22,0.7,0.8780,M,-1.3365,M,02,0000*7C
$GPRMC,082113.40,A,2234.21262721,N,11432.08613468,E,0.104,62.6,051224,3.4,W,D*1A
$GNVTG,104.927,T,108.360,M,0.09555,N,0.17697,K,D*3F
$GNHDT,262.9594,T*1C
$GPGGA,082113.60,2234.21262584,N,11432.08614022,E,4,22,0.7,0.8895,M,-1.3365,M,02,0000*75
$GPRMC,082113.60,A,2234.21262584,N,11432.08614022,E,0.096,104.9,051224,3.4,W,D*2C
$GNVTG,28.596,T,32.030,M,0.06091,N,0.11281,K,D*3F
$GNHDT,262.5213,T*18
$GPGGA,082113.80,2234.21262882,N,11432.08614197,E,4,22,0.7,0.9151,M,-1.3365,M,00,0000*7D
$GPRMC,082113.80,A,2234.21262882,N,11432.08614197,E,0.061,28.6,051224,3.4,W,D*1E
$GNVTG,108.397,T,111.830,M,0.21113,N,0.39101,K,D*3C
$GNHDT,263.1074,T*1E
$GPGGA,082114.00,2234.21262510,N,11432.08615400,E,4,22,0.7,0.9026,M,-1.3365,M,01,0000*7E
$GPRMC,082114.00,A,2234.21262510,N,11432.08615400,E,0.211,108.4,051224,3.4,W,D*29
$GNVTG,147.623,T,151.056,M,0.06804,N,0.12600,K,D*34
$GNHDT,263.5540,T*18
$GPGGA,082114.20,2234.21262190,N,11432.08615619,E,4,22,0.7,0.8908,M,-1.3365,M,01,0000*7E
$GPRMC,082114.20,A,2234.21262190,N,11432.08615619,E,0.068,147.6,051224,3.4,W,D*28
$GNVTG,78.305,T,81.738,M,0.06196,N,0.11475,K,D*3A
$GNHDT,263.2982,T*1D
$GPGGA,082114.40,2234.21262260,N,11432.08615983,E,4,22,0.7,0.8654,M,-1.3365,M,01,0000*7E
$GPRMC,082114.40,A,2234.21262260,N,11432.08615983,E,0.062,78.3,051224,3.4,W,D*1C
$GNVTG,350.761,T,354.195,M,0.02296,N,0.04253,K,D*3E
$GNHDT,263.2369,T*12
$GPGGA,082114.60,2234.21262386,N,11432.08615961,E,4,22,0.7,0.8668,M,-1.3365,M,01,0000*76
$GPRMC,082114.60,A,2234.21262386,N,11432.08615961,E,0.023,350.8,051224,3.4,W,D*2C
$GNVTG,42.810,T,46.243,M,0.14046,N,0.26014,K,D*36
$GNHDT,263.7744,T*1C
$GPGGA,082114.80,2234.21262961,N,11432.08616534,E,4,22,0.7,0.8619,M,-1.3365,M,01,0000*72
$GPRMC,082114.80,A,2234.21262961,N,11432.08616534,E,0.140,42.8,051224,3.4,W,D*1A
$GNVTG,45.751,T,49.185,M,0.11889,N,0.22019,K,D*3A
$GNHDT,263.8211,T*16
$GPGGA,082115.00,2234.21263423,N,11432.08617045,E,4,22,0.7,0.8650,M,-1.3365,M,02,0000*7D
$GPRMC,082115.00,A,2234.21263423,N,11432.08617045,E,0.119,45.8,051224,3.4,W,D*10
$GNVTG,21.377,T,24.810,M,0.13914,N,0.25768,K,D*37
$GNHDT,264.0286,T*17
$GPGGA,082115.20,2234.21264146,N,11432.08617349,E,4,22,0.7,0.8688,M,-1.3365,M,02,0000*74
$GPRMC,082115.20,A,2234.21264146,N,11432.08617349,E,0.139,21.4,051224,3.4,W,D*10
$GNVTG,75.414,T,78.847,M,0.07975,N,0.14769,K,D*3E
$GNHDT,264.2893,T*1B
$GPGGA,082115.40,2234.21264257,N,11432.08617813,E,4,22,0.7,0.8886,M,-1.3365,M,02,0000*75
$GPRMC,082115.40,A,2234.21264257,N,11432.08617813,E,0.080,75.4,051224,3.4,W,D*13
$GNVTG,170.536,T,173.970,M,0.05697,N,0.10550,K,D*39
$GNHDT,264.5963,T*12
$GPGGA,082115.60,2234.21263944,N,11432.08617869,E,4,21,0.8,0.9406,M,-1.3365,M,02,0000*7D
$GPRMC,082115.60,A,2234.21263944,N,11432.08617869,E,0.057,170.5,051224,3.4,W,D*2D
$GNVTG,261.388,T,264.821,M,0.06216,N,0.11511,K,D*33
$GNHDT,264.5584,T*17
$GPGGA,082115.80,2234.21263892,N,11432.08617500,E,4,21,0.8,0.9536,M,-1.3365,M,00,0000*7B
$GPRMC,082115.80,A,2234.21263892,N,11432.08617500,E,0.062,261.4,051224,3.4,W,D*2F
$GNVTG,262.611,T,266.044,M,0.16035,N,0.29696,K,D*39
$GNHDT,264.4594,T*17
$GPGGA,082116.00,2234.21263777,N,11432.08616546,E,4,21,0.8,0.9896,M,-1.3365,M,01,0000*71
$GPRMC,082116.00,A,2234.21263777,N,11432.08616546,E,0.160,262.6,051224,3.4,W,D*21
$GNVTG,127.420,T,130.853,M,0.08674,N,0.16064,K,D*3E
$GNHDT,264.5408,T*12
$GPGGA,082116.20,2234.21263484,N,11432.08616959,E,4,21,0.8,0.9551,M,-1.3365,M,01,0000*78
$GPRMC,082116.20,A,2234.21263484,N,11432.08616959,E,0.087,127.4,051224,3.4,W,D*26
$GNVTG,156.175,T,159.608,M,0.01276,N,0.02364,K,D*3B
$GNHDT,264.7454,T*19
$GPGGA,082116.40,2234.21263418,N,11432.08616990,E,4,22,0.7,0.9559,M,-1.3365,M,01,0000*7A
$GPRMC,082116.40,A,2234.21263418,N,11432.08616990,E,0.013,156.2,051224,3.4,W,D*2D
$GNVTG,118.322,T,121.756,M,0.14530,N,0.26910,K,D*3A
$GNHDT,264.7561,T*1E
$GPGGA,082116.60,2234.21263034,N,11432.08617758,E,4,22,0.7,0.9365,M,-1.3365,M,01,0000*70
$GPRMC,082116.60,A,2234.21263034,N,11432.08617758,E,0.145,118.3,051224,3.4,W,D*27
$GNVTG,163.195,T,166.628,M,0.11488,N,0.21275,K,D*3B
$GNHDT,264.6567,T*19
$GPGGA,082116.80,2234.21262421,N,11432.08617957,E,4,21,0.8,0.9540,M,-1.3365,M,00,0000*72
$GPRMC,082116.80,A,2234.21262421,N,11432.08617957,E,0.115,163.2,051224,3.4,W,D*21
$GNVTG,235.649,T,239.082,M,0.20558,N,0.38073,K,D*30
$GNHDT,264.9498,T*17
$GPGGA,082117.00,2234.21261774,N,11432.08616938,E,4,21,0.8,0.9962,M,-1.3365,M,01,0000*7E
$GPRMC,082117.00,A,2234.21261774,N,11432.08616938,E,0.206,235.6,051224,3.4,W,D*25
$GNVTG,204.927,T,208.360,M,0.31930,N,0.59135,K,D*3E
$GNHDT,265.8115,T*17
$GPGGA,082117.20,2234.21260160,N,11432.08616131,E,4,21,0.8,1.0114,M,-1.3365,M,01,0000*7E
$GPRMC,082117.20,A,2234.21260160,N,11432.08616131,E,0.319,204.9,051224,3.4,W,D*26
$GNVTG,216.322,T,219.755,M,0.25741,N,0.47671,K,D*35
$GNHDT,265.9807,T*1C
$GPGGA,082117.40,2234.21259004,N,11432.08615215,E,4,20,0.8,1.0049,M,-1.3365,M,01,0000*7F
$GPRMC,082117.40,A,2234.21259004,N,11432.08615215,E,0.257,216.3,051224,3.4,W,D*2D
$GNVTG,256.617,T,260.050,M,0.13554,N,0.25102,K,D*3A
$GNHDT,265.5196,T*11
$GPGGA,082117.60,2234.21258829,N,11432.08614424,E,4,20,0.8,0.9836,M,-1.3365,M,01,0000*76
$GPRMC,082117.60,A,2234.21258829,N,11432.08614424,E,0.136,256.6,051224,3.4,W,D*29
$GNVTG,198.511,T,201.944,M,0.11498,N,0.21295,K,D*3F
$GNHDT,265.6373,T*1B
$GPGGA,082117.80,2234.21258221,N,11432.08614205,E,4,20,0.8,0.9643,M,-1.3365,M,00,0000*72
$GPRMC,082117.80,A,2234.21258221,N,11432.08614205,E,0.115,198.5,051224,3.4,W,D*23
$GNVTG,204.220,T,207.653,M,0.09938,N,0.18405,K,D*38
$GNHDT,265.9059,T*1F
$GPGGA,082118.00,2234.21257716,N,11432.08613960,E,4,20,0.8,0.9480,M,-1.3365,M,01,0000*78
$GPRMC,082118.00,A,2234.21257716,N,11432.08613960,E,0.099,204.2,051224,3.4,W,D*21
$GNVTG,216.263,T,219.696,M,0.16168,N,0.29943,K,D*34
$GNHDT,266.2560,T*18
$GPGGA,082118.20,2234.21256989,N,11432.08613386,E,4,20,0.8,0.9532,M,-1.3365,M,01,0000*79
$GPRMC,082118.20,A,2234.21256989,N,11432.08613386,E,0.162,216.3,051224,3.4,W,D*2F
$GNVTG,207.650,T,211.083,M,0.22873,N,0.42360,K,D*38
$GNHDT,266.3049,T*17
$GPGGA,082118.40,2234.21255860,N,11432.08612749,E,4,20,0.8,0.9523,M,-1.3365,M,01,0000*7C
$GPRMC,082118.40,A,2234.21255860,N,11432.08612749,E,0.229,207.7,051224,3.4,W,D*22
$GNVTG,232.113,T,235.546,M,0.20025,N,0.37087,K,D*35
$GNHDT,266.4921,T*17
$GPGGA,082118.60,2234.21255174,N,11432.08611800,E,4,21,0.8,0.9763,M,-1.3365,M,01,0000*74
$GPRMC,082118.60,A,2234.21255174,N,11432.08611800,E,0.200,232.1,051224,3.4,W,D*26
$GNVTG,213.211,T,216.644,M,0.20525,N,0.38012,K,D*31
$GNHDT,266.3182,T*11
$GPGGA,082118.80,2234.21254217,N,11432.08611125,E,4,23,0.7,0.9836,M,-1.3365,M,00,0000*70
$GPRMC,082118.80,A,2234.21254217,N,11432.08611125,E,0.205,213.2,051224,3.4,W,D*24
$GNVTG,223.329,T,226.762,M,0.23110,N,0.42800,K,D*39
$GNHDT,266.3620,T*1E
$GPGGA,082119.00,2234.21253280,N,11432.08610173,E,4,23,0.7,0.9906,M,-1.3365,M,01,0000*71
$GPRMC,082119.00,A,2234.21253280,N,11432.08610173,E,0.231,223.3,051224,3.4,W,D*23
$GNVTG,225.248,T,228.681,M,0.22388,N,0.41462,K,D*32
$GNHDT,266.1898,T*11
$GPGGA,082119.20,2234.21252401,N,11432.08609219,E,4,23,0.7,0.9856,M,-1.3365,M,01,0000*7E
$GPRMC,082119.20,A,2234.21252401,N,11432.08609219,E,0.224,225.2,051224,3.4,W,D*2B
$GNVTG,213.343,T,216.777,M,0.26970,N,0.49948,K,D*3C
$GNHDT,266.6154,T*1F
$GPGGA,082119.40,2234.21251145,N,11432.08608329,E,4,22,0.7,0.9834,M,-1.3365,M,01,0000*78
$GPRMC,082119.40,A,2234.21251145,N,11432.08608329,E,0.270,213.3,051224,3.4,W,D*2D
$GNVTG,219.142,T,222.575,M,0.20507,N,0.37978,K,D*32
$GNHDT,266.6195,T*12
$GPGGA,082119.60,2234.21250259,N,11432.08607552,E,4,22,0.7,0.9926,M,-1.3365,M,01,0000*72
$GPRMC,082119.60,A,2234.21250259,N,11432.08607552,E,0.205,219.1,051224,3.4,W,D*2F
$GNVTG,172.441,T,175.874,M,0.20900,N,0.38708,K,D*3A
$GNHDT,266.3081,T*13
$GPGGA,082119.80,2234.21249104,N,11432.08607717,E,4,22,0.7,0.9579,M,-1.3365,M,00,0000*7B
$GPRMC,082119.80,A,2234.21249104,N,11432.08607717,E,0.209,172.4,051224,3.4,W,D*26
$GNVTG,178.187,T,181.621,M,0.19915,N,0.36883,K,D*36
$GNHDT,266.8745,T*17
$GPGGA,082120.00,2234.21247994,N,11432.08607755,E,4,22,0.7,0.9547,M,-1.3365,M,01,0000*7C
$GPRMC,082120.00,A,2234.21247994,N,11432.08607755,E,0.199,178.2,051224,3.4,W,D*2B
$GNVTG,185.395,T,188.828,M,0.23335,N,0.43216,K,D*3E
$GNHDT,267.2228,T*12
$GPGGA,082120.20,2234.21246699,N,11432.08607623,E,4,22,0.7,0.9451,M,-1.3365,M,01,0000*7B
$GPRMC,082120.20,A,2234.21246699,N,11432.08607623,E,0.233,185.4,051224,3.4,W,D*2D
$GNVTG,165.971,T,169.404,M,0.16404,N,0.30380,K,D*34
$GNHDT,266.7993,T*1D
$GPGGA,082120.40,2234.21245812,N,11432.08607862,E,4,22,0.7,0.8969,M,-1.3365,M,01,0000*7F
$GPRMC,082120.40,A,2234.21245812,N,11432.08607862,E,0.164,166.0,051224,3.4,W,D*26
$GNVTG,198.751,T,202.185,M,0.15708,N,0.29092,K,D*3C
$GNHDT,266.7758,T*14
$GPGGA,082120.60,2234.21244982,N,11432.08607559,E,4,22,0.7,0.8875,M,-1.3365,M,01,0000*7D
$GPRMC,082120.60,A,2234.21244982,N,11432.08607559,E,0.157,198.8,051224,3.4,W,D*21
$GNVTG,163.403,T,166.837,M,0.14294,N,0.26473,K,D*38
$GNHDT,266.8294,T*1E
$GPGGA,082120.80,2234.21244219,N,11432.08607804,E,4,22,0.7,0.9008,M,-1.3365,M,00,0000*7D
$GPRMC,082120.80,A,2234.21244219,N,11432.08607804,E,0.143,163.4,051224,3.4,W,D*2E
$GNVTG,94.184,T,97.618,M,0.09663,N,0.17897,K,D*33
$GNHDT,267.2094,T*17
$GPGGA,082121.00,2234.21244179,N,11432.08608383,E,4,22,0.7,0.8946,M,-1.3365,M,01,0000*79
$GPRMC,082121.00,A,2234.21244179,N,11432.08608383,E,0.097,94.2,051224,3.4,W,D*1E
$GNVTG,189.538,T,192.971,M,0.02083,N,0.03858,K,D*3C
$GNHDT,267.4066,T*1C
$GPGGA,082121.20,2234.21244065,N,11432.08608362,E,4,23,0.7,0.9085,M,-1.3365,M,01,0000*7E
$GPRMC,082121.20,A,2234.21244065,N,11432.08608362,E,0.021,189.5,051224,3.4,W,D*28
$GNVTG,104.623,T,108.057,M,0.10278,N,0.19034,K,D*32
$GNHDT,267.7360,T*1A
$GPGGA,082121.40,2234.21243920,N,11432.08608959,E,4,23,0.7,0.8851,M,-1.3365,M,01,0000*75
$GPRMC,082121.40,A,2234.21243920,N,11432.08608959,E,0.103,104.6,051224,3.4,W,D*24
$GNVTG,115.959,T,119.393,M,0.05179,N,0.09592,K,D*35
$GNHDT,267.6649,T*15
$GPGGA,082121.60,2234.21243794,N,11432.08609238,E,4,23,0.7,0.8959,M,-1.3365,M,01,0000*72
$GPRMC,082121.60,A,2234.21243794,N,11432.08609238,E,0.052,116.0,051224,3.4,W,D*2A
$GNVTG,173.725,T,177.159,M,0.01270,N,0.02353,K,D*32
$GNHDT,267.8982,T*13
$GPGGA,082121.80,2234.21243723,N,11432.08609247,E,4,23,0.7,0.8945,M,-1.3365,M,00,0000*74
$GPRMC,082121.80,A,2234.21243723,N,11432.08609247,E,0.013,173.7,051224,3.4,W,D*21
$GNVTG,114.040,T,117.474,M,0.04711,N,0.08725,K,D*33
$GNHDT,267.9634,T*10
$GPGGA,082122.00,2234.21243616,N,11432.08609505,E,4,23,0.7,0.8708,M,-1.3365,M,01,0000*7F
$GPRMC,082122.00,A,2234.21243616,N,11432.08609505,E,0.047,114.0,051224,3.4,W,D*2B
$GNVTG,45.537,T,48.971,M,0.08190,N,0.15168,K,D*30
$GNHDT,267.7950,T*13
$GPGGA,082122.20,2234.21243936,N,11432.08609856,E,4,23,0.7,0.8808,M,-1.3365,M,01,0000*74
$GPRMC,082122.20,A,2234.21243936,N,11432.08609856,E,0.082,45.5,051224,3.4,W,D*16
$GNVTG,330.798,T,334.231,M,0.06564,N,0.12156,K,D*3A
$GNHDT,267.9545,T*15
$GPGGA,082122.40,2234.21244256,N,11432.08609664,E,4,23,0.7,0.8749,M,-1.3365,M,01,0000*7D
$GPRMC,082122.40,A,2234.21244256,N,11432.08609664,E,0.066,330.8,051224,3.4,W,D*23
$GNVTG,55.521,T,58.954,M,0.04928,N,0.09126,K,D*30
$GNHDT,268.0250,T*10
$GPGGA,082122.60,2234.21244411,N,11432.08609907,E,4,23,0.7,0.8742,M,-1.3365,M,01,0000*7B
$GPRMC,082122.60,A,2234.21244411,N,11432.08609907,E,0.049,55.5,051224,3.4,W,D*1E
$GNVTG,280.323,T,283.756,M,0.07654,N,0.14175,K,D*3B
$GNHDT,268.3619,T*1A
$GPGGA,082122.80,2234.21244488,N,11432.08609455,E,4,23,0.7,0.8999,M,-1.3365,M,01,0000*77
$GPRMC,082122.80,A,2234.21244488,N,11432.08609455,E,0.077,280.3,051224,3.4,W,D*2B
$GNVTG,148.180,T,151.613,M,0.06345,N,0.11750,K,D*3B
$GNHDT,268.8624,T*1F
$GPGGA,082123.00,2234.21244187,N,11432.08609656,E,4,23,0.7,0.8992,M,-1.3365,M,01,0000*7E
$GPRMC,082123.00,A,2234.21244187,N,11432.08609656,E,0.063,148.2,051224,3.4,W,D*2A
$GNVTG,69.045,T,72.479,M,0.02142,N,0.03967,K,D*37
$GNHDT,268.7027,T*15
$GPGGA,082123.20,2234.21244230,N,11432.08609776,E,4,23,0.7,0.9243,M,-1.3365,M,01,0000*76
$GPRMC,082123.20,A,2234.21244230,N,11432.08609776,E,0.021,69.0,051224,3.4,W,D*12
$GNVTG,24.651,T,28.085,M,0.13236,N,0.24514,K,D*38
$GNHDT,268.8816,T*10
$GPGGA,082123.40,2234.21244900,N,11432.08610108,E,4,23,0.7,0.9035,M,-1.3365,M,01,0000*7C
$GPRMC,082123.40,A,2234.21244900,N,11432.08610108,E,0.132,24.7,051224,3.4,W,D*16
$GNVTG,84.166,T,87.599,M,0.04590,N,0.08500,K,D*3A
$GNHDT,269.1821,T*1C
$GPGGA,082123.60,2234.21244926,N,11432.08610382,E,4,23,0.7,0.8899,M,-1.3365,M,01,0000*75
$GPRMC,082123.60,A,2234.21244926,N,11432.08610382,E,0.046,84.2,051224,3.4,W,D*1D
$GNVTG,353.867,T,357.300,M,0.06366,N,0.11791,K,D*3C
$GNHDT,269.1964,T*1C
$GPGGA,082123.80,2234.21245279,N,11432.08610341,E,4,23,0.7,0.8993,M,-1.3365,M,00,0000*7E
$GPRMC,082123.80,A,2234.21245279,N,11432.08610341,E,0.064,353.9,051224,3.4,W,D*2E
$GNVTG,231.260,T,234.694,M,0.04713,N,0.08729,K,D*37
$GNHDT,268.6996,T*17
$GPGGA,082124.00,2234.21245115,N,11432.08610120,E,4,23,0.7,0.9298,M,-1.3365,M,01,0000*7D
$GPRMC,082124.00,A,2234.21245115,N,11432.08610120,E,0.047,231.3,051224,3.4,W,D*23
$GNVTG,165.096,T,168.529,M,0.10392,N,0.19246,K,D*35
$GNHDT,269.2375,T*15
$GPGGA,082124.20,2234.21244555,N,11432.08610281,E,4,23,0.7,0.9704,M,-1.3365,M,01,0000*76
$GPRMC,082124.20,A,2234.21244555,N,11432.08610281,E,0.104,165.1,051224,3.4,W,D*2E
$GNVTG,174.629,T,178.063,M,0.17917,N,0.33182,K,D*3E
$GNHDT,269.4470,T*11
$GPGGA,082124.40,2234.21243561,N,11432.08610381,E,4,23,0.7,0.9967,M,-1.3365,M,01,0000*7A
$GPRMC,082124.40,A,2234.21243561,N,11432.08610381,E,0.179,174.6,051224,3.4,W,D*24
$GNVTG,179.538,T,182.971,M,0.14225,N,0.26345,K,D*3B
$GNHDT,269.8036,T*1B
$GPGGA,082124.60,2234.21242768,N,11432.08610388,E,4,23,0.7,1.0269,M,-1.3365,M,01,0000*76
$GPRMC,082124.60,A,2234.21242768,N,11432.08610388,E,0.142,179.5,051224,3.4,W,D*23
$GNVTG,178.942,T,182.376,M,0.12402,N,0.22969,K,D*33
$GNHDT,270.4227,T*1D
$GPGGA,082124.80,2234.21242076,N,11432.08610402,E,4,23,0.7,1.0236,M,-1.3365,M,01,0000*7F
$GPRMC,082124.80,A,2234.21242076,N,11432.08610402,E,0.124,178.9,051224,3.4,W,D*2D
$GNVTG,103.164,T,106.597,M,0.07799,N,0.14444,K,D*34
$GNHDT,270.0194,T*12
$GPGGA,082125.00,2234.21241977,N,11432.08610858,E,4,23,0.7,1.0054,M,-1.3365,M,02,0000*7B
$GPRMC,082125.00,A,2234.21241977,N,11432.08610858,E,0.078,103.2,051224,3.4,W,D*23
$GNVTG,149.702,T,153.136,M,0.04576,N,0.08475,K,D*3C
$GNHDT,270.2545,T*18
$GPGGA,082125.20,2234.21241757,N,11432.08610996,E,4,23,0.7,0.9665,M,-1.3365,M,02,0000*7A
$GPRMC,082125.20,A,2234.21241757,N,11432.08610996,E,0.046,149.7,051224,3.4,W,D*28
$GNVTG,236.475,T,239.908,M,0.02748,N,0.05090,K,D*35
$GNHDT,270.0456,T*19
$GPGGA,082125.40,2234.21241672,N,11432.08610859,E,4,23,0.7,0.9618,M,-1.3365,M,02,0000*72
$GPRMC,082125.40,A,2234.21241672,N,11432.08610859,E,0.027,236.5,051224,3.4,W,D*24
$GNVTG,189.277,T,192.711,M,0.09461,N,0.17522,K,D*3E
$GNHDT,270.6052,T*1F
$GPGGA,082125.60,2234.21241152,N,11432.08610767,E,4,23,0.7,0.9527,M,-1.3365,M,02,0000*78
$GPRMC,082125.60,A,2234.21241152,N,11432.08610767,E,0.095,189.3,051224,3.4,W,D*29
$GNVTG,217.779,T,221.212,M,0.18131,N,0.33578,K,D*35
$GNHDT,270.3386,T*10
$GPGGA,082125.80,2234.21240353,N,11432.08610101,E,4,23,0.7,0.9931,M,-1.3365,M,00,0000*7B
$GPRMC,082125.80,A,2234.21240353,N,11432.08610101,E,0.181,217.8,051224,3.4,W,D*28
$GNVTG,191.273,T,194.706,M,0.20813,N,0.38546,K,D*3E
$GNHDT,270.4599,T*1F
$GPGGA,082126.00,2234.21239215,N,11432.08609856,E,4,23,0.7,0.9988,M,-1.3365,M,01,0000*7D
$GPRMC,082126.00,A,2234.21239215,N,11432.08609856,E,0.208,191.3,051224,3.4,W,D*29
$GNVTG,202.196,T,205.630,M,0.18935,N,0.35068,K,D*3A
$GNHDT,270.9574,T*11
$GPGGA,082126.20,2234.21238238,N,11432.08609427,E,4,23,0.7,0.9953,M,-1.3365,M,01,0000*7D
$GPRMC,082126.20,A,2234.21238238,N,11432.08609427,E,0.189,202.2,051224,3.4,W,D*2D
$GNVTG,247.168,T,250.601,M,0.02971,N,0.05503,K,D*38
$GNHDT,270.5615,T*19
$GPGGA,082126.40,2234.21238174,N,11432.08609263,E,4,23,0.7,0.9916,M,-1.3365,M,01,0000*77
$GPRMC,082126.40,A,2234.21238174,N,11432.08609263,E,0.030,247.2,051224,3.4,W,D*24
$GNVTG,133.209,T,136.643,M,0.15584,N,0.28862,K,D*3C
$GNHDT,270.8783,T*1A
$GPGGA,082126.60,2234.21237579,N,11432.08609944,E,4,22,0.7,0.9651,M,-1.3365,M,01,0000*70
$GPRMC,082126.60,A,2234.21237579,N,11432.08609944,E,0.156,133.2,051224,3.4,W,D*2F
$GNVTG,66.917,T,70.351,M,0.11831,N,0.21911,K,D*37
$GNHDT,270.8029,T*1D
$GPGGA,082126.80,2234.21237837,N,11432.08610598,E,4,22,0.7,0.9543,M,-1.3365,M,00,0000*7D
$GPRMC,082126.80,A,2234.21237837,N,11432.08610598,E,0.118,66.9,051224,3.4,W,D*13
$GNVTG,218.837,T,222.271,M,0.06095,N,0.11287,K,D*3E
$GNHDT,270.9265,T*16
$GPGGA,082127.00,2234.21237573,N,11432.08610368,E,4,22,0.7,0.9443,M,-1.3365,M,01,0000*70
$GPRMC,082127.00,A,2234.21237573,N,11432.08610368,E,0.061,218.8,051224,3.4,W,D*2B
$GNVTG,170.469,T,173.902,M,0.23421,N,0.43376,K,D*38
$GNHDT,271.4499,T*1F
$GPGGA,082127.20,2234.21236285,N,11432.08610601,E,4,21,0.8,0.9616,M,-1.3365,M,01,0000*79
$GPRMC,082127.20,A,2234.21236285,N,11432.08610601,E,0.234,170.5,051224,3.4,W,D*2E
$GNVTG,240.996,T,244.429,M,0.37638,N,0.69706,K,D*32
$GNHDT,271.3419,T*10
$GPGGA,082127.40,2234.21235268,N,11432.08608625,E,4,21,0.8,0.9888,M,-1.3365,M,01,0000*79
$GPRMC,082127.40,A,2234.21235268,N,11432.08608625,E,0.376,241.0,051224,3.4,W,D*24
$GNVTG,241.659,T,245.092,M,0.29139,N,0.53965,K,D*31
$GNHDT,271.2659,T*17
$GPGGA,082127.60,2234.21234497,N,11432.08607086,E,4,21,0.8,0.9997,M,-1.3365,M,01,0000*73
$GPRMC,082127.60,A,2234.21234497,N,11432.08607086,E,0.291,241.7,051224,3.4,W,D*2E
$GNVTG,228.793,T,232.226,M,0.23524,N,0.43566,K,D*38
$GNHDT,271.2237,T*1B
$GPGGA,082127.80,2234.21233633,N,11432.08606023,E,4,22,0.7,1.0241,M,-1.3365,M,00,0000*7D
$GPRMC,082127.80,A,2234.21233633,N,11432.08606023,E,0.235,228.8,051224,3.4,W,D*2B
$GNVTG,189.535,T,192.969,M,0.29320,N,0.54301,K,D*3E
$GNHDT,271.6400,T*1D
$GPGGA,082128.00,2234.21232021,N,11432.08605732,E,4,21,0.8,1.0134,M,-1.3365,M,01,0000*76
$GPRMC,082128.00,A,2234.21232021,N,11432.08605732,E,0.293,189.5,051224,3.4,W,D*25
$GNVTG,234.824,T,238.257,M,0.06428,N,0.11906,K,D*3D
$GNHDT,271.5544,T*1F
$GPGGA,082128.20,2234.21231814,N,11432.08605416,E,4,21,0.8,1.0123,M,-1.3365,M,01,0000*7A
$GPRMC,082128.20,A,2234.21231814,N,11432.08605416,E,0.064,234.8,051224,3.4,W,D*2D
$GNVTG,196.188,T,199.621,M,0.28925,N,0.53569,K,D*3B
$GNHDT,271.8095,T*1B
$GPGGA,082128.40,2234.21230266,N,11432.08604932,E,4,21,0.8,1.0043,M,-1.3365,M,01,0000*7F
$GPRMC,082128.40,A,2234.21230266,N,11432.08604932,E,0.289,196.2,051224,3.4,W,D*2F
$GNVTG,216.353,T,219.786,M,0.32437,N,0.60073,K,D*38
$GNHDT,271.8843,T*18
$GPGGA,082128.60,2234.21228809,N,11432.08603778,E,4,21,0.8,1.0116,M,-1.3365,M,01,0000*71
$GPRMC,082128.60,A,2234.21228809,N,11432.08603778,E,0.324,216.4,051224,3.4,W,D*2B
$GNVTG,215.555,T,218.989,M,0.42038,N,0.77855,K,D*3D
$GNHDT,272.7081,T*12
$GPGGA,082128.80,2234.21226903,N,11432.08602311,E,4,21,0.8,1.0173,M,-1.3365,M,00,0000*72
$GPRMC,082128.80,A,2234.21226903,N,11432.08602311,E,0.420,215.6,051224,3.4,W,D*28
$GNVTG,227.235,T,230.668,M,0.34471,N,0.63840,K,D*3E
$GNHDT,272.4791,T*17
$GPGGA,082129.00,2234.21225598,N,11432.08600792,E,4,21,0.8,1.0056,M,-1.3365,M,01,0000*7C
$GPRMC,082129.00,A,2234.21225598,N,11432.08600792,E,0.345,227.2,051224,3.4,W,D*20
$GNVTG,225.354,T,228.788,M,0.15667,N,0.29015,K,D*3C
$GNHDT,272.3929,T*1D
$GPGGA,082129.20,2234.21224984,N,11432.08600123,E,4,21,0.8,0.9843,M,-1.3365,M,01,0000*76
$GPRMC,082129.20,A,2234.21224984,N,11432.08600123,E,0.157,225.4,051224,3.4,W,D*2B
$GNVTG,187.057,T,190.490,M,0.22272,N,0.41248,K,D*3D
$GNHDT,272.5709,T*17
$GPGGA,082129.40,2234.21223752,N,11432.08599959,E,4,21,0.8,0.9160,M,-1.3365,M,01,0000*7C
$GPRMC,082129.40,A,2234.21223752,N,11432.08599959,E,0.223,187.1,051224,3.4,W,D*27
$GNVTG,125.934,T,129.368,M,0.06827,N,0.12644,K,D*39
$GNHDT,272.8035,T*12
$GPGGA,082129.60,2234.21223529,N,11432.08600290,E,4,22,0.7,0.8959,M,-1.3365,M,01,0000*72
$GPRMC,082129.60,A,2234.21223529,N,11432.08600290,E,0.068,125.9,051224,3.4,W,D*2B
$GNVTG,188.367,T,191.801,M,0.16078,N,0.29776,K,D*3E
$GNHDT,273.6057,T*19
$GPGGA,082129.80,2234.21222642,N,11432.08600150,E,4,22,0.7,0.8800,M,-1.3365,M,00,0000*70
$GPRMC,082129.80,A,2234.21222642,N,11432.08600150,E,0.161,188.4,051224,3.4,W,D*27
$GNVTG,225.242,T,228.676,M,0.15982,N,0.29599,K,D*3F
$GNHDT,273.7874,T*11
$GPGGA,082130.00,2234.21222015,N,11432.08599469,E,4,22,0.7,0.8657,M,-1.3365,M,01,0000*75
$GPRMC,082130.00,A,2234.21222015,N,11432.08599469,E,0.160,225.2,051224,3.4,W,D*2C
$GNVTG,220.675,T,224.108,M,0.05522,N,0.10226,K,D*36
$GNHDT,273.5757,T*1D
$GPGGA,082130.20,2234.21221781,N,11432.08599253,E,4,21,0.8,0.8709,M,-1.3365,M,01,0000*77
$GPRMC,082130.20,A,2234.21221781,N,11432.08599253,E,0.055,220.7,051224,3.4,W,D*2F
$GNVTG,203.539,T,206.972,M,0.10094,N,0.18694,K,D*30
$GNHDT,273.5651,T*1A
$GPGGA,082130.40,2234.21221265,N,11432.08599011,E,4,21,0.8,0.8711,M,-1.3365,M,01,0000*73
$GPRMC,082130.40,A,2234.21221265,N,11432.08599011,E,0.101,203.5,051224,3.4,W,D*21
$GNVTG,50.802,T,54.236,M,0.03355,N,0.06214,K,D*30
$GNHDT,273.5940,T*15
$GPGGA,082130.60,2234.21221383,N,11432.08599167,E,4,21,0.8,0.8829,M,-1.3365,M,01,0000*7C
$GPRMC,082130.60,A,2234.21221383,N,11432.08599167,E,0.034,50.8,051224,3.4,W,D*14
$GNVTG,94.401,T,97.834,M,0.14375,N,0.26623,K,D*36
$GNHDT,274.3158,T*15
$GPGGA,082130.80,2234.21221322,N,11432.08600027,E,4,21,0.8,0.8958,M,-1.3365,M,00,0000*79
$GPRMC,082130.80,A,2234.21221322,N,11432.08600027,E,0.144,94.4,051224,3.4,W,D*15
$GNVTG,57.790,T,61.224,M,0.28723,N,0.53196,K,D*33
$GNHDT,274.3785,T*13
$GPGGA,082131.00,2234.21222175,N,11432.08601486,E,4,21,0.8,0.8697,M,-1.3365,M,01,0000*70
$GPRMC,082131.00,A,2234.21222175,N,11432.08601486,E,0.287,57.8,051224,3.4,W,D*1E
$GNVTG,62.506,T,65.939,M,0.17083,N,0.31637,K,D*32
$GNHDT,274.3694,T*12
$GPGGA,082131.20,2234.21222615,N,11432.08602396,E,4,21,0.8,0.8851,M,-1.3365,M,01,0000*72
$GPRMC,082131.20,A,2234.21222615,N,11432.08602396,E,0.171,62.5,051224,3.4,W,D*19
$GNVTG,80.144,T,83.578,M,0.10394,N,0.19250,K,D*30
$GNHDT,274.6488,T*18
$GPGGA,082131.40,2234.21222714,N,11432.08603010,E,4,21,0.8,0.8783,M,-1.3365,M,01,0000*78
$GPRMC,082131.40,A,2234.21222714,N,11432.08603010,E,0.104,80.1,051224,3.4,W,D*19
$GNVTG,58.532,T,61.966,M,0.14048,N,0.26016,K,D*35
$GNHDT,274.1294,T*14
$GPGGA,082131.60,2234.21223123,N,11432.08603729,E,4,21,0.8,0.8814,M,-1.3365,M,01,0000*75
$GPRMC,082131.60,A,2234.21223123,N,11432.08603729,E,0.140,58.5,051224,3.4,W,D*14
$GNVTG,220.039,T,223.473,M,0.08616,N,0.15957,K,D*37
$GNHDT,274.4656,T*1B
$GPGGA,082131.80,2234.21222755,N,11432.08603397,E,4,21,0.8,0.9105,M,-1.3365,M,00,0000*75
$GPRMC,082131.80,A,2234.21222755,N,11432.08603397,E,0.086,220.0,051224,3.4,W,D*2E
$GNVTG,69.879,T,73.312,M,0.11746,N,0.21753,K,D*32
$GNHDT,274.9545,T*17
$GPGGA,082132.00,2234.21222981,N,11432.08604059,E,4,21,0.8,0.9274,M,-1.3365,M,01,0000*7B
$GPRMC,082132.00,A,2234.21222981,N,11432.08604059,E,0.117,69.9,051224,3.4,W,D*1B
$GNVTG,101.540,T,104.973,M,0.10744,N,0.19897,K,D*39
$GNHDT,275.4054,T*1E
$GPGGA,082132.20,2234.21222861,N,11432.08604691,E,4,20,0.9,0.9341,M,-1.3365,M,01,0000*73
$GPRMC,082132.20,A,2234.21222861,N,11432.08604691,E,0.107,101.5,051224,3.4,W,D*26
$GNVTG,19.070,T,22.504,M,0.22759,N,0.42150,K,D*3F
$GNHDT,274.7348,T*12
$GPGGA,082132.40,2234.21224060,N,11432.08605137,E,4,20,0.9,0.9550,M,-1.3365,M,01,0000*76
$GPRMC,082132.40,A,2234.21224060,N,11432.08605137,E,0.228,19.1,051224,3.4,W,D*17
$GNVTG,82.162,T,85.595,M,0.16351,N,0.30281,K,D*3B
$GNHDT,274.9429,T*1C
$GPGGA,082132.60,2234.21224184,N,11432.08606109,E,4,20,0.9,0.9346,M,-1.3365,M,01,0000*70
$GPRMC,082132.60,A,2234.21224184,N,11432.08606109,E,0.164,82.2,051224,3.4,W,D*1A
$GNVTG,85.580,T,89.013,M,0.16254,N,0.30102,K,D*3F
$GNHDT,274.7152,T*1B
$GPGGA,082132.80,2234.21224254,N,11432.08607082,E,4,20,0.9,0.9311,M,-1.3365,M,00,0000*70
$GPRMC,082132.80,A,2234.21224254,N,11432.08607082,E,0.163,85.6,051224,3.4,W,D*1D
$GNVTG,177.722,T,181.155,M,0.04318,N,0.07997,K,D*39
$GNHDT,275.4463,T*1E
$GPGGA,082133.00,2234.21224013,N,11432.08607092,E,4,20,0.9,0.9423,M,-1.3365,M,01,0000*7E
$GPRMC,082133.00,A,2234.21224013,N,11432.08607092,E,0.043,177.7,051224,3.4,W,D*2A
$GNVTG,236.739,T,240.172,M,0.07721,N,0.14299,K,D*34
$GNHDT,275.4080,T*17
$GPGGA,082133.20,2234.21223777,N,11432.08606705,E,4,21,0.8,0.9603,M,-1.3365,M,01,0000*76
$GPRMC,082133.20,A,2234.21223777,N,11432.08606705,E,0.077,236.7,051224,3.4,W,D*23
$GNVTG,252.624,T,256.058,M,0.17719,N,0.32815,K,D*35
$GNHDT,275.3359,T*17
$GPGGA,082133.40,2234.21223482,N,11432.08605690,E,4,21,0.8,0.9567,M,-1.3365,M,01,0000*76
$GPRMC,082133.40,A,2234.21223482,N,11432.08605690,E,0.177,252.6,051224,3.4,W,D*20
$GNVTG,202.782,T,206.215,M,0.12277,N,0.22737,K,D*35
$GNHDT,275.7152,T*1A
$GPGGA,082133.60,2234.21222851,N,11432.08605404,E,4,21,0.8,0.9732,M,-1.3365,M,01,0000*7A
$GPRMC,082133.60,A,2234.21222851,N,11432.08605404,E,0.123,202.8,051224,3.4,W,D*24
$GNVTG,202.813,T,206.246,M,0.07047,N,0.13051,K,D*34
$GNHDT,275.8620,T*17
$GPGGA,082133.80,2234.21222489,N,11432.08605240,E,4,21,0.8,0.9685,M,-1.3365,M,00,0000*77
$GPRMC,082133.80,A,2234.21222489,N,11432.08605240,E,0.070,202.8,051224,3.4,W,D*22
$GNVTG,151.510,T,154.944,M,0.04064,N,0.07527,K,D*31
$GNHDT,275.6438,T*12
$GPGGA,082134.00,2234.21222290,N,11432.08605357,E,4,21,0.8,0.9943,M,-1.3365,M,01,0000*75
$GPRMC,082134.00,A,2234.21222290,N,11432.08605357,E,0.041,151.5,051224,3.4,W,D*2E
$GNVTG,157.140,T,160.573,M,0.11186,N,0.20717,K,D*34
$GNHDT,276.1899,T*11
$GPGGA,082134.20,2234.21221716,N,11432.08605618,E,4,21,0.8,0.9684,M,-1.3365,M,01,0000*75
$GPRMC,082134.20,A,2234.21221716,N,11432.08605618,E,0.112,157.1,051224,3.4,W,D*2F
$GNVTG,221.131,T,224.564,M,0.17663,N,0.32711,K,D*3A
$GNHDT,275.9842,T*1C
$GPGGA,082134.40,2234.21220974,N,11432.08604920,E,4,21,0.8,0.9853,M,-1.3365,M,01,0000*79
$GPRMC,082134.40,A,2234.21220974,N,11432.08604920,E,0.177,221.1,051224,3.4,W,D*26
$GNVTG,223.661,T,227.094,M,0.25878,N,0.47926,K,D*3E
$GNHDT,276.2460,T*18
$GPGGA,082134.60,2234.21219930,N,11432.08603848,E,4,21,0.8,1.0024,M,-1.3365,M,01,0000*79
$GPRMC,082134.60,A,2234.21219930,N,11432.08603848,E,0.259,223.7,051224,3.4,W,D*2D
$GNVTG,224.487,T,227.920,M,0.24610,N,0.45577,K,D*3E
$GNHDT,275.9534,T*10
$GPGGA,082134.80,2234.21218952,N,11432.08602813,E,4,21,0.8,1.0059,M,-1.3365,M,00,0000*76
$GPRMC,082134.80,A,2234.21218952,N,11432.08602813,E,0.246,224.5,051224,3.4,W,D*22
$GNVTG,229.213,T,232.646,M,0.24774,N,0.45881,K,D*34
$GNHDT,276.0873,T*14
$GPGGA,082135.00,2234.21218049,N,11432.08601687,E,4,21,0.8,1.0144,M,-1.3365,M,01,0000*70
$GPRMC,082135.00,A,2234.21218049,N,11432.08601687,E,0.248,229.2,051224,3.4,W,D*2C
$GNVTG,219.670,T,223.103,M,0.19029,N,0.35242,K,D*33
$GNHDT,276.1259,T*17
$GPGGA,082135.20,2234.21217233,N,11432.08600958,E,4,21,0.8,0.9821,M,-1.3365,M,01,0000*7C
$GPRMC,082135.20,A,2234.21217233,N,11432.08600958,E,0.190,219.7,051224,3.4,W,D*22
$GNVTG,185.174,T,188.607,M,0.24879,N,0.46075,K,D*36
$GNHDT,276.4675,T*18
$GPGGA,082135.40,2234.21215852,N,11432.08600823,E,4,21,0.8,1.0139,M,-1.3365,M,01,0000*70
$GPRMC,082135.40,A,2234.21215852,N,11432.08600823,E,0.249,185.2,051224,3.4,W,D*22
$GNVTG,234.490,T,237.923,M,0.20985,N,0.38865,K,D*38
$GNHDT,276.4763,T*1E
$GPGGA,082135.60,2234.21215172,N,11432.08599797,E,4,21,0.8,1.0460,M,-1.3365,M,01,0000*73
$GPRMC,082135.60,A,2234.21215172,N,11432.08599797,E,0.210,234.5,051224,3.4,W,D*2A
$GNVTG,203.645,T,207.078,M,0.28794,N,0.53326,K,D*35
$GNHDT,276.7792,T*13
$GPGGA,082135.80,2234.21213702,N,11432.08599104,E,4,21,0.8,1.0215,M,-1.3365,M,00,0000*73
$GPRMC,082135.80,A,2234.21213702,N,11432.08599104,E,0.288,203.6,051224,3.4,W,D*29
$GNVTG,234.144,T,237.577,M,0.24434,N,0.45252,K,D*3E
$GNHDT,276.5244,T*1F
$GPGGA,082136.00,2234.21212904,N,11432.08597916,E,4,21,0.8,1.0056,M,-1.3365,M,01,0000*70
$GPRMC,082136.00,A,2234.21212904,N,11432.08597916,E,0.244,234.1,051224,3.4,W,D*2D
$GNVTG,246.944,T,250.377,M,0.20868,N,0.38648,K,D*30
$GNHDT,276.4604,T*1E
$GPGGA,082136.20,2234.21212448,N,11432.08596763,E,4,21,0.8,0.9859,M,-1.3365,M,01,0000*75
$GPRMC,082136.20,A,2234.21212448,N,11432.08596763,E,0.209,246.9,051224,3.4,W,D*23
$GNVTG,237.388,T,240.821,M,0.16538,N,0.30629,K,D*37
$GNHDT,276.6749,T*14
$GPGGA,082136.40,2234.21211951,N,11432.08595927,E,4,20,0.8,0.9711,M,-1.3365,M,01,0000*7A
$GPRMC,082136.40,A,2234.21211951,N,11432.08595927,E,0.165,237.4,051224,3.4,W,D*2C
$GNVTG,204.339,T,207.772,M,0.16200,N,0.30002,K,D*34
$GNHDT,277.1026,T*1C
$GPGGA,082136.60,2234.21211128,N,11432.08595526,E,4,21,0.7,0.9846,M,-1.3365,M,00,0000*71
$GPRMC,082136.60,A,2234.21211128,N,11432.08595526,E,0.162,204.3,051224,3.4,W,D*25
$GNVTG,234.990,T,238.423,M,0.04569,N,0.08462,K,D*37
$GNHDT,276.9347,T*11
$GPGGA,082136.80,2234.21210982,N,11432.08595301,E,4,20,0.8,0.9896,M,-1.3365,M,00,0000*76
$GPRMC,082136.80,A,2234.21210982,N,11432.08595301,E,0.046,235.0,051224,3.4,W,D*27
$GNVTG,217.559,T,220.992,M,0.16003,N,0.29637,K,D*3A
$GNHDT,277.3882,T*18
$GPGGA,082137.00,2234.21210275,N,11432.08594716,E,4,19,0.9,1.0028,M,-1.3365,M,01,0000*70
$GPRMC,082137.00,A,2234.21210275,N,11432.08594716,E,0.160,217.6,051224,3.4,W,D*2D
$GNVTG,150.258,T,153.691,M,0.25491,N,0.47210,K,D*31
$GNHDT,277.6715,T*1C
$GPGGA,082137.20,2234.21209041,N,11432.08595475,E,4,19,0.9,0.9370,M,-1.3365,M,01,0000*7E
$GPRMC,082137.20,A,2234.21209041,N,11432.08595475,E,0.255,150.3,051224,3.4,W,D*25
$GNVTG,108.100,T,111.534,M,0.02576,N,0.04770,K,D*31
$GNHDT,277.2743,T*1B
$GPGGA,082137.40,2234.21208997,N,11432.08595622,E,4,20,0.8,0.9102,M,-1.3365,M,01,0000*77
$GPRMC,082137.40,A,2234.21208997,N,11432.08595622,E,0.026,108.1,051224,3.4,W,D*29
$GNVTG,198.837,T,202.270,M,0.13389,N,0.24796,K,D*3F
$GNHDT,277.6048,T*13
$GPGGA,082137.60,2234.21208290,N,11432.08595362,E,4,20,0.8,0.9004,M,-1.3365,M,01,0000*7F
$GPRMC,082137.60,A,2234.21208290,N,11432.08595362,E,0.134,198.8,051224,3.4,W,D*24
$GNVTG,240.778,T,244.211,M,0.12862,N,0.23821,K,D*33
$GNHDT,277.7395,T*11
$GPGGA,082137.80,2234.21207940,N,11432.08594689,E,4,20,0.8,0.9010,M,-1.3365,M,00,0000*7D
$GPRMC,082137.80,A,2234.21207940,N,11432.08594689,E,0.129,240.8,051224,3.4,W,D*28
$GNVTG,234.396,T,237.829,M,0.21839,N,0.40445,K,D*34
$GNHDT,277.9849,T*15
$GPGGA,082138.00,2234.21207231,N,11432.08593623,E,4,20,0.8,0.9021,M,-1.3365,M,01,0000*73
$GPRMC,082138.00,A,2234.21207231,N,11432.08593623,E,0.218,234.4,051224,3.4,W,D*2B
$GNVTG,271.804,T,275.237,M,0.21416,N,0.39663,K,D*3F
$GNHDT,277.7087,T*11
$GPGGA,082138.20,2234.21207269,N,11432.08592338,E,4,20,0.8,0.9099,M,-1.3365,M,01,0000*71
$GPRMC,082138.20,A,2234.21207269,N,11432.08592338,E,0.214,271.8,051224,3.4,W,D*2B
$GNVTG,202.270,T,205.703,M,0.09581,N,0.17744,K,D*3A
$GNHDT,278.1315,T*10
$GPGGA,082138.40,2234.21206775,N,11432.08592120,E,4,21,0.8,0.9057,M,-1.3365,M,01,0000*76
$GPRMC,082138.40,A,2234.21206775,N,11432.08592120,E,0.096,202.3,051224,3.4,W,D*28
$GNVTG,132.291,T,135.725,M,0.06916,N,0.12809,K,D*3F
$GNHDT,278.3327,T*13
$GPGGA,082138.60,2234.21206515,N,11432.08592427,E,4,21,0.8,0.8985,M,-1.3365,M,00,0000*74
$GPRMC,082138.60,A,2234.21206515,N,11432.08592427,E,0.069,132.3,051224,3.4,W,D*2C
$GNVTG,60.119,T,63.553,M,0.18063,N,0.33454,K,D*38
$GNHDT,277.9243,T*15
$GPGGA,082138.80,2234.21207017,N,11432.08593367,E,4,21,0.8,0.8949,M,-1.3365,M,00,0000*7E
$GPRMC,082138.80,A,2234.21207017,N,11432.08593367,E,0.181,60.1,051224,3.4,W,D*15
$GNVTG,117.529,T,120.962,M,0.24587,N,0.45536,K,D*32
$GNHDT,278.6678,T*19
$GPGGA,082139.00,2234.21206383,N,11432.08594676,E,4,21,0.8,0.8571,M,-1.3365,M,01,0000*7C
$GPRMC,082139.00,A,2234.21206383,N,11432.08594676,E,0.246,117.5,051224,3.4,W,D*2C
$GNVTG,87.367,T,90.800,M,0.07937,N,0.14699,K,D*3D
$GNHDT,279.1615,T*14
$GPGGA,082139.20,2234.21206404,N,11432.08595152,E,4,21,0.8,0.8636,M,-1.3365,M,01,0000*76
$GPRMC,082139.20,A,2234.21206404,N,11432.08595152,E,0.079,87.4,051224,3.4,W,D*11
$GNVTG,321.483,T,324.916,M,0.02553,N,0.04728,K,D*34
$GNHDT,279.2927,T*19
$GPGGA,082139.40,2234.21206515,N,11432.08595056,E,4,21,0.8,0.8727,M,-1.3365,M,01,0000*75
$GPRMC,082139.40,A,2234.21206515,N,11432.08595056,E,0.026,321.5,051224,3.4,W,D*27
$GNVTG,159.055,T,162.488,M,0.08375,N,0.15510,K,D*3D
$GNHDT,279.5515,T*13
$GPGGA,082139.60,2234.21206079,N,11432.08595236,E,4,21,0.8,0.8796,M,-1.3365,M,01,0000*76
$GPRMC,082139.60,A,2234.21206079,N,11432.08595236,E,0.084,159.1,051224,3.4,W,D*2F
$GNVTG,294.727,T,298.160,M,0.10378,N,0.19221,K,D*35
$GNHDT,279.3021,T*17
$GPGGA,082139.80,2234.21206321,N,11432.08594670,E,4,21,0.8,0.9240,M,-1.3365,M,00,0000*7F
$GPRMC,082139.80,A,2234.21206321,N,11432.08594670,E,0.104,294.7,051224,3.4,W,D*25
$GNVTG,109.155,T,112.589,M,0.14621,N,0.27079,K,D*3C
$GNHDT,279.3037,T*10
$GPGGA,082140.00,2234.21206054,N,11432.08595499,E,4,21,0.8,0.9380,M,-1.3365,M,01,0000*70
$GPRMC,082140.00,A,2234.21206054,N,11432.08595499,E,0.146,109.2,051224,3.4,W,D*22
$GNVTG,84.001,T,87.434,M,0.23091,N,0.42765,K,D*32
$GNHDT,279.1642,T*16
$GPGGA,082140.20,2234.21206188,N,11432.08596878,E,4,21,0.8,0.8945,M,-1.3365,M,01,0000*70
$GPRMC,082140.20,A,2234.21206188,N,11432.08596878,E,0.231,84.0,051224,3.4,W,D*15
$GNVTG,75.584,T,79.017,M,0.20480,N,0.37930,K,D*3B
$GNHDT,279.0193,T*1C
$GPGGA,082140.40,2234.21206472,N,11432.08598068,E,4,21,0.8,0.9151,M,-1.3365,M,01,0000*7D
$GPRMC,082140.40,A,2234.21206472,N,11432.08598068,E,0.205,75.6,051224,3.4,W,D*1B
$GNVTG,119.302,T,122.736,M,0.25727,N,0.47646,K,D*31
$GNHDT,279.4160,T*14
$GPGGA,082140.60,2234.21205770,N,11432.08599415,E,4,22,0.7,0.8952,M,-1.3365,M,01,0000*74
$GPRMC,082140.60,A,2234.21205770,N,11432.08599415,E,0.257,119.3,051224,3.4,W,D*2D
$GNVTG,128.941,T,132.375,M,0.03582,N,0.06634,K,D*35
$GNHDT,279.3522,T*11
$GPGGA,082140.80,2234.21205645,N,11432.08599582,E,4,22,0.7,0.9165,M,-1.3365,M,00,0000*7E
$GPRMC,082140.80,A,2234.21205645,N,11432.08599582,E,0.036,128.9,051224,3.4,W,D*26
$GNVTG,170.900,T,174.333,M,0.16433,N,0.30434,K,D*35
$GNHDT,279.5242,T*16
$GPGGA,082141.00,2234.21204740,N,11432.08599738,E,4,22,0.7,0.9139,M,-1.3365,M,01,0000*79
$GPRMC,082141.00,A,2234.21204740,N,11432.08599738,E,0.164,170.9,051224,3.4,W,D*22
$GNVTG,219.342,T,222.775,M,0.18744,N,0.34713,K,D*3C
$GNHDT,279.9592,T*10
$GPGGA,082141.20,2234.21203932,N,11432.08599025,E,4,22,0.7,0.9420,M,-1.3365,M,01,0000*71
$GPRMC,082141.20,A,2234.21203932,N,11432.08599025,E,0.187,219.3,051224,3.4,W,D*2C
$GNVTG,228.278,T,231.712,M,0.14995,N,0.27770,K,D*3C
$GNHDT,279.8003,T*1C
$GPGGA,082141.40,2234.21203376,N,11432.08598353,E,4,22,0.7,0.9462,M,-1.3365,M,01,0000*78
$GPRMC,082141.40,A,2234.21203376,N,11432.08598353,E,0.150,228.3,051224,3.4,W,D*2B
$GNVTG,226.223,T,229.656,M,0.14496,N,0.26846,K,D*31
$GNHDT,279.8815,T*13
$GPGGA,082141.60,2234.21202817,N,11432.08597725,E,4,22,0.7,0.9854,M,-1.3365,M,01,0000*74
$GPRMC,082141.60,A,2234.21202817,N,11432.08597725,E,0.145,226.2,051224,3.4,W,D*25
$GNVTG,184.948,T,188.381,M,0.13421,N,0.24856,K,D*33
$GNHDT,279.9464,T*18
$GPGGA,082141.80,2234.21202071,N,11432.08597656,E,4,21,0.8,0.9932,M,-1.3365,M,01,0000*7A
$GPRMC,082141.80,A,2234.21202071,N,11432.08597656,E,0.134,184.9,051224,3.4,W,D*20
$GNVTG,140.119,T,143.553,M,0.14041,N,0.26004,K,D*31
$GNHDT,280.1662,T*12
$GPGGA,082142.00,2234.21201471,N,11432.08598196,E,4,21,0.8,0.9743,M,-1.3365,M,02,0000*79
$GPRMC,082142.00,A,2234.21201471,N,11432.08598196,E,0.140,140.1,051224,3.4,W,D*2B
$GNVTG,108.323,T,111.757,M,0.03602,N,0.06670,K,D*37
$GNHDT,280.0193,T*1A
$GPGGA,082142.20,2234.21201408,N,11432.08598401,E,4,21,0.8,0.9661,M,-1.3365,M,02,0000*7F
$GPRMC,082142.20,A,2234.21201408,N,11432.08598401,E,0.036,108.3,051224,3.4,W,D*22
$GNVTG,242.886,T,246.319,M,0.12768,N,0.23646,K,D*3E
$GNHDT,280.4101,T*15
$GPGGA,082142.40,2234.21201083,N,11432.08597719,E,4,21,0.8,1.0137,M,-1.3365,M,02,0000*77
$GPRMC,082142.40,A,2234.21201083,N,11432.08597719,E,0.128,242.9,051224,3.4,W,D*2F
$GNVTG,230.544,T,233.977,M,0.15026,N,0.27828,K,D*30
$GNHDT,280.6166,T*16
$GPGGA,082142.60,2234.21200551,N,11432.08597023,E,4,21,0.8,1.0199,M,-1.3365,M,02,0000*74
$GPRMC,082142.60,A,2234.21200551,N,11432.08597023,E,0.150,230.5,051224,3.4,W,D*2E
$GNVTG,244.403,T,247.836,M,0.25126,N,0.46534,K,D*33
$GNHDT,280.7545,T*12
$GPGGA,082142.80,2234.21199946,N,11432.08595662,E,4,21,0.8,1.0430,M,-1.3365,M,00,0000*76
$GPRMC,082142.80,A,2234.21199946,N,11432.08595662,E,0.251,244.4,051224,3.4,W,D*28
$GNVTG,219.422,T,222.855,M,0.18523,N,0.34305,K,D*30
$GNHDT,280.9260,T*1C
$GPGGA,082143.00,2234.21199148,N,11432.08594956,E,4,21,0.8,1.0465,M,-1.3365,M,01,0000*71
$GPRMC,082143.00,A,2234.21199148,N,11432.08594956,E,0.185,219.4,051224,3.4,W,D*2C
$GNVTG,231.777,T,235.210,M,0.27981,N,0.51820,K,D*33
$GNHDT,281.0321,T*10
$GPGGA,082143.20,2234.21198183,N,11432.08593637,E,4,21,0.8,1.0357,M,-1.3365,M,01,0000*7C
$GPRMC,082143.20,A,2234.21198183,N,11432.08593637,E,0.280,231.8,051224,3.4,W,D*27
$GNVTG,149.077,T,152.511,M,0.09647,N,0.17866,K,D*35
$GNHDT,280.7804,T*1A
$GPGGA,082143.40,2234.21197722,N,11432.08593934,E,4,21,0.8,1.0463,M,-1.3365,M,01,0000*74
$GPRMC,082143.40,A,2234.21197722,N,11432.08593934,E,0.096,149.1,051224,3.4,W,D*2F
$GNVTG,167.679,T,171.112,M,0.19267,N,0.35683,K,D*35
$GNHDT,281.1208,T*1B
$GPGGA,082143.60,2234.21196672,N,11432.08594181,E,4,21,0.8,1.0287,M,-1.3365,M,00,0000*7F
$GPRMC,082143.60,A,2234.21196672,N,11432.08594181,E,0.193,167.7,051224,3.4,W,D*27
$GNVTG,180.703,T,184.137,M,0.15633,N,0.28953,K,D*3A
$GNHDT,281.3234,T*16
$GPGGA,082143.80,2234.21195801,N,11432.08594170,E,4,21,0.8,1.0175,M,-1.3365,M,00,0000*78
$GPRMC,082143.80,A,2234.21195801,N,11432.08594170,E,0.156,180.7,051224,3.4,W,D*2E
$GNVTG,204.948,T,208.381,M,0.16479,N,0.30519,K,D*38
$GNHDT,281.8296,T*15
$GPGGA,082144.00,2234.21194968,N,11432.08593753,E,4,22,0.7,1.0194,M,-1.3365,M,01,0000*7A
$GPRMC,082144.00,A,2234.21194968,N,11432.08593753,E,0.165,204.9,051224,3.4,W,D*2F
$GNVTG,137.835,T,141.268,M,0.21024,N,0.38937,K,D*38
$GNHDT,281.8729,T*14
$GPGGA,082144.20,2234.21194099,N,11432.08594600,E,4,22,0.7,0.9124,M,-1.3365,M,01,0000*7C
$GPRMC,082144.20,A,2234.21194099,N,11432.08594600,E,0.210,137.8,051224,3.4,W,D*29
$GNVTG,300.211,T,303.645,M,0.08354,N,0.15471,K,D*32
$GNHDT,281.3865,T*18
$GPGGA,082144.40,2234.21194334,N,11432.08594166,E,4,22,0.7,0.8884,M,-1.3365,M,01,0000*7B
$GPRMC,082144.40,A,2234.21194334,N,11432.08594166,E,0.084,300.2,051224,3.4,W,D*2F
$GNVTG,232.236,T,235.669,M,0.12224,N,0.22639,K,D*3A
$GNHDT,281.9754,T*1F
$GPGGA,082144.60,2234.21193916,N,11432.08593586,E,4,21,0.8,0.8674,M,-1.3365,M,00,0000*75
$GPRMC,082144.60,A,2234.21193916,N,11432.08593586,E,0.122,232.2,051224,3.4,W,D*20
$GNVTG,322.544,T,325.978,M,0.08309,N,0.15389,K,D*38
$GNHDT,281.6934,T*18
$GPGGA,082144.80,2234.21194284,N,11432.08593283,E,4,21,0.8,0.8507,M,-1.3365,M,00,0000*79
$GPRMC,082144.80,A,2234.21194284,N,11432.08593283,E,0.083,322.5,051224,3.4,W,D*26
$GNVTG,173.924,T,177.357,M,0.02878,N,0.05330,K,D*32
$GNHDT,282.1572,T*12
$GPGGA,082145.00,2234.21194124,N,11432.08593301,E,4,21,0.8,0.8419,M,-1.3365,M,01,0000*7D
$GPRMC,082145.00,A,2234.21194124,N,11432.08593301,E,0.029,173.9,051224,3.4,W,D*27
$GNVTG,248.365,T,251.798,M,0.11417,N,0.21144,K,D*36
$GNHDT,282.6425,T*16
$GPGGA,082145.20,2234.21193890,N,11432.08592664,E,4,21,0.8,0.8900,M,-1.3365,M,01,0000*7C
$GPRMC,082145.20,A,2234.21193890,N,11432.08592664,E,0.114,248.4,051224,3.4,W,D*2A
$GNVTG,76.999,T,80.433,M,0.12709,N,0.23538,K,D*3E
$GNHDT,282.7042,T*12
$GPGGA,082145.40,2234.21194049,N,11432.08593408,E,4,21,0.8,0.8902,M,-1.3365,M,01,0000*7A
$GPRMC,082145.40,A,2234.21194049,N,11432.08593408,E,0.127,77.0,051224,3.4,W,D*14
$GNVTG,105.795,T,109.228,M,0.05929,N,0.10981,K,D*31
$GNHDT,283.1989,T*1B
$GPGGA,082145.60,2234.21193959,N,11432.08593750,E,4,21,0.8,0.9101,M,-1.3365,M,00,0000*72
$GPRMC,082145.60,A,2234.21193959,N,11432.08593750,E,0.059,105.8,051224,3.4,W,D*23
$GNVTG,88.007,T,91.440,M,0.10354,N,0.19175,K,D*3F
$GNHDT,283.2148,T*1D
$GPGGA,082145.80,2234.21193979,N,11432.08594371,E,4,21,0.8,0.9103,M,-1.3365,M,00,0000*7C
$GPRMC,082145.80,A,2234.21193979,N,11432.08594371,E,0.104,88.0,051224,3.4,W,D*1A
$GNVTG,142.339,T,145.773,M,0.10759,N,0.19925,K,D*39
$GNHDT,283.5683,T*1A
$GPGGA,082146.00,2234.21193504,N,11432.08594766,E,4,22,0.7,0.8850,M,-1.3365,M,01,0000*70
$GPRMC,082146.00,A,2234.21193504,N,11432.08594766,E,0.108,142.3,051224,3.4,W,D*2D
$GNVTG,96.020,T,99.454,M,0.09081,N,0.16819,K,D*37
$GNHDT,283.5117,T*10
$GPGGA,082146.20,2234.21193451,N,11432.08595308,E,4,22,0.7,0.9032,M,-1.3365,M,01,0000*73
$GPRMC,082146.20,A,2234.21193451,N,11432.08595308,E,0.091,96.0,051224,3.4,W,D*19
$GNVTG,138.938,T,142.371,M,0.14669,N,0.27167,K,D*3B
$GNHDT,283.4363,T*10
$GPGGA,082146.40,2234.21192835,N,11432.08595886,E,4,22,0.7,0.9142,M,-1.3365,M,01,0000*71
$GPRMC,082146.40,A,2234.21192835,N,11432.08595886,E,0.147,138.9,051224,3.4,W,D*2B
$GNVTG,124.593,T,128.026,M,0.30446,N,0.56386,K,D*34
$GNHDT,283.7601,T*12
