53.00,2234.03520634,N,11431.92522762,E,4,21,0.8,3.4486,M,-1.3415,M,03,0000*7C
$GPRMC,035653.00,A,2234.03520634,N,11431.92522762,E,0.021,340.1,051224,3.4,W,D*2F
$GNVTG,22.388,T,25.817,M,0.10140,N,0.18779,K,D*36
$GNHDT,237.9663,T*17
$GPGGA,035653.20,2234.03521156,N,11431.92522994,E,4,21,0.8,3.4491,M,-1.3415,M,03,0000*7D
$GPRMC,035653.20,A,2234.03521156,N,11431.92522994,E,0.101,22.4,051224,3.4,W,D*19
$GNVTG,168.893,T,172.323,M,0.07685,N,0.14233,K,D*38
$GNHDT,237.9422,T*10
$GPGGA,035653.40,2234.03520736,N,11431.92523083,E,4,21,0.8,3.4633,M,-1.3415,M,03,0000*7E
$GPRMC,035653.40,A,2234.03520736,N,11431.92523083,E,0.077,168.9,051224,3.4,W,D*22
$GNVTG,82.556,T,85.986,M,0.11651,N,0.21578,K,D*35
$GNHDT,237.9270,T*11
$GPGGA,035653.60,2234.03520820,N,11431.92523776,E,4,21,0.8,3.4625,M,-1.3415,M,03,0000*7E
$GPRMC,035653.60,A,2234.03520820,N,11431.92523776,E,0.117,82.6,051224,3.4,W,D*18
$GNVTG,86.067,T,89.497,M,0.08679,N,0.16074,K,D*38
$GNHDT,238.3589,T*15
$GPGGA,035653.80,2234.03520853,N,11431.92524296,E,4,20,0.8,3.4638,M,-1.3415,M,00,0000*76
$GPRMC,035653.80,A,2234.03520853,N,11431.92524296,E,0.087,86.1,051224,3.4,W,D*15
$GNVTG,301.458,T,304.888,M,0.05342,N,0.09893,K,D*37
$GNHDT,237.5416,T*1B
$GPGGA,035654.00,2234.03521009,N,11431.92524022,E,4,19,0.8,3.4447,M,-1.3415,M,01,0000*73
$GPRMC,035654.00,A,2234.03521009,N,11431.92524022,E,0.053,301.5,051224,3.4,W,D*20
$GNVTG,325.190,T,328.619,M,0.04825,N,0.08936,K,D*3C
$GNHDT,237.3217,T*1A
$GPGGA,035654.20,2234.03521230,N,11431.92523857,E,4,20,0.8,3.4436,M,-1.3415,M,01,0000*78
$GPRMC,035654.20,A,2234.03521230,N,11431.92523857,E,0.048,325.2,051224,3.4,W,D*2C
$GNVTG,280.100,T,283.530,M,0.06644,N,0.12305,K,D*39
$GNHDT,238.1091,T*1B
$GPGGA,035654.40,2234.03521295,N,11431.92523464,E,4,20,0.8,3.4769,M,-1.3415,M,01,0000*74
$GPRMC,035654.40,A,2234.03521295,N,11431.92523464,E,0.066,280.1,051224,3.4,W,D*28
$GNVTG,220.674,T,224.103,M,0.04640,N,0.08593,K,D*3A
$GNHDT,237.8926,T*18
$GPGGA,035654.60,2234.03521098,N,11431.92523283,E,4,20,0.8,3.4494,M,-1.3415,M,00,0000*76
$GPRMC,035654.60,A,2234.03521098,N,11431.92523283,E,0.046,220.7,051224,3.4,W,D*24
$GNVTG,100.789,T,104.219,M,0.08164,N,0.15119,K,D*36
$GNHDT,238.1812,T*18
$GPGGA,035654.80,2234.03521013,N,11431.92523764,E,4,20,0.8,3.4679,M,-1.3415,M,00,0000*76
$GPRMC,035654.80,A,2234.03521013,N,11431.92523764,E,0.082,100.8,051224,3.4,W,D*23
$GNVTG,1.674,T,5.103,M,0.05554,N,0.10287,K,D*36
$GNHDT,237.9772,T*16
$GPGGA,035655.00,2234.03521323,N,11431.92523774,E,4,20,0.8,3.4648,M,-1.3415,M,01,0000*7D
$GPRMC,035655.00,A,2234.03521323,N,11431.92523774,E,0.056,1.7,051224,3.4,W,D*2D
$GNVTG,39.674,T,43.104,M,0.10359,N,0.19185,K,D*3F
$GNHDT,237.7139,T*11
$GPGGA,035655.20,2234.03521767,N,11431.92524171,E,4,20,0.8,3.4539,M,-1.3415,M,01,0000*7A
$GPRMC,035655.20,A,2234.03521767,N,11431.92524171,E,0.104,39.7,051224,3.4,W,D*12
$GNVTG,240.987,T,244.417,M,0.01405,N,0.02601,K,D*3D
$GNHDT,237.6555,T*1E
$GPGGA,035655.40,2234.03521729,N,11431.92524097,E,4,21,0.8,3.4501,M,-1.3415,M,01,0000*75
$GPRMC,035655.40,A,2234.03521729,N,11431.92524097,E,0.014,241.0,051224,3.4,W,D*2D
$GNVTG,109.659,T,113.089,M,0.05056,N,0.09363,K,D*31
$GNHDT,237.9237,T*12
$GPGGA,035655.60,2234.03521634,N,11431.92524383,E,4,21,0.8,3.4494,M,-1.3415,M,01,0000*71
$GPRMC,035655.60,A,2234.03521634,N,11431.92524383,E,0.051,109.7,051224,3.4,W,D*2D
$GNVTG,330.437,T,333.866,M,0.06836,N,0.12661,K,D*3A
$GNHDT,237.6221,T*1A
$GPGGA,035655.80,2234.03521966,N,11431.92524180,E,4,21,0.8,3.4357,M,-1.3415,M,00,0000*7F
$GPRMC,035655.80,A,2234.03521966,N,11431.92524180,E,0.068,330.4,051224,3.4,W,D*2B
$GNVTG,99.161,T,102.590,M,0.06450,N,0.11945,K,D*0E
$GNHDT,237.6523,T*1F
$GPGGA,035656.00,2234.03521909,N,11431.92524563,E,4,21,0.8,3.4354,M,-1.3415,M,01,0000*76
$GPRMC,035656.00,A,2234.03521909,N,11431.92524563,E,0.065,99.2,051224,3.4,W,D*1B
$GNVTG,342.269,T,345.698,M,0.03832,N,0.07098,K,D*39
$GNHDT,238.0974,T*18
$GPGGA,035656.20,2234.03522112,N,11431.92524493,E,4,20,0.8,3.4274,M,-1.3415,M,01,0000*79
$GPRMC,035656.20,A,2234.03522112,N,11431.92524493,E,0.038,342.3,051224,3.4,W,D*2A
$GNVTG,209.142,T,212.572,M,0.18349,N,0.33982,K,D*31
$GNHDT,238.0517,T*11
$GPGGA,035656.40,2234.03521219,N,11431.92523956,E,4,20,0.8,3.4584,M,-1.3415,M,01,0000*7F
$GPRMC,035656.40,A,2234.03521219,N,11431.92523956,E,0.183,209.1,051224,3.4,W,D*29
$GNVTG,328.962,T,332.392,M,0.07458,N,0.13813,K,D*30
$GNHDT,237.8951,T*18
$GPGGA,035656.60,2234.03521575,N,11431.92523725,E,4,20,0.8,3.4267,M,-1.3415,M,01,0000*70
$GPRMC,035656.60,A,2234.03521575,N,11431.92523725,E,0.075,329.0,051224,3.4,W,D*26
$GNVTG,79.605,T,83.034,M,0.03939,N,0.07295,K,D*30
$GNHDT,237.7773,T*19
$GPGGA,035656.80,2234.03521615,N,11431.92523958,E,4,20,0.8,3.4430,M,-1.3415,M,00,0000*7A
$GPRMC,035656.80,A,2234.03521615,N,11431.92523958,E,0.039,79.6,051224,3.4,W,D*11
$GNVTG,39.512,T,42.942,M,0.07625,N,0.14121,K,D*3C
$GNHDT,237.3228,T*16
$GPGGA,035657.00,2234.03521943,N,11431.92524249,E,4,20,0.8,3.4496,M,-1.3415,M,01,0000*7E
$GPRMC,035657.00,A,2234.03521943,N,11431.92524249,E,0.076,39.5,051224,3.4,W,D*14
$GNVTG,252.669,T,256.099,M,0.07799,N,0.14444,K,D*34
$GNHDT,237.7630,T*1F
$GPGGA,035657.20,2234.03521813,N,11431.92523802,E,4,20,0.8,3.4415,M,-1.3415,M,01,0000*71
$GPRMC,035657.20,A,2234.03521813,N,11431.92523802,E,0.078,252.7,051224,3.4,W,D*23
$GNVTG,61.265,T,64.695,M,0.05813,N,0.10766,K,D*3F
$GNHDT,237.6752,T*1B
$GPGGA,035657.40,2234.03521969,N,11431.92524108,E,4,20,0.8,3.4737,M,-1.3415,M,01,0000*7C
$GPRMC,035657.40,A,2234.03521969,N,11431.92524108,E,0.058,61.3,051224,3.4,W,D*19
$GNVTG,206.952,T,210.382,M,0.05665,N,0.10491,K,D*35
$GNHDT,237.7006,T*1C
$GPGGA,035657.60,2234.03521687,N,11431.92523954,E,4,20,0.8,3.4889,M,-1.3415,M,00,0000*7C
$GPRMC,035657.60,A,2234.03521687,N,11431.92523954,E,0.057,207.0,051224,3.4,W,D*2C
$GNVTG,347.315,T,350.744,M,0.00346,N,0.00641,K,D*3C
$GNHDT,237.9016,T*13
$GPGGA,035657.80,2234.03521706,N,11431.92523950,E,4,20,0.8,3.4764,M,-1.3415,M,00,0000*72
$GPRMC,035657.80,A,2234.03521706,N,11431.92523950,E,0.003,347.3,051224,3.4,W,D*29
$GNVTG,190.280,T,193.710,M,0.04277,N,0.07920,K,D*3D
$GNHDT,237.8461,T*16
$GPGGA,035658.00,2234.03521472,N,11431.92523904,E,4,20,0.8,3.4907,M,-1.3415,M,01,0000*7E
$GPRMC,035658.00,A,2234.03521472,N,11431.92523904,E,0.043,190.3,051224,3.4,W,D*23
$GNVTG,327.492,T,330.922,M,0.15191,N,0.28135,K,D*38
$GNHDT,237.4838,T*1A
$GPGGA,035658.20,2234.03522186,N,11431.92523414,E,4,20,0.8,3.4832,M,-1.3415,M,01,0000*7A
$GPRMC,035658.20,A,2234.03522186,N,11431.92523414,E,0.152,327.5,051224,3.4,W,D*29
$GNVTG,142.854,T,146.283,M,0.06582,N,0.12190,K,D*3E
$GNHDT,237.8881,T*14
$GPGGA,035658.40,2234.03521893,N,11431.92523652,E,4,21,0.8,3.4878,M,-1.3415,M,01,0000*7D
$GPRMC,035658.40,A,2234.03521893,N,11431.92523652,E,0.066,142.9,051224,3.4,W,D*2A
$GNVTG,298.835,T,302.265,M,0.02731,N,0.05058,K,D*3A
$GNHDT,237.2361,T*1B
$GPGGA,035658.60,2234.03521967,N,11431.92523509,E,4,20,0.8,3.4906,M,-1.3415,M,00,0000*70
$GPRMC,035658.60,A,2234.03521967,N,11431.92523509,E,0.027,298.8,051224,3.4,W,D*2F
$GNVTG,208.992,T,212.421,M,0.08816,N,0.16327,K,D*30
$GNHDT,237.4287,T*14
$GPGGA,035658.80,2234.03521537,N,11431.92523252,E,4,20,0.8,3.4756,M,-1.3415,M,00,0000*75
$GPRMC,035658.80,A,2234.03521537,N,11431.92523252,E,0.088,209.0,051224,3.4,W,D*24
$GNVTG,41.063,T,44.493,M,0.04683,N,0.08672,K,D*34
$GNHDT,237.5357,T*19
$GPGGA,035659.00,2234.03521734,N,11431.92523437,E,4,19,0.8,3.4506,M,-1.3415,M,01,0000*74
$GPRMC,035659.00,A,2234.03521734,N,11431.92523437,E,0.047,41.1,051224,3.4,W,D*15
$GNVTG,258.049,T,261.478,M,0.03990,N,0.07389,K,D*32
$GNHDT,237.0815,T*11
$GPGGA,035659.20,2234.03521688,N,11431.92523203,E,4,20,0.8,3.4759,M,-1.3415,M,01,0000*73
$GPRMC,035659.20,A,2234.03521688,N,11431.92523203,E,0.040,258.0,051224,3.4,W,D*2C
$GNVTG,28.586,T,32.016,M,0.06366,N,0.11789,K,D*3C
$GNHDT,237.2556,T*19
$GPGGA,035659.40,2234.03521999,N,11431.92523385,E,4,20,0.8,3.4229,M,-1.3415,M,01,0000*77
$GPRMC,035659.40,A,2234.03521999,N,11431.92523385,E,0.064,28.6,051224,3.4,W,D*1F
$GNVTG,95.669,T,99.098,M,0.09471,N,0.17540,K,D*30
$GNHDT,237.4935,T*16
$GPGGA,035659.60,2234.03521947,N,11431.92523951,E,4,21,0.8,3.4305,M,-1.3415,M,01,0000*7B
$GPRMC,035659.60,A,2234.03521947,N,11431.92523951,E,0.095,95.7,051224,3.4,W,D*14
$GNVTG,14.413,T,17.843,M,0.06456,N,0.11956,K,D*39
$GNHDT,237.1554,T*18
$GPGGA,035659.80,2234.03522296,N,11431.92524048,E,4,21,0.8,3.4211,M,-1.3415,M,01,0000*73
$GPRMC,035659.80,A,2234.03522296,N,11431.92524048,E,0.065,14.4,051224,3.4,W,D*1D
$GNVTG,261.622,T,265.052,M,0.06996,N,0.12957,K,D*35
$GNHDT,237.0182,T*16
$GPGGA,035700.00,2234.03522239,N,11431.92523632,E,4,21,0.8,3.4266,M,-1.3415,M,02,0000*7C
$GPRMC,035700.00,A,2234.03522239,N,11431.92523632,E,0.070,261.6,051224,3.4,W,D*27
$GNVTG,147.164,T,150.594,M,0.09872,N,0.18282,K,D*30
$GNHDT,237.0460,T*1F
$GPGGA,035700.20,2234.03521776,N,11431.92523953,E,4,21,0.8,3.4299,M,-1.3415,M,02,0000*7B
$GPRMC,035700.20,A,2234.03521776,N,11431.92523953,E,0.099,147.2,051224,3.4,W,D*24
$GNVTG,136.861,T,140.290,M,0.06120,N,0.11335,K,D*3D
$GNHDT,237.3110,T*1E
$GPGGA,035700.40,2234.03521527,N,11431.92524205,E,4,21,0.8,3.4532,M,-1.3415,M,02,0000*72
$GPRMC,035700.40,A,2234.03521527,N,11431.92524205,E,0.061,136.9,051224,3.4,W,D*21
$GNVTG,340.573,T,344.002,M,0.07229,N,0.13388,K,D*30
$GNHDT,236.5122,T*18
$GPGGA,035700.60,2234.03521907,N,11431.92524060,E,4,21,0.8,3.4301,M,-1.3415,M,00,0000*7B
$GPRMC,035700.60,A,2234.03521907,N,11431.92524060,E,0.072,340.6,051224,3.4,W,D*22
$GNVTG,135.908,T,139.338,M,0.10340,N,0.19150,K,D*37
$GNHDT,237.3797,T*17
$GPGGA,035700.80,2234.03521493,N,11431.92524492,E,4,22,0.7,3.4478,M,-1.3415,M,00,0000*79
$GPRMC,035700.80,A,2234.03521493,N,11431.92524492,E,0.103,135.9,051224,3.4,W,D*2D
$GNVTG,257.473,T,260.903,M,0.12056,N,0.22328,K,D*3F
$GNHDT,236.7647,T*1E
$GPGGA,035701.00,2234.03521348,N,11431.92523786,E,4,21,0.8,3.4265,M,-1.3415,M,01,0000*77
$GPRMC,035701.00,A,2234.03521348,N,11431.92523786,E,0.121,257.5,051224,3.4,W,D*2F
$GNVTG,104.766,T,108.196,M,0.03168,N,0.05868,K,D*32
$GNHDT,237.1716,T*1C
$GPGGA,035701.20,2234.03521303,N,11431.92523970,E,4,21,0.8,3.4246,M,-1.3415,M,01,0000*7C
$GPRMC,035701.20,A,2234.03521303,N,11431.92523970,E,0.032,104.8,051224,3.4,W,D*2E
$GNVTG,222.072,T,225.502,M,0.02541,N,0.04706,K,D*3A
$GNHDT,237.0315,T*1A
$GPGGA,035701.40,2234.03521198,N,11431.92523867,E,4,21,0.8,3.4458,M,-1.3415,M,01,0000*74
$GPRMC,035701.40,A,2234.03521198,N,11431.92523867,E,0.025,222.1,051224,3.4,W,D*27
$GNVTG,332.638,T,336.067,M,0.02614,N,0.04840,K,D*39
$GNHDT,236.7303,T*1B
$GPGGA,035701.60,2234.03521327,N,11431.92523795,E,4,21,0.8,3.4206,M,-1.3415,M,00,0000*7E
$GPRMC,035701.60,A,2234.03521327,N,11431.92523795,E,0.026,332.6,051224,3.4,W,D*25
$GNVTG,256.550,T,259.979,M,0.05518,N,0.10219,K,D*32
$GNHDT,236.6804,T*16
$GPGGA,035701.80,2234.03521255,N,11431.92523473,E,4,21,0.8,3.4216,M,-1.3415,M,00,0000*7E
$GPRMC,035701.80,A,2234.03521255,N,11431.92523473,E,0.055,256.5,051224,3.4,W,D*20
$GNVTG,97.767,T,101.197,M,0.08947,N,0.16570,K,D*08
$GNHDT,237.1866,T*14
$GPGGA,035702.00,2234.03521188,N,11431.92524005,E,4,21,0.8,3.4373,M,-1.3415,M,01,0000*77
$GPRMC,035702.00,A,2234.03521188,N,11431.92524005,E,0.089,97.8,051224,3.4,W,D*19
$GNVTG,178.120,T,181.550,M,0.03046,N,0.05641,K,D*3A
$GNHDT,237.0287,T*10
$GPGGA,035702.20,2234.03521018,N,11431.92524011,E,4,21,0.8,3.4530,M,-1.3415,M,01,0000*79
$GPRMC,035702.20,A,2234.03521018,N,11431.92524011,E,0.030,178.1,051224,3.4,W,D*2D
$GNVTG,313.040,T,316.470,M,0.18322,N,0.33933,K,D*39
$GNHDT,236.7479,T*11
$GPGGA,035702.40,2234.03521715,N,11431.92523207,E,4,20,0.8,3.4154,M,-1.3415,M,01,0000*70
$GPRMC,035702.40,A,2234.03521715,N,11431.92523207,E,0.183,313.0,051224,3.4,W,D*24
$GNVTG,44.979,T,48.408,M,0.02307,N,0.04273,K,D*3B
$GNHDT,236.4792,T*14
$GPGGA,035702.60,2234.03521806,N,11431.92523305,E,4,21,0.8,3.4178,M,-1.3415,M,01,0000*73
$GPRMC,035702.60,A,2234.03521806,N,11431.92523305,E,0.023,45.0,051224,3.4,W,D*13
$GNVTG,79.093,T,82.523,M,0.03365,N,0.06232,K,D*34
$GNHDT,236.9229,T*1C
$GPGGA,035702.80,2234.03521842,N,11431.92523504,E,4,21,0.8,3.4304,M,-1.3415,M,00,0000*72
$GPRMC,035702.80,A,2234.03521842,N,11431.92523504,E,0.034,79.1,051224,3.4,W,D*12
$GNVTG,131.730,T,135.160,M,0.02456,N,0.04549,K,D*36
$GNHDT,237.1055,T*1C
$GPGGA,035703.00,2234.03521751,N,11431.92523614,E,4,21,0.8,3.4280,M,-1.3415,M,01,0000*78
$GPRMC,035703.00,A,2234.03521751,N,11431.92523614,E,0.025,131.7,051224,3.4,W,D*2F
$GNVTG,97.695,T,101.124,M,0.06355,N,0.11770,K,D*0E
$GNHDT,237.3138,T*14
$GPGGA,035703.20,2234.03521703,N,11431.92523992,E,4,21,0.8,3.4360,M,-1.3415,M,01,0000*73
$GPRMC,035703.20,A,2234.03521703,N,11431.92523992,E,0.064,97.7,051224,3.4,W,D*13
$GNVTG,212.013,T,215.443,M,0.11927,N,0.22088,K,D*32
$GNHDT,236.5656,T*1C
$GPGGA,035703.40,2234.03521139,N,11431.92523612,E,4,21,0.8,3.4475,M,-1.3415,M,01,0000*7E
$GPRMC,035703.40,A,2234.03521139,N,11431.92523612,E,0.119,212.0,051224,3.4,W,D*2E
$GNVTG,99.969,T,103.399,M,0.02037,N,0.03773,K,D*09
$GNHDT,236.8560,T*17
$GPGGA,035703.60,2234.03521120,N,11431.92523733,E,4,21,0.8,3.4287,M,-1.3415,M,00,0000*7C
$GPRMC,035703.60,A,2234.03521120,N,11431.92523733,E,0.020,100.0,051224,3.4,W,D*2D
$GNVTG,307.654,T,311.083,M,0.08418,N,0.15590,K,D*3E
$GNHDT,236.9879,T*13
$GPGGA,035703.80,2234.03521407,N,11431.92523333,E,4,20,0.8,3.4406,M,-1.3415,M,00,0000*78
$GPRMC,035703.80,A,2234.03521407,N,11431.92523333,E,0.084,307.7,051224,3.4,W,D*2B
$GNVTG,136.408,T,139.838,M,0.03704,N,0.06860,K,D*30
$GNHDT,236.9530,T*13
$GPGGA,035704.00,2234.03521257,N,11431.92523486,E,4,20,0.8,3.4285,M,-1.3415,M,01,0000*71
$GPRMC,035704.00,A,2234.03521257,N,11431.92523486,E,0.037,136.4,051224,3.4,W,D*25
$GNVTG,304.949,T,308.379,M,0.07386,N,0.13679,K,D*3D
$GNHDT,236.9613,T*11
$GPGGA,035704.20,2234.03521493,N,11431.92523122,E,4,20,0.8,3.4568,M,-1.3415,M,01,0000*72
$GPRMC,035704.20,A,2234.03521493,N,11431.92523122,E,0.074,304.9,051224,3.4,W,D*2B
$GNVTG,144.751,T,148.181,M,0.07073,N,0.13100,K,D*3F
$GNHDT,237.5070,T*1F
$GPGGA,035704.40,2234.03521171,N,11431.92523368,E,4,20,0.8,3.4287,M,-1.3415,M,01,0000*77
$GPRMC,035704.40,A,2234.03521171,N,11431.92523368,E,0.071,144.8,051224,3.4,W,D*2A
$GNVTG,157.291,T,160.721,M,0.02258,N,0.04182,K,D*30
$GNHDT,237.2084,T*13
$GPGGA,035704.60,2234.03521055,N,11431.92523420,E,4,20,0.8,3.4462,M,-1.3415,M,01,0000*74
$GPRMC,035704.60,A,2234.03521055,N,11431.92523420,E,0.023,157.3,051224,3.4,W,D*2A
$GNVTG,91.615,T,95.045,M,0.03996,N,0.07401,K,D*38
$GNHDT,237.6094,T*16
$GPGGA,035704.80,2234.03521048,N,11431.92523660,E,4,20,0.8,3.4513,M,-1.3415,M,00,0000*76
$GPRMC,035704.80,A,2234.03521048,N,11431.92523660,E,0.040,91.6,051224,3.4,W,D*15
$GNVTG,273.789,T,277.219,M,0.02150,N,0.03983,K,D*37
$GNHDT,237.2437,T*1F
$GPGGA,035705.00,2234.03521056,N,11431.92523531,E,4,20,0.8,3.4641,M,-1.3415,M,01,0000*72
$GPRMC,035705.00,A,2234.03521056,N,11431.92523531,E,0.022,273.8,051224,3.4,W,D*20
$GNVTG,243.478,T,246.907,M,0.03147,N,0.05829,K,D*3F
$GNHDT,236.8277,T*16
$GPGGA,035705.20,2234.03520978,N,11431.92523362,E,4,20,0.8,3.4486,M,-1.3415,M,01,0000*7D
$GPRMC,035705.20,A,2234.03520978,N,11431.92523362,E,0.031,243.5,051224,3.4,W,D*2A
$GNVTG,249.713,T,253.143,M,0.18410,N,0.34095,K,D*37
$GNHDT,237.0139,T*16
$GPGGA,035705.40,2234.03520622,N,11431.92522325,E,4,20,0.8,3.4514,M,-1.3415,M,01,0000*73
$GPRMC,035705.40,A,2234.03520622,N,11431.92522325,E,0.184,249.7,051224,3.4,W,D*29
$GNVTG,71.245,T,74.674,M,0.08370,N,0.15502,K,D*34
$GNHDT,237.3105,T*1A
$GPGGA,035705.60,2234.03520772,N,11431.92522801,E,4,20,0.8,3.4381,M,-1.3415,M,01,0000*72
$GPRMC,035705.60,A,2234.03520772,N,11431.92522801,E,0.084,71.2,051224,3.4,W,D*1F
$GNVTG,2.164,T,5.594,M,0.02644,N,0.04898,K,D*3D
$GNHDT,236.8962,T*19
$GPGGA,035705.80,2234.03520919,N,11431.92522807,E,4,19,0.9,3.4396,M,-1.3415,M,01,0000*74
$GPRMC,035705.80,A,2234.03520919,N,11431.92522807,E,0.026,2.2,051224,3.4,W,D*28
$GNVTG,208.008,T,211.438,M,0.10576,N,0.19587,K,D*30
$GNHDT,237.0735,T*1C
$GPGGA,035706.00,2234.03520399,N,11431.92522509,E,4,19,0.9,3.4443,M,-1.3415,M,02,0000*72
$GPRMC,035706.00,A,2234.03520399,N,11431.92522509,E,0.106,208.0,051224,3.4,W,D*2B
$GNVTG,101.874,T,105.304,M,0.08335,N,0.15437,K,D*39
$GNHDT,238.8176,T*1A
$GPGGA,035706.20,2234.03520303,N,11431.92522999,E,4,18,0.9,3.4735,M,-1.3415,M,02,0000*75
$GPRMC,035706.20,A,2234.03520303,N,11431.92522999,E,0.083,101.9,051224,3.4,W,D*20
$GNVTG,347.465,T,350.895,M,0.03022,N,0.05597,K,D*30
$GNHDT,237.5581,T*14
$GPGGA,035706.40,2234.03520468,N,11431.92522959,E,4,18,0.9,3.4466,M,-1.3415,M,02,0000*70
$GPRMC,035706.40,A,2234.03520468,N,11431.92522959,E,0.030,347.5,051224,3.4,W,D*24
$GNVTG,277.798,T,281.228,M,0.06551,N,0.12133,K,D*3A
$GNHDT,237.2001,T*1E
$GPGGA,035706.60,2234.03520517,N,11431.92522570,E,4,18,0.9,3.4594,M,-1.3415,M,00,0000*72
$GPRMC,035706.60,A,2234.03520517,N,11431.92522570,E,0.066,277.8,051224,3.4,W,D*24
$GNVTG,176.470,T,179.900,M,0.01133,N,0.02098,K,D*3E
$GNHDT,237.4128,T*12
$GPGGA,035706.80,2234.03520454,N,11431.92522574,E,4,18,0.9,3.4450,M,-1.3415,M,00,0000*77
$GPRMC,035706.80,A,2234.03520454,N,11431.92522574,E,0.011,176.5,051224,3.4,W,D*27
$GNVTG,287.374,T,290.804,M,0.02376,N,0.04400,K,D*32
$GNHDT,237.4076,T*18
$GPGGA,035707.00,2234.03520494,N,11431.92522438,E,4,18,0.9,3.4292,M,-1.3415,M,01,0000*72
$GPRMC,035707.00,A,2234.03520494,N,11431.92522438,E,0.024,287.4,051224,3.4,W,D*21
$GNVTG,146.386,T,149.816,M,0.00880,N,0.01629,K,D*39
$GNHDT,237.3710,T*18
$GPGGA,035707.20,2234.03520453,N,11431.92522467,E,4,18,0.9,3.4229,M,-1.3415,M,01,0000*71
$GPRMC,035707.20,A,2234.03520453,N,11431.92522467,E,0.009,146.4,051224,3.4,W,D*23
$GNVTG,280.543,T,283.973,M,0.00673,N,0.01246,K,D*37
$GNHDT,237.4901,T*11
$GPGGA,035707.40,2234.03520460,N,11431.92522427,E,4,19,0.8,3.4436,M,-1.3415,M,01,0000*7B
$GPRMC,035707.40,A,2234.03520460,N,11431.92522427,E,0.007,280.5,051224,3.4,W,D*27
$GNVTG,258.320,T,261.750,M,0.05129,N,0.09499,K,D*33
$GNHDT,237.4250,T*1E
$GPGGA,035707.60,2234.03520402,N,11431.92522126,E,4,19,0.8,3.4179,M,-1.3415,M,00,0000*76
$GPRMC,035707.60,A,2234.03520402,N,11431.92522126,E,0.051,258.3,051224,3.4,W,D*25
$GNVTG,103.241,T,106.671,M,0.03573,N,0.06616,K,D*3F
$GNHDT,237.6357,T*1A
$GPGGA,035707.80,2234.03520356,N,11431.92522334,E,4,19,0.8,3.4008,M,-1.3415,M,00,0000*78
$GPRMC,035707.80,A,2234.03520356,N,11431.92522334,E,0.036,103.2,051224,3.4,W,D*21
$GNVTG,63.481,T,66.911,M,0.05754,N,0.10656,K,D*3E
$GNHDT,237.3364,T*1F
$GPGGA,035708.00,2234.03520500,N,11431.92522643,E,4,16,0.9,3.4019,M,-1.3415,M,01,0000*70
$GPRMC,035708.00,A,2234.03520500,N,11431.92522643,E,0.058,63.5,051224,3.4,W,D*1E
$GNVTG,215.500,T,218.930,M,0.14254,N,0.26398,K,D*3A
$GNHDT,237.3990,T*1E
$GPGGA,035708.20,2234.03519853,N,11431.92522147,E,4,18,0.9,3.4009,M,-1.3415,M,01,0000*7F
$GPRMC,035708.20,A,2234.03519853,N,11431.92522147,E,0.143,215.5,051224,3.4,W,D*26
$GNVTG,11.865,T,15.294,M,0.10510,N,0.19465,K,D*32
$GNHDT,237.4124,T*1E
$GPGGA,035708.40,2234.03520426,N,11431.92522276,E,4,18,0.9,3.3838,M,-1.3415,M,01,0000*71
$GPRMC,035708.40,A,2234.03520426,N,11431.92522276,E,0.105,11.9,051224,3.4,W,D*1D
$GNVTG,197.291,T,200.721,M,0.06110,N,0.11316,K,D*39
$GNHDT,237.6236,T*1C
$GPGGA,035708.60,2234.03520101,N,11431.92522167,E,4,18,0.9,3.3955,M,-1.3415,M,00,0000*7B
$GPRMC,035708.60,A,2234.03520101,N,11431.92522167,E,0.061,197.3,051224,3.4,W,D*2A
$GNVTG,204.403,T,207.832,M,0.06794,N,0.12583,K,D*34
$GNHDT,238.1457,T*15
$GPGGA,035708.80,2234.03519756,N,11431.92521999,E,4,17,1.0,3.4089,M,-1.3415,M,00,0000*79
$GPRMC,035708.80,A,2234.03519756,N,11431.92521999,E,0.068,204.4,051224,3.4,W,D*27
$GNVTG,101.184,T,104.614,M,0.05795,N,0.10732,K,D*3A
$GNHDT,238.2048,T*1C
$GPGGA,035709.00,2234.03519693,N,11431.92522340,E,4,18,0.9,3.4493,M,-1.3415,M,01,0000*7C
$GPRMC,035709.00,A,2234.03519693,N,11431.92522340,E,0.058,101.2,051224,3.4,W,D*28
$GNVTG,64.807,T,68.237,M,0.35731,N,0.66173,K,D*3B
$GNHDT,238.3748,T*1A
$GPGGA,035709.20,2234.03520541,N,11431.92524281,E,4,18,0.9,3.4800,M,-1.3415,M,01,0000*74
$GPRMC,035709.20,A,2234.03520541,N,11431.92524281,E,0.357,64.8,051224,3.4,W,D*12
$GNVTG,72.690,T,76.119,M,0.03149,N,0.05831,K,D*3A
$GNHDT,237.9301,T*16
$GPGGA,035709.40,2234.03520593,N,11431.92524461,E,4,18,0.9,3.4751,M,-1.3415,M,01,0000*7E
$GPRMC,035709.40,A,2234.03520593,N,11431.92524461,E,0.031,72.7,051224,3.4,W,D*18
$GNVTG,60.692,T,64.122,M,0.10736,N,0.19883,K,D*38
$GNHDT,237.9914,T*18
$GPGGA,035709.60,2234.03520886,N,11431.92525023,E,4,18,0.9,3.4743,M,-1.3415,M,00,0000*74
$GPRMC,035709.60,A,2234.03520886,N,11431.92525023,E,0.107,60.7,051224,3.4,W,D*17
$GNVTG,142.393,T,145.823,M,0.05723,N,0.10599,K,D*38
$GNHDT,238.4247,T*17
$GPGGA,035709.80,2234.03520634,N,11431.92525233,E,4,19,0.9,3.4468,M,-1.3415,M,00,0000*75
$GPRMC,035709.80,A,2234.03520634,N,11431.92525233,E,0.057,142.4,051224,3.4,W,D*2B
$GNVTG,66.116,T,69.546,M,0.00532,N,0.00986,K,D*35
$GNHDT,237.9631,T*10
$GPGGA,035710.00,2234.03520646,N,11431.92525262,E,4,19,0.9,3.4570,M,-1.3415,M,01,0000*7D
$GPRMC,035710.00,A,2234.03520646,N,11431.92525262,E,0.005,66.1,051224,3.4,W,D*1F
$GNVTG,230.013,T,233.443,M,0.41347,N,0.76575,K,D*39
$GNHDT,238.3369,T*1D
$GPGGA,035710.20,2234.03519164,N,11431.92523360,E,4,18,0.9,3.4599,M,-1.3415,M,01,0000*71
$GPRMC,035710.20,A,2234.03519164,N,11431.92523360,E,0.413,230.0,051224,3.4,W,D*26
$GNVTG,88.869,T,92.299,M,0.06630,N,0.12278,K,D*3B
$GNHDT,238.4410,T*13
$GPGGA,035710.40,2234.03519172,N,11431.92523758,E,4,18,0.9,3.4820,M,-1.3415,M,01,0000*70
$GPRMC,035710.40,A,2234.03519172,N,11431.92523758,E,0.066,88.9,051224,3.4,W,D*16
$GNVTG,80.974,T,84.404,M,0.05494,N,0.10174,K,D*39
$GNHDT,238.5064,T*15
$GPGGA,035710.60,2234.03519220,N,11431.92524084,E,4,18,0.9,3.4671,M,-1.3415,M,01,0000*7D
$GPRMC,035710.60,A,2234.03519220,N,11431.92524084,E,0.055,81.0,051224,3.4,W,D*11
$GNVTG,87.843,T,91.272,M,0.03098,N,0.05737,K,D*33
$GNHDT,238.9210,T*18
$GPGGA,035710.80,2234.03519226,N,11431.92524270,E,4,18,0.9,3.4850,M,-1.3415,M,01,0000*71
$GPRMC,035710.80,A,2234.03519226,N,11431.92524270,E,0.031,87.8,051224,3.4,W,D*1C
$GNVTG,166.362,T,169.791,M,0.07500,N,0.13889,K,D*36
$GNHDT,238.7373,T*12
$GPGGA,035711.00,2234.03518820,N,11431.92524376,E,4,18,0.9,3.4658,M,-1.3415,M,02,0000*77
$GPRMC,035711.00,A,2234.03518820,N,11431.92524376,E,0.075,166.4,051224,3.4,W,D*2D
$GNVTG,284.936,T,288.366,M,0.04922,N,0.09116,K,D*39
$GNHDT,238.7789,T*13
$GPGGA,035711.20,2234.03518891,N,11431.92524090,E,4,18,0.9,3.5098,M,-1.3415,M,02,0000*7F
$GPRMC,035711.20,A,2234.03518891,N,11431.92524090,E,0.049,284.9,051224,3.4,W,D*23
$GNVTG,143.033,T,146.462,M,0.04010,N,0.07427,K,D*3E
$GNHDT,238.6432,T*11
$GPGGA,035711.40,2234.03518712,N,11431.92524235,E,4,18,0.9,3.5135,M,-1.3415,M,02,0000*76
$GPRMC,035711.40,A,2234.03518712,N,11431.92524235,E,0.040,143.0,051224,3.4,W,D*24
$GNVTG,75.934,T,79.364,M,0.15312,N,0.28358,K,D*3B
$GNHDT,238.9749,T*11
$GPGGA,035711.60,2234.03518920,N,11431.92525127,E,4,19,0.9,3.5051,M,-1.3415,M,00,0000*7A
$GPRMC,035711.60,A,2234.03518920,N,11431.92525127,E,0.153,75.9,051224,3.4,W,D*16
$GNVTG,245.697,T,249.127,M,0.08090,N,0.14983,K,D*3E
$GNHDT,238.8413,T*1C
$GPGGA,035711.80,2234.03518734,N,11431.92524684,E,4,19,0.9,3.5008,M,-1.3415,M,00,0000*7C
$GPRMC,035711.80,A,2234.03518734,N,11431.92524684,E,0.081,245.7,051224,3.4,W,D*2D
$GNVTG,132.035,T,135.465,M,0.03879,N,0.07184,K,D*31
$GNHDT,239.0139,T*18
$GPGGA,035712.00,2234.03518589,N,11431.92524857,E,4,19,0.9,3.5040,M,-1.3415,M,01,0000*7E
$GPRMC,035712.00,A,2234.03518589,N,11431.92524857,E,0.039,132.0,051224,3.4,W,D*25
$GNVTG,12.853,T,16.283,M,0.10075,N,0.18658,K,D*3A
$GNHDT,238.7384,T*1A
$GPGGA,035712.20,2234.03519137,N,11431.92524992,E,4,19,0.9,3.5114,M,-1.3415,M,01,0000*74
$GPRMC,035712.20,A,2234.03519137,N,11431.92524992,E,0.101,12.9,051224,3.4,W,D*1F
$GNVTG,324.450,T,327.879,M,0.12255,N,0.22697,K,D*35
$GNHDT,238.8773,T*19
$GPGGA,035712.40,2234.03519693,N,11431.92524564,E,4,19,0.9,3.5180,M,-1.3415,M,01,0000*73
$GPRMC,035712.40,A,2234.03519693,N,11431.92524564,E,0.123,324.4,051224,3.4,W,D*2E
$GNVTG,168.254,T,171.683,M,0.03547,N,0.06568,K,D*36
$GNHDT,239.2513,T*16
$GPGGA,035712.60,2234.03519499,N,11431.92524607,E,4,19,0.9,3.5040,M,-1.3415,M,00,0000*73
$GPRMC,035712.60,A,2234.03519499,N,11431.92524607,E,0.035,168.3,051224,3.4,W,D*29
$GNVTG,122.292,T,125.722,M,0.05413,N,0.10025,K,D*34
$GNHDT,238.9416,T*18
$GPGGA,035712.80,2234.03519338,N,11431.92524882,E,4,19,0.9,3.5041,M,-1.3415,M,00,0000*73
$GPRMC,035712.80,A,2234.03519338,N,11431.92524882,E,0.054,122.3,051224,3.4,W,D*21
$GNVTG,28.844,T,32.274,M,0.08167,N,0.15125,K,D*30
$GNHDT,238.6626,T*16
$GPGGA,035713.00,2234.03519737,N,11431.92525118,E,4,19,0.9,3.4960,M,-1.3415,M,01,0000*70
$GPRMC,035713.00,A,2234.03519737,N,11431.92525118,E,0.082,28.8,051224,3.4,W,D*13
$GNVTG,209.317,T,212.746,M,0.19787,N,0.36645,K,D*30
$GNHDT,239.2064,T*13
$GPGGA,035713.20,2234.03518775,N,11431.92524537,E,4,19,0.9,3.4768,M,-1.3415,M,01,0000*7B
$GPRMC,035713.20,A,2234.03518775,N,11431.92524537,E,0.198,209.3,051224,3.4,W,D*2E
$GNVTG,329.661,T,333.090,M,0.02734,N,0.05062,K,D*38
$GNHDT,239.1241,T*15
$GPGGA,035713.40,2234.03518906,N,11431.92524454,E,4,19,0.9,3.4729,M,-1.3415,M,01,0000*76
$GPRMC,035713.40,A,2234.03518906,N,11431.92524454,E,0.027,329.7,051224,3.4,W,D*24
$GNVTG,21.190,T,24.620,M,0.01753,N,0.03247,K,D*33
$GNHDT,239.1208,T*18
$GPGGA,035713.60,2234.03518997,N,11431.92524492,E,4,19,0.9,3.4579,M,-1.3415,M,01,0000*71
$GPRMC,035713.60,A,2234.03518997,N,11431.92524492,E,0.018,21.2,051224,3.4,W,D*16
$GNVTG,324.020,T,327.449,M,0.01581,N,0.02928,K,D*3C
$GNHDT,238.9348,T*14
$GPGGA,035713.80,2234.03519069,N,11431.92524436,E,4,19,0.9,3.4595,M,-1.3415,M,00,0000*7B
$GPRMC,035713.80,A,2234.03519069,N,11431.92524436,E,0.016,324.0,051224,3.4,W,D*25
$GNVTG,295.418,T,298.847,M,0.04461,N,0.08261,K,D*39
$GNHDT,238.9967,T*13
$GPGGA,035714.00,2234.03519175,N,11431.92524194,E,4,19,0.9,3.4633,M,-1.3415,M,01,0000*7B
$GPRMC,035714.00,A,2234.03519175,N,11431.92524194,E,0.045,295.4,051224,3.4,W,D*22
$GNVTG,133.878,T,137.308,M,0.05817,N,0.10773,K,D*39
$GNHDT,238.9211,T*19
$GPGGA,035714.20,2234.03518951,N,11431.92524446,E,4,19,0.9,3.4669,M,-1.3415,M,01,0000*73
$GPRMC,035714.20,A,2234.03518951,N,11431.92524446,E,0.058,133.9,051224,3.4,W,D*2B
$GNVTG,305.092,T,308.522,M,0.17625,N,0.32642,K,D*3D
$GNHDT,238.9544,T*1E
$GPGGA,035714.40,2234.03519516,N,11431.92523580,E,4,19,0.9,3.4585,M,-1.3415,M,01,0000*76
$GPRMC,035714.40,A,2234.03519516,N,11431.92523580,E,0.176,305.1,051224,3.4,W,D*2D
$GNVTG,85.120,T,88.550,M,0.06102,N,0.11301,K,D*31
$GNHDT,238.8792,T*16
$GPGGA,035714.60,2234.03519545,N,11431.92523945,E,4,19,0.9,3.4499,M,-1.3415,M,00,0000*7A
$GPRMC,035714.60,A,2234.03519545,N,11431.92523945,E,0.061,85.1,051224,3.4,W,D*10
$GNVTG,267.570,T,271.000,M,0.12166,N,0.22532,K,D*3B
$GNHDT,238.8518,T*16
$GPGGA,035714.80,2234.03519516,N,11431.92523216,E,4,19,0.9,3.4609,M,-1.3415,M,00,0000*74
$GPRMC,035714.80,A,2234.03519516,N,11431.92523216,E,0.122,267.6,051224,3.4,W,D*2A
$GNVTG,17.635,T,21.064,M,0.11210,N,0.20762,K,D*3D
$GNHDT,239.2292,T*18
$GPGGA,035715.00,2234.03520111,N,11431.92523420,E,4,19,0.9,3.4197,M,-1.3415,M,01,0000*76
$GPRMC,035715.00,A,2234.03520111,N,11431.92523420,E,0.112,17.6,051224,3.4,W,D*1F
$GNVTG,204.879,T,208.309,M,0.03358,N,0.06219,K,D*39
$GNHDT,238.9230,T*1A
$GPGGA,035715.20,2234.03519942,N,11431.92523335,E,4,20,0.8,3.4304,M,-1.3415,M,01,0000*70
$GPRMC,035715.20,A,2234.03519942,N,11431.92523335,E,0.034,204.9,051224,3.4,W,D*20
$GNVTG,313.430,T,316.859,M,0.03049,N,0.05647,K,D*30
$GNHDT,238.4332,T*14
$GPGGA,035715.40,2234.03520058,N,11431.92523202,E,4,20,0.8,3.4134,M,-1.3415,M,01,0000*7A
$GPRMC,035715.40,A,2234.03520058,N,11431.92523202,E,0.030,313.4,051224,3.4,W,D*25
$GNVTG,83.903,T,87.333,M,0.03231,N,0.05983,K,D*31
$GNHDT,239.5483,T*19
$GPGGA,035715.60,2234.03520078,N,11431.92523395,E,4,20,0.8,3.4135,M,-1.3415,M,00,0000*75
$GPRMC,035715.60,A,2234.03520078,N,11431.92523395,E,0.032,83.9,051224,3.4,W,D*1F
$GNVTG,318.424,T,321.854,M,0.02015,N,0.03732,K,D*3A
$GNHDT,238.4479,T*1C
$GPGGA,035715.80,2234.03520162,N,11431.92523314,E,4,20,0.8,3.4295,M,-1.3415,M,00,0000*71
$GPRMC,035715.80,A,2234.03520162,N,11431.92523314,E,0.020,318.4,051224,3.4,W,D*2D
$GNVTG,328.720,T,332.150,M,0.00364,N,0.00675,K,D*37
$GNHDT,239.2440,T*11
$GPGGA,035716.00,2234.03520179,N,11431.92523303,E,4,20,0.8,3.4256,M,-1.3415,M,01,0000*78
$GPRMC,035716.00,A,2234.03520179,N,11431.92523303,E,0.004,328.7,051224,3.4,W,D*2C
$GNVTG,15.044,T,18.474,M,0.10237,N,0.18959,K,D*39
$GNHDT,239.1265,T*13
$GPGGA,035716.20,2234.03520730,N,11431.92523463,E,4,20,0.8,3.4334,M,-1.3415,M,01,0000*75
$GPRMC,035716.20,A,2234.03520730,N,11431.92523463,E,0.102,15.0,051224,3.4,W,D*19
$GNVTG,202.616,T,206.046,M,0.02216,N,0.04104,K,D*39
$GNHDT,238.9066,T*1B
$GPGGA,035716.40,2234.03520616,N,11431.92523411,E,4,21,0.8,3.4472,M,-1.3415,M,01,0000*77
$GPRMC,035716.40,A,2234.03520616,N,11431.92523411,E,0.022,202.6,051224,3.4,W,D*2E
$GNVTG,224.707,T,228.136,M,0.01435,N,0.02658,K,D*3A
$GNHDT,238.9953,T*14
$GPGGA,035716.60,2234.03520559,N,11431.92523351,E,4,21,0.8,3.4344,M,-1.3415,M,01,0000*7C
$GPRMC,035716.60,A,2234.03520559,N,11431.92523351,E,0.014,224.7,051224,3.4,W,D*27
$GNVTG,277.319,T,280.749,M,0.06631,N,0.12280,K,D*3A
$GNHDT,238.7247,T*14
$GPGGA,035716.80,2234.03520606,N,11431.92522956,E,4,21,0.8,3.4398,M,-1.3415,M,00,0000*77
$GPRMC,035716.80,A,2234.03520606,N,11431.92522956,E,0.066,277.3,051224,3.4,W,D*2B
$GNVTG,89.577,T,93.007,M,0.03981,N,0.07372,K,D*33
$GNHDT,238.9712,T*1F
$GPGGA,035717.00,2234.03520608,N,11431.92523195,E,4,21,0.8,3.4263,M,-1.3415,M,01,0000*72
$GPRMC,035717.00,A,2234.03520608,N,11431.92523195,E,0.040,89.6,051224,3.4,W,D*18
$GNVTG,218.484,T,221.914,M,0.05445,N,0.10084,K,D*3B
$GNHDT,238.6555,T*11
$GPGGA,035717.20,2234.03520370,N,11431.92522992,E,4,20,0.8,3.4353,M,-1.3415,M,01,0000*77
$GPRMC,035717.20,A,2234.03520370,N,11431.92522992,E,0.054,218.5,051224,3.4,W,D*22
$GNVTG,27.491,T,30.921,M,0.08999,N,0.16665,K,D*3B
$GNHDT,238.9057,T*19
$GPGGA,035717.40,2234.03520815,N,11431.92523241,E,4,20,0.8,3.4460,M,-1.3415,M,01,0000*7A
$GPRMC,035717.40,A,2234.03520815,N,11431.92523241,E,0.090,27.5,051224,3.4,W,D*1E
$GNVTG,328.889,T,332.319,M,0.01883,N,0.03488,K,D*34
$GNHDT,238.6468,T*1E
$GPGGA,035717.60,2234.03520905,N,11431.92523183,E,4,21,0.8,3.4409,M,-1.3415,M,01,0000*7B
$GPRMC,035717.60,A,2234.03520905,N,11431.92523183,E,0.019,328.9,051224,3.4,W,D*20
$GNVTG,61.287,T,64.717,M,0.05803,N,0.10748,K,D*35
$GNHDT,238.7187,T*1B
$GPGGA,035717.80,2234.03521061,N,11431.92523488,E,4,21,0.8,3.4294,M,-1.3415,M,00,0000*72
$GPRMC,035717.80,A,2234.03521061,N,11431.92523488,E,0.058,61.3,051224,3.4,W,D*1B
$GNVTG,316.010,T,319.440,M,0.02024,N,0.03749,K,D*3B
$GNHDT,238.6664,T*10
$GPGGA,035718.00,2234.03521142,N,11431.92523404,E,4,21,0.8,3.4230,M,-1.3415,M,01,0000*7E
$GPRMC,035718.00,A,2234.03521142,N,11431.92523404,E,0.020,316.0,051224,3.4,W,D*27
$GNVTG,61.242,T,64.672,M,0.06171,N,0.11429,K,D*34
$GNHDT,238.7425,T*16
$GPGGA,035718.20,2234.03521307,N,11431.92523728,E,4,21,0.8,3.4259,M,-1.3415,M,01,0000*7D
$GPRMC,035718.20,A,2234.03521307,N,11431.92523728,E,0.062,61.2,051224,3.4,W,D*1C
$GNVTG,318.917,T,322.346,M,0.11416,N,0.21143,K,D*39
$GNHDT,239.0537,T*12
$GPGGA,035718.40,2234.03521787,N,11431.92523278,E,4,21,0.8,3.4378,M,-1.3415,M,01,0000*75
$GPRMC,035718.40,A,2234.03521787,N,11431.92523278,E,0.114,318.9,051224,3.4,W,D*20
$GNVTG,232.960,T,236.389,M,0.01853,N,0.03431,K,D*3B
$GNHDT,239.3127,T*14
$GPGGA,035718.60,2234.03521725,N,11431.92523189,E,4,21,0.8,3.4394,M,-1.3415,M,00,0000*71
$GPRMC,035718.60,A,2234.03521725,N,11431.92523189,E,0.019,233.0,051224,3.4,W,D*2A
$GNVTG,24.969,T,28.399,M,0.08226,N,0.15234,K,D*3E
$GNHDT,238.8347,T*1A
$GPGGA,035718.80,2234.03522140,N,11431.92523398,E,4,21,0.8,3.4259,M,-1.3415,M,00,0000*7B
$GPRMC,035718.80,A,2234.03522140,N,11431.92523398,E,0.082,25.0,051224,3.4,W,D*17
$GNVTG,142.481,T,145.910,M,0.04066,N,0.07530,K,D*3F
$GNHDT,239.3048,T*1C
$GPGGA,035719.00,2234.03521961,N,11431.92523546,E,4,21,0.8,3.4511,M,-1.3415,M,01,0000*75
$GPRMC,035719.00,A,2234.03521961,N,11431.92523546,E,0.041,142.5,051224,3.4,W,D*29
$GNVTG,208.856,T,212.286,M,0.09464,N,0.17527,K,D*3D
$GNHDT,239.0112,T*11
$GPGGA,035719.20,2234.03521499,N,11431.92523272,E,4,21,0.8,3.4481,M,-1.3415,M,01,0000*75
$GPRMC,035719.20,A,2234.03521499,N,11431.92523272,E,0.095,208.9,051224,3.4,W,D*29
$GNVTG,81.208,T,84.638,M,0.13276,N,0.24588,K,D*38
$GNHDT,238.7720,T*10
$GPGGA,035719.40,2234.03521612,N,11431.92524060,E,4,21,0.8,3.4535,M,-1.3415,M,01,0000*7A
$GPRMC,035719.40,A,2234.03521612,N,11431.92524060,E,0.133,81.2,051224,3.4,W,D*1D
$GNVTG,14.728,T,18.158,M,0.05980,N,0.11074,K,D*32
$GNHDT,238.7520,T*12
$GPGGA,035719.60,2234.03521934,N,11431.92524151,E,4,21,0.8,3.4230,M,-1.3415,M,00,0000*73
$GPRMC,035719.60,A,2234.03521934,N,11431.92524151,E,0.060,14.7,051224,3.4,W,D*19
$GNVTG,314.706,T,318.136,M,0.01879,N,0.03479,K,D*3F
$GNHDT,239.0345,T*11
$GPGGA,035719.80,2234.03522008,N,11431.92524071,E,4,20,0.8,3.4290,M,-1.3415,M,00,0000*70
$GPRMC,035719.80,A,2234.03522008,N,11431.92524071,E,0.019,314.7,051224,3.4,W,D*2C
$GNVTG,28.161,T,31.591,M,0.12505,N,0.23160,K,D*3E
$GNHDT,238.4416,T*15
$GPGGA,035720.00,2234.03522622,N,11431.92524425,E,4,20,0.8,3.4052,M,-1.3415,M,01,0000*74
$GPRMC,035720.00,A,2234.03522622,N,11431.92524425,E,0.125,28.2,051224,3.4,W,D*12
$GNVTG,140.075,T,143.505,M,0.02092,N,0.03874,K,D*38
$GNHDT,238.6924,T*1B
$GPGGA,035720.20,2234.03522533,N,11431.92524506,E,4,21,0.8,3.4185,M,-1.3415,M,01,0000*7F
$GPRMC,035720.20,A,2234.03522533,N,11431.92524506,E,0.021,140.1,051224,3.4,W,D*2A
$GNVTG,240.455,T,243.884,M,0.11651,N,0.21577,K,D*3F
$GNHDT,238.7418,T*18
$GPGGA,035720.40,2234.03522213,N,11431.92523897,E,4,21,0.8,3.4361,M,-1.3415,M,01,0000*76
$GPRMC,035720.40,A,2234.03522213,N,11431.92523897,E,0.117,240.5,051224,3.4,W,D*28
$GNVTG,207.973,T,211.403,M,0.07896,N,0.14624,K,D*30
$GNHDT,238.3019,T*19
$GPGGA,035720.60,2234.03521824,N,11431.92523675,E,4,21,0.8,3.4559,M,-1.3415,M,01,0000*76
$GPRMC,035720.60,A,2234.03521824,N,11431.92523675,E,0.079,208.0,051224,3.4,W,D*25
$GNVTG,40.068,T,43.498,M,0.05446,N,0.10086,K,D*3C
$GNHDT,238.2418,T*1D
$GPGGA,035720.80,2234.03522056,N,11431.92523885,E,4,21,0.8,3.4618,M,-1.3415,M,00,0000*70
$GPRMC,035720.80,A,2234.03522056,N,11431.92523885,E,0.054,40.1,051224,3.4,W,D*14
$GNVTG,324.644,T,328.073,M,0.06207,N,0.11495,K,D*3D
$GNHDT,238.8349,T*14
$GPGGA,035721.00,2234.03522338,N,11431.92523670,E,4,21,0.8,3.4607,M,-1.3415,M,01,0000*79
$GPRMC,035721.00,A,2234.03522338,N,11431.92523670,E,0.062,324.6,051224,3.4,W,D*21
$GNVTG,173.441,T,176.870,M,0.09674,N,0.17917,K,D*36
$GNHDT,238.4674,T*13
$GPGGA,035721.20,2234.03521803,N,11431.92523736,E,4,21,0.8,3.4816,M,-1.3415,M,01,0000*76
$GPRMC,035721.20,A,2234.03521803,N,11431.92523736,E,0.097,173.4,051224,3.4,W,D*28
$GNVTG,8.499,T,11.929,M,0.14242,N,0.26376,K,D*01
$GNHDT,238.0188,T*13
$GPGGA,035721.40,2234.03522588,N,11431.92523863,E,4,21,0.8,3.4609,M,-1.3415,M,01,0000*72
$GPRMC,035721.40,A,2234.03522588,N,11431.92523863,E,0.142,8.5,051224,3.4,W,D*29
$GNVTG,150.654,T,154.083,M,0.06244,N,0.11564,K,D*33
$GNHDT,238.4882,T*14
$GPGGA,035721.60,2234.03522285,N,11431.92524046,E,4,21,0.8,3.4468,M,-1.3415,M,00,0000*76
$GPRMC,035721.60,A,2234.03522285,N,11431.92524046,E,0.062,150.7,051224,3.4,W,D*24
$GNVTG,107.989,T,111.419,M,0.07376,N,0.13660,K,D*3C
$GNHDT,238.2010,T*11
$GPGGA,035721.80,2234.03522158,N,11431.92524467,E,4,21,0.7,3.4313,M,-1.3415,M,00,0000*78
$GPRMC,035721.80,A,2234.03522158,N,11431.92524467,E,0.074,108.0,051224,3.4,W,D*23
$GNVTG,53.153,T,56.583,M,0.09405,N,0.17417,K,D*38
$GNHDT,238.2002,T*12
$GPGGA,035722.00,2234.03522472,N,11431.92524919,E,4,21,0.7,3.4063,M,-1.3415,M,01,0000*7F
$GPRMC,035722.00,A,2234.03522472,N,11431.92524919,E,0.094,53.2,051224,3.4,W,D*12
$GNVTG,269.171,T,272.601,M,0.13938,N,0.25813,K,D*3F
$GNHDT,238.3932,T*19
$GPGGA,035722.20,2234.03522461,N,11431.92524083,E,4,21,0.7,3.4221,M,-1.3415,M,01,0000*71
$GPRMC,035722.20,A,2234.03522461,N,11431.92524083,E,0.139,269.2,051224,3.4,W,D*25
$GNVTG,236.337,T,239.767,M,0.02277,N,0.04217,K,D*36
$GNHDT,238.2461,T*13
$GPGGA,035722.40,2234.03522390,N,11431.92523969,E,4,21,0.7,3.4262,M,-1.3415,M,01,0000*73
$GPRMC,035722.40,A,2234.03522390,N,11431.92523969,E,0.023,236.3,051224,3.4,W,D*21
$GNVTG,69.968,T,73.398,M,0.03722,N,0.06892,K,D*37
$GNHDT,237.8046,T*17
$GPGGA,035722.60,2234.03522461,N,11431.92524179,E,4,21,0.7,3.4267,M,-1.3415,M,01,0000*73
$GPRMC,035722.60,A,2234.03522461,N,11431.92524179,E,0.037,70.0,051224,3.4,W,D*12
$GNVTG,280.476,T,283.905,M,0.01681,N,0.03113,K,D*3C
$GNHDT,238.2026,T*14
$GPGGA,035722.80,2234.03522478,N,11431.92524079,E,4,21,0.7,3.4284,M,-1.3415,M,00,0000*78
$GPRMC,035722.80,A,2234.03522478,N,11431.92524079,E,0.017,280.5,051224,3.4,W,D*2F
$GNVTG,118.387,T,121.816,M,0.05840,N,0.10815,K,D*35
$GNHDT,238.0154,T*12
$GPGGA,035723.00,2234.03522324,N,11431.92524388,E,4,20,0.8,3.4202,M,-1.3415,M,01,0000*73
$GPRMC,035723.00,A,2234.03522324,N,11431.92524388,E,0.058,118.4,051224,3.4,W,D*2D
$GNVTG,283.275,T,286.705,M,0.09086,N,0.16827,K,D*32
$GNHDT,238.4505,T*16
$GPGGA,035723.20,2234.03522440,N,11431.92523857,E,4,20,0.8,3.4388,M,-1.3415,M,01,0000*79
$GPRMC,035723.20,A,2234.03522440,N,11431.92523857,E,0.091,283.3,051224,3.4,W,D*27
$GNVTG,311.665,T,315.095,M,0.08020,N,0.14852,K,D*35
$GNHDT,237.4967,T*11
$GPGGA,035723.40,2234.03522737,N,11431.92523497,E,4,20,0.8,3.4604,M,-1.3415,M,01,0000*7D
$GPRMC,035723.40,A,2234.03522737,N,11431.92523497,E,0.080,311.7,051224,3.4,W,D*2C
$GNVTG,107.988,T,111.417,M,0.04926,N,0.09123,K,D*34
$GNHDT,237.4651,T*1B
$GPGGA,035723.60,2234.03522652,N,11431.92523779,E,4,21,0.7,3.4410,M,-1.3415,M,01,0000*77
$GPRMC,035723.60,A,2234.03522652,N,11431.92523779,E,0.049,108.0,051224,3.4,W,D*27
$GNVTG,169.972,T,173.402,M,0.09015,N,0.16696,K,D*3A
$GNHDT,238.0856,T*19
$GPGGA,035723.80,2234.03522158,N,11431.92523873,E,4,20,0.8,3.4515,M,-1.3415,M,00,0000*7A
$GPRMC,035723.80,A,2234.03522158,N,11431.92523873,E,0.090,170.0,051224,3.4,W,D*2A
$GNVTG,300.786,T,304.216,M,0.07527,N,0.13941,K,D*39
$GNHDT,237.2758,T*15
$GPGGA,035724.00,2234.03522372,N,11431.92523485,E,4,20,0.8,3.4552,M,-1.3415,M,01,0000*78
$GPRMC,035724.00,A,2234.03522372,N,11431.92523485,E,0.075,300.8,051224,3.4,W,D*2C
$GNVTG,105.633,T,109.062,M,0.04350,N,0.08056,K,D*3F
$GNHDT,237.7350,T*1C
$GPGGA,035724.20,2234.03522307,N,11431.92523736,E,4,21,0.8,3.4414,M,-1.3415,M,01,0000*71
$GPRMC,035724.20,A,2234.03522307,N,11431.92523736,E,0.043,105.6,051224,3.4,W,D*2B
$GNVTG,131.333,T,134.763,M,0.10671,N,0.19762,K,D*36
$GNHDT,237.9299,T*16
$GPGGA,035724.40,2234.03521914,N,11431.92524217,E,4,21,0.8,3.4212,M,-1.3415,M,01,0000*7D
$GPRMC,035724.40,A,2234.03521914,N,11431.92524217,E,0.107,131.3,051224,3.4,W,D*24
$GNVTG,341.316,T,344.746,M,0.03992,N,0.07392,K,D*32
$GNHDT,237.9205,T*13
$GPGGA,035724.60,2234.03522125,N,11431.92524140,E,4,21,0.8,3.4226,M,-1.3415,M,00,0000*71
$GPRMC,035724.60,A,2234.03522125,N,11431.92524140,E,0.040,341.3,051224,3.4,W,D*29
$GNVTG,58.792,T,62.222,M,0.03956,N,0.07327,K,D*37
$GNHDT,237.9353,T*11
$GPGGA,035724.80,2234.03522239,N,11431.92524343,E,4,21,0.8,3.4096,M,-1.3415,M,00,0000*79
$GPRMC,035724.80,A,2234.03522239,N,11431.92524343,E,0.040,58.8,051224,3.4,W,D*18
$GNVTG,240.062,T,243.491,M,0.02382,N,0.04411,K,D*38
$GNHDT,237.8551,T*14
$GPGGA,035725.00,2234.03522173,N,11431.92524220,E,4,21,0.8,3.4061,M,-1.3415,M,01,0000*70
$GPRMC,035725.00,A,2234.03522173,N,11431.92524220,E,0.024,240.1,051224,3.4,W,D*28
$GNVTG,304.683,T,308.113,M,0.12442,N,0.23043,K,D*3D
$GNHDT,237.6771,T*1A
$GPGGA,035725.20,2234.03522568,N,11431.92523605,E,4,21,0.8,3.4290,M,-1.3415,M,01,0000*74
$GPRMC,035725.20,A,2234.03522568,N,11431.92523605,E,0.124,304.7,051224,3.4,W,D*26
$GNVTG,257.747,T,261.176,M,0.02434,N,0.04507,K,D*3E
$GNHDT,237.3786,T*17
$GPGGA,035725.40,2234.03522539,N,11431.92523463,E,4,21,0.8,3.4181,M,-1.3415,M,01,0000*77
$GPRMC,035725.40,A,2234.03522539,N,11431.92523463,E,0.024,257.7,051224,3.4,W,D*20
$GNVTG,307.703,T,311.133,M,0.06612,N,0.12246,K,D*3A
$GNHDT,237.2084,T*13
$GPGGA,035725.60,2234.03522764,N,11431.92523149,E,4,21,0.8,3.4301,M,-1.3415,M,00,0000*79
$GPRMC,035725.60,A,2234.03522764,N,11431.92523149,E,0.066,307.7,051224,3.4,W,D*27
$GNVTG,177.820,T,181.250,M,0.03074,N,0.05694,K,D*32
$GNHDT,237.7108,T*13
$GPGGA,035725.80,2234.03522593,N,11431.92523156,E,4,21,0.8,3.4201,M,-1.3415,M,00,0000*72
$GPRMC,035725.80,A,2234.03522593,N,11431.92523156,E,0.031,177.8,051224,3.4,W,D*25
$GNVTG,318.482,T,321.912,M,0.01562,N,0.02893,K,D*36
$GNHDT,238.0531,T*15
$GPGGA,035726.00,2234.03522658,N,11431.92523094,E,4,21,0.8,3.4335,M,-1.3415,M,01,0000*75
$GPRMC,035726.00,A,2234.03522658,N,11431.92523094,E,0.016,318.5,051224,3.4,W,D*26
$GNVTG,35.038,T,38.467,M,0.06448,N,0.11942,K,D*3A
$GNHDT,237.4298,T*1A
$GPGGA,035726.20,2234.03522952,N,11431.92523316,E,4,21,0.8,3.4143,M,-1.3415,M,01,0000*78
$GPRMC,035726.20,A,2234.03522952,N,11431.92523316,E,0.064,35.0,051224,3.4,W,D*14
$GNVTG,212.423,T,215.852,M,0.04866,N,0.09013,K,D*32
$GNHDT,237.5867,T*11
$GPGGA,035726.40,2234.03522723,N,11431.92523159,E,4,21,0.8,3.4156,M,-1.3415,M,01,0000*7B
$GPRMC,035726.40,A,2234.03522723,N,11431.92523159,E,0.049,212.4,051224,3.4,W,D*2F
$GNVTG,341.384,T,344.814,M,0.01371,N,0.02540,K,D*38
$GNHDT,237.4513,T*1E
$GPGGA,035726.60,2234.03522796,N,11431.92523133,E,4,21,0.8,3.4181,M,-1.3415,M,00,0000*70
$GPRMC,035726.60,A,2234.03522796,N,11431.92523133,E,0.014,341.4,051224,3.4,W,D*20
$GNVTG,103.857,T,107.287,M,0.06723,N,0.12451,K,D*38
$GNHDT,237.7888,T*12
$GPGGA,035726.80,2234.03522706,N,11431.92523525,E,4,21,0.8,3.4153,M,-1.3415,M,00,0000*7B
$GPRMC,035726.80,A,2234.03522706,N,11431.92523525,E,0.067,103.9,051224,3.4,W,D*29
$GNVTG,179.538,T,182.967,M,0.06737,N,0.12477,K,D*38
$GNHDT,238.5313,T*16
$GPGGA,035727.00,2234.03522331,N,11431.92523528,E,4,21,0.8,3.4377,M,-1.3415,M,01,0000*7A
$GPRMC,035727.00,A,2234.03522331,N,11431.92523528,E,0.067,179.5,051224,3.4,W,D*2C
$GNVTG,309.373,T,312.802,M,0.20547,N,0.38053,K,D*36
$GNHDT,238.2693,T*1C
$GPGGA,035727.20,2234.03523057,N,11431.92522575,E,4,20,0.8,3.4274,M,-1.3415,M,01,0000*70
$GPRMC,035727.20,A,2234.03523057,N,11431.92522575,E,0.205,309.4,051224,3.4,W,D*27
$GNVTG,64.235,T,67.665,M,0.05913,N,0.10952,K,D*3B
$GNHDT,238.1973,T*1E
$GPGGA,035727.40,2234.03523201,N,11431.92522894,E,4,20,0.8,3.4287,M,-1.3415,M,01,0000*79
$GPRMC,035727.40,A,2234.03523201,N,11431.92522894,E,0.059,64.2,051224,3.4,W,D*17
$GNVTG,53.530,T,56.959,M,0.09050,N,0.16761,K,D*35
$GNHDT,238.1873,T*1F
$GPGGA,035727.60,2234.03523500,N,11431.92523331,E,4,20,0.8,3.4265,M,-1.3415,M,00,0000*75
$GPRMC,035727.60,A,2234.03523500,N,11431.92523331,E,0.090,53.5,051224,3.4,W,D*10
$GNVTG,260.614,T,264.044,M,0.04034,N,0.07471,K,D*39
$GNHDT,238.2265,T*11
$GPGGA,035727.80,2234.03523464,N,11431.92523092,E,4,22,0.7,3.4286,M,-1.3415,M,00,0000*72
$GPRMC,035727.80,A,2234.03523464,N,11431.92523092,E,0.040,260.6,051224,3.4,W,D*2B
$GNVTG,39.405,T,42.835,M,0.03046,N,0.05641,K,D*3C
$GNHDT,238.3244,T*13
$GPGGA,035728.00,2234.03523595,N,11431.92523208,E,4,21,0.8,3.4069,M,-1.3415,M,01,0000*75
$GPRMC,035728.00,A,2234.03523595,N,11431.92523208,E,0.030,39.4,051224,3.4,W,D*19
$GNVTG,182.858,T,186.287,M,0.10825,N,0.20049,K,D*35
$GNHDT,238.2931,T*1B
$GPGGA,035728.20,2234.03522992,N,11431.92523176,E,4,21,0.8,3.4442,M,-1.3415,M,01,0000*7A
$GPRMC,035728.20,A,2234.03522992,N,11431.92523176,E,0.108,182.9,051224,3.4,W,D*2D
$GNVTG,293.211,T,296.641,M,0.01997,N,0.03698,K,D*3E
$GNHDT,238.1176,T*13
$GPGGA,035728.40,2234.03523036,N,11431.92523066,E,4,21,0.8,3.4417,M,-1.3415,M,01,0000*7A
$GPRMC,035728.40,A,2234.03523036,N,11431.92523066,E,0.020,293.2,051224,3.4,W,D*2E
$GNVTG,134.073,T,137.503,M,0.02671,N,0.04946,K,D*34
$GNHDT,238.2241,T*17
$GPGGA,035728.60,2234.03522933,N,11431.92523181,E,4,21,0.8,3.4388,M,-1.3415,M,00,0000*7D
$GPRMC,035728.60,A,2234.03522933,N,11431.92523181,E,0.027,134.1,051224,3.4,W,D*23
$GNVTG,63.205,T,66.634,M,0.07228,N,0.13385,K,D*38
$GNHDT,238.0108,T*1B
$GPGGA,035728.80,2234.03523114,N,11431.92523568,E,4,21,0.8,3.4440,M,-1.3415,M,00,0000*7F
$GPRMC,035728.80,A,2234.03523114,N,11431.92523568,E,0.072,63.2,051224,3.4,W,D*12
$GNVTG,106.545,T,109.974,M,0.06715,N,0.12436,K,D*3E
$GNHDT,238.5277,T*15
$GPGGA,035729.00,2234.03523008,N,11431.92523954,E,4,21,0.8,3.4294,M,-1.3415,M,01,0000*77
$GPRMC,035729.00,A,2234.03523008,N,11431.92523954,E,0.067,106.5,051224,3.4,W,D*25
$GNVTG,120.773,T,124.203,M,0.02511,N,0.04651,K,D*3F
$GNHDT,237.7574,T*1C
$GPGGA,035729.20,2234.03522936,N,11431.92524084,E,4,21,0.8,3.4273,M,-1.3415,M,01,0000*7A
$GPRMC,035729.20,A,2234.03522936,N,11431.92524084,E,0.025,120.8,051224,3.4,W,D*2E
$GNVTG,239.855,T,243.285,M,0.08986,N,0.16643,K,D*3B
$GNHDT,238.6035,T*12
$GPGGA,035729.40,2234.03522684,N,11431.92523618,E,4,21,0.8,3.4383,M,-1.3415,M,01,0000*70
$GPRMC,035729.40,A,2234.03522684,N,11431.92523618,E,0.090,239.9,051224,3.4,W,D*2E
$GNVTG,39.347,T,42.777,M,0.02575,N,0.04768,K,D*3B
$GNHDT,238.2464,T*16
$GPGGA,035729.60,2234.03522795,N,11431.92523715,E,4,20,0.8,3.4230,M,-1.3415,M,01,0000*77
$GPRMC,035729.60,A,2234.03522795,N,11431.92523715,E,0.026,39.3,051224,3.4,W,D*14
$GNVTG,107.755,T,111.184,M,0.10712,N,0.19839,K,D*3A
$GNHDT,238.2170,T*16
$GPGGA,035729.80,2234.03522613,N,11431.92524328,E,4,20,0.8,3.4337,M,-1.3415,M,00,0000*7C
$GPRMC,035729.80,A,2234.03522613,N,11431.92524328,E,0.107,107.8,051224,3.4,W,D*2D
$GNVTG,176.722,T,180.152,M,0.01401,N,0.02594,K,D*3E
$GNHDT,238.6462,T*14
$GPGGA,035730.00,2234.03522535,N,11431.92524333,E,4,20,0.8,3.4355,M,-1.3415,M,01,0000*74
$GPRMC,035730.00,A,2234.03522535,N,11431.92524333,E,0.014,176.7,051224,3.4,W,D*2A
$GNVTG,131.072,T,134.502,M,0.05313,N,0.09840,K,D*3E
$GNHDT,238.1361,T*17
$GPGGA,035730.20,2234.03522341,N,11431.92524573,E,4,20,0.8,3.4334,M,-1.3415,M,01,0000*76
$GPRMC,035730.20,A,2234.03522341,N,11431.92524573,E,0.053,131.1,051224,3.4,W,D*29
$GNVTG,44.307,T,47.737,M,0.03216,N,0.05955,K,D*36
$GNHDT,238.2157,T*13
$GPGGA,035730.40,2234.03522469,N,11431.92524708,E,4,20,0.8,3.4287,M,-1.3415,M,01,0000*7A
$GPRMC,035730.40,A,2234.03522469,N,11431.92524708,E,0.032,44.3,051224,3.4,W,D*1A
$GNVTG,136.384,T,139.814,M,0.04594,N,0.08508,K,D*3C
$GNHDT,238.1597,T*18
$GPGGA,035730.60,2234.03522284,N,11431.92524898,E,4,20,0.8,3.4394,M,-1.3415,M,00,0000*79
$GPRMC,035730.60,A,2234.03522284,N,11431.92524898,E,0.046,136.4,051224,3.4,W,D*2B
$GNVTG,227.019,T,230.449,M,0.06248,N,0.11571,K,D*34
$GNHDT,238.2000,T*10
$GPGGA,035730.80,2234.03522046,N,11431.92524624,E,4,21,0.8,3.4358,M,-1.3415,M,00,0000*73
$GPRMC,035730.80,A,2234.03522046,N,11431.92524624,E,0.062,227.0,051224,3.4,W,D*21
$GNVTG,57.105,T,60.535,M,0.06089,N,0.11277,K,D*3E
$GNHDT,237.7707,T*1A
$GPGGA,035731.00,2234.03522230,N,11431.92524931,E,4,21,0.8,3.4304,M,-1.3415,M,01,0000*7A
$GPRMC,035731.00,A,2234.03522230,N,11431.92524931,E,0.061,57.1,051224,3.4,W,D*17
$GNVTG,216.549,T,219.979,M,0.18200,N,0.33707,K,D*33
$GNHDT,237.7554,T*1E
$GPGGA,035731.20,2234.03521415,N,11431.92524280,E,4,20,0.8,3.4480,M,-1.3415,M,01,0000*71
$GPRMC,035731.20,A,2234.03521415,N,11431.92524280,E,0.182,216.5,051224,3.4,W,D*29
$GNVTG,134.696,T,138.126,M,0.11764,N,0.21787,K,D*36
$GNHDT,238.2821,T*1B
$GPGGA,035731.40,2234.03520954,N,11431.92524782,E,4,20,0.8,3.4645,M,-1.3415,M,01,0000*72
$GPRMC,035731.40,A,2234.03520954,N,11431.92524782,E,0.118,134.7,051224,3.4,W,D*23
$GNVTG,19.730,T,23.159,M,0.06820,N,0.12630,K,D*32
$GNHDT,238.2072,T*15
$GPGGA,035731.60,2234.03521312,N,11431.92524920,E,4,20,0.8,3.4506,M,-1.3415,M,00,0000*7A
$GPRMC,035731.60,A,2234.03521312,N,11431.92524920,E,0.068,19.7,051224,3.4,W,D*16
$GNVTG,233.252,T,236.681,M,0.12519,N,0.23185,K,D*34
$GNHDT,237.8895,T*11
$GPGGA,035731.80,2234.03520894,N,11431.92524318,E,4,20,0.8,3.4485,M,-1.3415,M,00,0000*7B
$GPRMC,035731.80,A,2234.03520894,N,11431.92524318,E,0.125,233.3,051224,3.4,W,D*2B
$GNVTG,125.023,T,128.453,M,0.13424,N,0.24862,K,D*3C
$GNHDT,238.5482,T*19
$GPGGA,035732.00,2234.03520465,N,11431.92524978,E,4,20,0.8,3.4463,M,-1.3415,M,01,0000*77
$GPRMC,035732.00,A,2234.03520465,N,11431.92524978,E,0.134,125.0,051224,3.4,W,D*29
$GNVTG,331.631,T,335.061,M,0.04995,N,0.09251,K,D*31
$GNHDT,238.1597,T*18
$GPGGA,035732.20,2234.03520710,N,11431.92524836,E,4,20,0.8,3.4491,M,-1.3415,M,01,0000*72
$GPRMC,035732.20,A,2234.03520710,N,11431.92524836,E,0.050,331.6,051224,3.4,W,D*23
$GNVTG,268.629,T,272.058,M,0.15658,N,0.28998,K,D*3E
$GNHDT,237.9962,T*19
$GPGGA,035732.40,2234.03520689,N,11431.92523896,E,4,20,0.8,3.4351,M,-1.3415,M,01,0000*73
$GPRMC,035732.40,A,2234.03520689,N,11431.92523896,E,0.157,268.6,051224,3.4,W,D*22
$GNVTG,95.087,T,98.516,M,0.05467,N,0.10126,K,D*3C
$GNHDT,238.0219,T*18
$GPGGA,035732.60,2234.03520662,N,11431.92524223,E,4,16,0.9,3.4688,M,-1.3415,M,01,0000*72
$GPRMC,035732.60,A,2234.03520662,N,11431.92524223,E,0.055,95.1,051224,3.4,W,D*12
$GNVTG,75.003,T,78.433,M,0.02627,N,0.04866,K,D*3F
$GNHDT,237.9984,T*11
$GPGGA,035732.80,2234.03520700,N,11431.92524375,E,4,17,0.9,3.4339,M,-1.3415,M,00,0000*74
$GPRMC,035732.80,A,2234.03520700,N,11431.92524375,E,0.026,75.0,051224,3.4,W,D*10
$GNVTG,249.947,T,253.377,M,0.07517,N,0.13921,K,D*36
$GNHDT,238.2132,T*10
$GPGGA,035733.00,2234.03520556,N,11431.92523951,E,4,17,0.9,3.4704,M,-1.3415,M,01,0000*7C
$GPRMC,035733.00,A,2234.03520556,N,11431.92523951,E,0.075,249.9,051224,3.4,W,D*21
$GNVTG,224.204,T,227.633,M,0.25026,N,0.46348,K,D*35
$BDHDT,239.0776,T*1A
$GPGGA,035733.20,2234.03519556,N,11431.92522904,E,4,17,0.9,3.4628,M,-1.3415,M,01,0000*7A
$GPRMC,035733.20,A,2234.03519556,N,11431.92522904,E,0.250,224.2,051224,3.4,W,D*2D
$GNVTG,255.356,T,258.785,M,0.07163,N,0.13267,K,D*3D
$BDHDT,237.6063,T*11
$GPGGA,035733.40,2234.03519455,N,11431.92522488,E,4,18,0.9,3.4450,M,-1.3415,M,01,0000*75
$GPRMC,035733.40,A,2234.03519455,N,11431.92522488,E,0.072,255.4,051224,3.4,W,D*22
$GNVTG,66.826,T,70.256,M,0.12457,N,0.23070,K,D*31
$BDHDT,238.0732,T*1B
$GPGGA,035733.60,2234.03519728,N,11431.92523175,E,4,17,1.0,3.4517,M,-1.3415,M,00,0000*7C
$GPRMC,035733.60,A,2234.03519728,N,11431.92523175,E,0.125,66.8,051224,3.4,W,D*12
$GNVTG,233.917,T,237.347,M,0.17184,N,0.31825,K,D*35
$BDHDT,237.5488,T*13
$GPGGA,035733.80,2234.03519164,N,11431.92522342,E,4,17,1.0,3.4458,M,-1.3415,M,00,0000*71
$GPRMC,035733.80,A,2234.03519164,N,11431.92522342,E,0.172,233.9,051224,3.4,W,D*24
$GNVTG,93.730,T,97.160,M,0.07126,N,0.13197,K,D*30
$BDHDT,238.1836,T*11
$GPGGA,035734.00,2234.03519138,N,11431.92522769,E,4,17,1.0,3.4235,M,-1.3415,M,01,0000*76
$GPRMC,035734.00,A,2234.03519138,N,11431.92522769,E,0.071,93.7,051224,3.4,W,D*1B
$GNVTG,36.282,T,39.712,M,0.18545,N,0.34345,K,D*33
$BDHDT,238.4149,T*15
$GPGGA,035734.20,2234.03519972,N,11431.92523427,E,4,18,0.9,3.4200,M,-1.3415,M,01,0000*7B
$GPRMC,035734.20,A,2234.03519972,N,11431.92523427,E,0.185,36.3,051224,3.4,W,D*16
$GNVTG,248.199,T,251.629,M,0.00490,N,0.00907,K,D*3F
$GNHDT,237.4685,T*12
$GPGGA,035734.40,2234.03519962,N,11431.92523400,E,4,19,0.9,3.4143,M,-1.3415,M,01,0000*7C
$GPRMC,035734.40,A,2234.03519962,N,11431.92523400,E,0.005,248.2,051224,3.4,W,D*27
$GNVTG,311.646,T,315.076,M,0.03824,N,0.07081,K,D*3A
$GNHDT,237.4149,T*15
$GPGGA,035734.60,2234.03520103,N,11431.92523229,E,4,19,0.9,3.4330,M,-1.3415,M,01,0000*70
$GPRMC,035734.60,A,2234.03520103,N,11431.92523229,E,0.038,311.6,051224,3.4,W,D*2A
$GNVTG,60.832,T,64.262,M,0.00992,N,0.01837,K,D*3C
$GNHDT,237.6887,T*1C
$GPGGA,035734.80,2234.03520130,N,11431.92523281,E,4,19,0.9,3.4146,M,-1.3415,M,01,0000*7F
$GPRMC,035734.80,A,2234.03520130,N,11431.92523281,E,0.010,60.8,051224,3.4,W,D*17
$GNVTG,238.026,T,241.456,M,0.07584,N,0.14046,K,D*3C
$GNHDT,237.5154,T*18
$GPGGA,035735.00,2234.03519906,N,11431.92522894,E,4,19,0.9,3.4308,M,-1.3415,M,02,0000*75
$GPRMC,035735.00,A,2234.03519906,N,11431.92522894,E,0.076,238.0,051224,3.4,W,D*21
$GNVTG,53.808,T,57.237,M,0.03208,N,0.05942,K,D*39
$GNHDT,237.3633,T*18
$GPGGA,035735.20,2234.03520012,N,11431.92523050,E,4,19,0.9,3.4090,M,-1.3415,M,02,0000*72
$GPRMC,035735.20,A,2234.03520012,N,11431.92523050,E,0.032,53.8,051224,3.4,W,D*13
$GNVTG,327.173,T,330.603,M,0.09439,N,0.17481,K,D*32
$GNHDT,237.2567,T*1B
$GPGGA,035735.40,2234.03520454,N,11431.92522743,E,4,19,0.9,3.4062,M,-1.3415,M,02,0000*7B
$GPRMC,035735.40,A,2234.03520454,N,11431.92522743,E,0.094,327.2,051224,3.4,W,D*21
$GNVTG,262.569,T,265.998,M,0.00797,N,0.01476,K,D*30
$GNHDT,237.6726,T*18
$GPGGA,035735.60,2234.03520448,N,11431.92522695,E,4,19,0.9,3.3850,M,-1.3415,M,00,0000*72
$GPRMC,035735.60,A,2234.03520448,N,11431.92522695,E,0.008,262.6,051224,3.4,W,D*25
$GNVTG,308.318,T,311.748,M,0.05306,N,0.09827,K,D*35
$GNHDT,237.4125,T*1F
$GPGGA,035735.80,2234.03520632,N,11431.92522445,E,4,19,0.9,3.4033,M,-1.3415,M,00,0000*76
$GPRMC,035735.80,A,2234.03520632,N,11431.92522445,E,0.053,308.3,051224,3.4,W,D*2D
$GNVTG,313.388,T,316.818,M,0.06731,N,0.12465,K,D*38
$GNHDT,237.1563,T*1C
$GPGGA,035736.00,2234.03520889,N,11431.92522152,E,4,19,0.9,3.3964,M,-1.3415,M,01,0000*7D
$GPRMC,035736.00,A,2234.03520889,N,11431.92522152,E,0.067,313.4,051224,3.4,W,D*21
$GNVTG,192.273,T,195.703,M,0.08697,N,0.16107,K,D*3C
$GNHDT,237.4296,T*14
$GPGGA,035736.20,2234.03520416,N,11431.92522041,E,4,19,0.9,3.4461,M,-1.3415,M,01,0000*79
$GPRMC,035736.20,A,2234.03520416,N,11431.92522041,E,0.087,192.3,051224,3.4,W,D*28
$GNVTG,22.793,T,26.223,M,0.05868,N,0.10867,K,D*39
$GNHDT,237.1990,T*1C
$GPGGA,035736.40,2234.03520717,N,11431.92522177,E,4,19,0.9,3.4511,M,-1.3415,M,01,0000*7F
$GPRMC,035736.40,A,2234.03520717,N,11431.92522177,E,0.059,22.8,051224,3.4,W,D*1A
$GNVTG,221.285,T,224.715,M,0.06601,N,0.12225,K,D*36
$GNHDT,237.5501,T*1C
$GPGGA,035736.60,2234.03520441,N,11431.92521916,E,4,19,0.9,3.4445,M,-1.3415,M,00,0000*70
$GPRMC,035736.60,A,2234.03520441,N,11431.92521916,E,0.066,221.3,051224,3.4,W,D*22
$GNVTG,31.361,T,34.791,M,0.09917,N,0.18367,K,D*3B
$GNHDT,237.1656,T*19
$GPGGA,035736.80,2234.03520913,N,11431.92522226,E,4,19,0.9,3.4260,M,-1.3415,M,00,0000*7E
$GPRMC,035736.80,A,2234.03520913,N,11431.92522226,E,0.099,31.4,051224,3.4,W,D*19
$GNVTG,308.134,T,311.564,M,0.08245,N,0.15270,K,D*3B
$GNHDT,236.9784,T*1E
$GPGGA,035737.00,2234.03521197,N,11431.92521836,E,4,20,0.8,3.4103,M,-1.3415,M,01,0000*76
$GPRMC,035737.00,A,2234.03521197,N,11431.92521836,E,0.082,308.1,051224,3.4,W,D*2B
$GNVTG,252.809,T,256.239,M,0.11560,N,0.21410,K,D*30
$GNHDT,236.7772,T*19
$GPGGA,035737.20,2234.03521006,N,11431.92521173,E,4,20,0.8,3.4166,M,-1.3415,M,01,0000*76
$GPRMC,035737.20,A,2234.03521006,N,11431.92521173,E,0.116,252.8,051224,3.4,W,D*23
$GNVTG,73.818,T,77.247,M,0.10837,N,0.20070,K,D*34
$GNHDT,236.9863,T*18
$GPGGA,035737.40,2234.03521175,N,11431.92521798,E,4,20,0.8,3.4350,M,-1.3415,M,01,0000*71
$GPRMC,035737.40,A,2234.03521175,N,11431.92521798,E,0.108,73.8,051224,3.4,W,D*1D
$GNVTG,176.700,T,180.129,M,0.09419,N,0.17444,K,D*3B
$GNHDT,237.7090,T*13
$GPGGA,035737.60,2234.03520650,N,11431.92521831,E,4,20,0.8,3.4416,M,-1.3415,M,01,0000*7B
$GPRMC,035737.60,A,2234.03520650,N,11431.92521831,E,0.094,176.7,051224,3.4,W,D*2D
$GNVTG,311.564,T,314.993,M,0.09680,N,0.17928,K,D*3B
$GNHDT,236.4868,T*1E
$GPGGA,035737.80,2234.03521008,N,11431.92521396,E,4,20,0.8,3.4584,M,-1.3415,M,00,0000*72
$GPRMC,035737.80,A,2234.03521008,N,11431.92521396,E,0.097,311.6,051224,3.4,W,D*2E
$GNVTG,122.237,T,125.666,M,0.16276,N,0.30143,K,D*3E
$GNHDT,237.3219,T*14
$GPGGA,035738.00,2234.03520524,N,11431.92522222,E,4,20,0.8,3.4605,M,-1.3415,M,01,0000*79
$GPRMC,035738.00,A,2234.03520524,N,11431.92522222,E,0.163,122.2,051224,3.4,W,D*22
$GNVTG,249.580,T,253.009,M,0.03745,N,0.06935,K,D*3B
$GNHDT,236.8906,T*1B
$GPGGA,035738.20,2234.03520452,N,11431.92522012,E,4,20,0.8,3.4544,M,-1.3415,M,01,0000*7C
$GPRMC,035738.20,A,2234.03520452,N,11431.92522012,E,0.037,249.6,051224,3.4,W,D*2B
$GNVTG,115.586,T,119.015,M,0.05141,N,0.09521,K,D*35
$GNHDT,236.9139,T*1E
$GPGGA,035738.40,2234.03520328,N,11431.92522290,E,4,20,0.8,3.4576,M,-1.3415,M,01,0000*79
$GPRMC,035738.40,A,2234.03520328,N,11431.92522290,E,0.051,115.6,051224,3.4,W,D*25
$GNVTG,67.051,T,70.481,M,0.09338,N,0.17295,K,D*3E
$GNHDT,237.1916,T*12
$GPGGA,035738.60,2234.03520531,N,11431.92522806,E,4,20,0.8,3.4274,M,-1.3415,M,01,0000*75
$GPRMC,035738.60,A,2234.03520531,N,11431.92522806,E,0.093,67.1,051224,3.4,W,D*11
$GNVTG,222.467,T,225.897,M,0.07276,N,0.13475,K,D*3C
$GNHDT,236.9750,T*17
$GPGGA,035738.80,2234.03520232,N,11431.92522511,E,4,20,0.8,3.4155,M,-1.3415,M,00,0000*75
$GPRMC,035738.80,A,2234.03520232,N,11431.92522511,E,0.073,222.5,051224,3.4,W,D*29
$GNVTG,79.580,T,83.010,M,0.02284,N,0.04230,K,D*38
$GNHDT,237.1109,T*14
$GPGGA,035739.00,2234.03520255,N,11431.92522646,E,4,20,0.8,3.4043,M,-1.3415,M,01,0000*7B
$GPRMC,035739.00,A,2234.03520255,N,11431.92522646,E,0.023,79.6,051224,3.4,W,D*1A
$GNVTG,96.939,T,100.369,M,0.07296,N,0.13511,K,D*04
$GNHDT,237.3215,T*18
$GPGGA,035739.20,2234.03520205,N,11431.92523081,E,4,20,0.8,3.4125,M,-1.3415,M,01,0000*71
$GPRMC,035739.20,A,2234.03520205,N,11431.92523081,E,0.073,96.9,051224,3.4,W,D*1A
$GNVTG,206.429,T,209.858,M,0.12999,N,0.24074,K,D*32
$GNHDT,237.1568,T*17
$GPGGA,035739.40,2234.03519557,N,11431.92522733,E,4,20,0.8,3.4592,M,-1.3415,M,01,0000*7A
$GPRMC,035739.40,A,2234.03519557,N,11431.92522733,E,0.130,206.4,051224,3.4,W,D*29
$GNVTG,125.812,T,129.241,M,0.09173,N,0.16987,K,D*35
$GNHDT,237.7360,T*1F
$GPGGA,035739.60,2234.03519257,N,11431.92523180,E,4,20,0.8,3.4376,M,-1.3415,M,01,0000*7C
$GPRMC,035739.60,A,2234.03519257,N,11431.92523180,E,0.092,125.8,051224,3.4,W,D*24
$GNVTG,248.728,T,252.158,M,0.05370,N,0.09946,K,D*31
$GNHDT,237.6217,T*1F
$GPGGA,035739.80,2234.03519149,N,11431.92522880,E,4,21,0.8,3.4456,M,-1.3415,M,00,0000*73
$GPRMC,035739.80,A,2234.03519149,N,11431.92522880,E,0.054,248.7,051224,3.4,W,D*23
$GNVTG,277.585,T,281.014,M,0.03978,N,0.07367,K,D*3C
$GNHDT,237.2195,T*12
$GPGGA,035740.00,2234.03519178,N,11431.92522643,E,4,20,0.8,3.4580,M,-1.3415,M,01,0000*7C
$GPRMC,035740.00,A,2234.03519178,N,11431.92522643,E,0.040,277.6,051224,3.4,W,D*2E
$GNVTG,14.020,T,17.450,M,0.08820,N,0.16335,K,D*38
$GNHDT,236.8555,T*11
$GPGGA,035740.20,2234.03519655,N,11431.92522771,E,4,20,0.8,3.4074,M,-1.3415,M,01,0000*78
$GPRMC,035740.20,A,2234.03519655,N,11431.92522771,E,0.088,14.0,051224,3.4,W,D*11
$GNVTG,59.646,T,63.075,M,0.06196,N,0.11475,K,D*39
$GNHDT,237.2547,T*19
$GPGGA,035740.40,2234.03519830,N,11431.92523092,E,4,20,0.8,3.3975,M,-1.3415,M,01,0000*77
$GPRMC,035740.40,A,2234.03519830,N,11431.92523092,E,0.062,59.6,051224,3.4,W,D*1A
$GNVTG,163.384,T,166.813,M,0.06593,N,0.12211,K,D*30
$GNHDT,237.5491,T*14
$GPGGA,035740.60,2234.03519477,N,11431.92523205,E,4,20,0.8,3.4067,M,-1.3415,M,00,0000*7A
$GPRMC,035740.60,A,2234.03519477,N,11431.92523205,E,0.066,163.4,051224,3.4,W,D*25
$GNVTG,106.311,T,109.741,M,0.07317,N,0.13551,K,D*37
$GNHDT,237.5270,T*1D
$GPGGA,035740.80,2234.03519363,N,11431.92523627,E,4,20,0.8,3.4146,M,-1.3415,M,00,0000*70
$GPRMC,035740.80,A,2234.03519363,N,11431.92523627,E,0.073,106.3,051224,3.4,W,D*2D
$GNVTG,3.513,T,6.943,M,0.05790,N,0.10722,K,D*39
$GNHDT,237.7277,T*18
$GPGGA,035741.00,2234.03519685,N,11431.92523648,E,4,20,0.8,3.4166,M,-1.3415,M,01,0000*7E
$GPRMC,035741.00,A,2234.03519685,N,11431.92523648,E,0.058,3.5,051224,3.4,W,D*2B
$GNVTG,152.454,T,155.884,M,0.04135,N,0.07658,K,D*31
$GNHDT,237.6349,T*15
$GPGGA,035741.20,2234.03519481,N,11431.92523763,E,4,20,0.8,3.4015,M,-1.3415,M,01,0000*77
$GPRMC,035741.20,A,2234.03519481,N,11431.92523763,E,0.041,152.5,051224,3.4,W,D*2A
$GNVTG,264.712,T,268.141,M,0.05722,N,0.10597,K,D*3C
$GNHDT,237.9456,T*13
$GPGGA,035741.40,2234.03519451,N,11431.92523421,E,4,20,0.8,3.4044,M,-1.3415,M,01,0000*7D
$GPRMC,035741.40,A,2234.03519451,N,11431.92523421,E,0.057,264.7,051224,3.4,W,D*27
$GNVTG,210.854,T,214.283,M,0.02566,N,0.04751,K,D*3C
