GA,032551.00,2234.53861560,N,11431.56015898,E,4,21,0.7,-4.4407,M,-1.3763,M,03,0000*58
$GPRMC,032551.00,A,2234.53861560,N,11431.56015898,E,0.499,308.2,071224,3.4,W,D*2F
$GNVTG,297.800,T,301.238,M,0.55722,N,1.03197,K,D*3D
$GNHDT,287.2916,T*1A
$GPGGA,032551.20,2234.53863009,N,11431.56012939,E,4,21,0.7,-4.4333,M,-1.3763,M,03,0000*5F
$GPRMC,032551.20,A,2234.53863009,N,11431.56012939,E,0.557,297.8,071224,3.4,W,D*26
$GNVTG,299.370,T,302.809,M,0.55968,N,1.03653,K,D*3B
$GNHDT,287.3136,T*11
$GPGGA,032551.40,2234.53864539,N,11431.56010012,E,4,21,0.7,-4.3786,M,-1.3763,M,03,0000*57
$GPRMC,032551.40,A,2234.53864539,N,11431.56010012,E,0.560,299.4,071224,3.4,W,D*25
$GNVTG,311.046,T,314.485,M,0.55191,N,1.02213,K,D*3C
$GNHDT,287.5905,T*1F
$GPGGA,032551.60,2234.53866559,N,11431.56007513,E,4,21,0.7,-4.3999,M,-1.3763,M,01,0000*51
$GPRMC,032551.60,A,2234.53866559,N,11431.56007513,E,0.552,311.0,071224,3.4,W,D*25
$GNVTG,328.494,T,331.933,M,0.50759,N,0.94005,K,D*36
$GNHDT,287.5226,T*15
$GPGGA,032551.80,2234.53868972,N,11431.56005921,E,4,21,0.7,-4.4394,M,-1.3763,M,00,0000*5A
$GPRMC,032551.80,A,2234.53868972,N,11431.56005921,E,0.508,328.5,071224,3.4,W,D*2F
$GNVTG,324.921,T,328.360,M,0.51597,N,0.95558,K,D*30
$GNHDT,287.8130,T*1C
$GPGGA,032552.00,2234.53871326,N,11431.56004141,E,4,21,0.7,-4.4621,M,-1.3763,M,01,0000*57
$GPRMC,032552.00,A,2234.53871326,N,11431.56004141,E,0.516,324.9,071224,3.4,W,D*27
$GNVTG,336.062,T,339.501,M,0.40128,N,0.74318,K,D*31
$GNHDT,288.0533,T*1C
$GPGGA,032552.20,2234.53873370,N,11431.56003163,E,4,20,0.8,-4.4877,M,-1.3763,M,01,0000*50
$GPRMC,032552.20,A,2234.53873370,N,11431.56003163,E,0.401,336.1,071224,3.4,W,D*2F
$GNVTG,347.872,T,351.311,M,0.58535,N,1.08406,K,D*34
$GNHDT,288.2832,T*12
$GPGGA,032552.40,2234.53876561,N,11431.56002425,E,4,20,0.8,-4.5412,M,-1.3763,M,01,0000*5D
$GPRMC,032552.40,A,2234.53876561,N,11431.56002425,E,0.585,347.9,071224,3.4,W,D*2F
$GNVTG,7.268,T,10.707,M,0.30869,N,0.57169,K,D*0A
$GNHDT,288.9818,T*11
$GPGGA,032552.60,2234.53878268,N,11431.56002659,E,4,19,0.8,-4.5304,M,-1.3763,M,01,0000*5C
$GPRMC,032552.60,A,2234.53878268,N,11431.56002659,E,0.309,7.3,071224,3.4,W,D*2B
$GNVTG,332.867,T,336.306,M,0.43749,N,0.81024,K,D*32
$GNHDT,288.8834,T*1E
$GPGGA,032552.80,2234.53880438,N,11431.56001462,E,4,19,0.8,-4.4961,M,-1.3763,M,01,0000*57
$GPRMC,032552.80,A,2234.53880438,N,11431.56001462,E,0.437,332.9,071224,3.4,W,D*2D
$GNVTG,310.568,T,314.006,M,0.53661,N,0.99380,K,D*3D
$GNHDT,289.5607,T*1C
$GPGGA,032553.00,2234.53882384,N,11431.55999015,E,4,19,0.8,-4.4473,M,-1.3763,M,02,0000*5E
$GPRMC,032553.00,A,2234.53882384,N,11431.55999015,E,0.537,310.6,071224,3.4,W,D*27
$GNVTG,307.165,T,310.604,M,0.57038,N,1.05634,K,D*32
$GNHDT,289.8685,T*1B
$GPGGA,032553.20,2234.53884305,N,11431.55996286,E,4,19,0.8,-4.4111,M,-1.3763,M,02,0000*55
$GPRMC,032553.20,A,2234.53884305,N,11431.55996286,E,0.570,307.2,071224,3.4,W,D*2C
$GNVTG,294.767,T,298.206,M,0.47187,N,0.87391,K,D*3F
$GNHDT,291.0400,T*15
$GPGGA,032553.40,2234.53885407,N,11431.55993714,E,4,18,0.8,-4.4221,M,-1.3763,M,02,0000*5D
$GPRMC,032553.40,A,2234.53885407,N,11431.55993714,E,0.472,294.8,071224,3.4,W,D*27
$GNVTG,297.177,T,300.616,M,0.47757,N,0.88446,K,D*37
$GNHDT,291.7344,T*15
$GPGGA,032553.60,2234.53886623,N,11431.55991164,E,4,19,0.8,-4.4397,M,-1.3763,M,01,0000*55
$GPRMC,032553.60,A,2234.53886623,N,11431.55991164,E,0.478,297.2,071224,3.4,W,D*22
$GNVTG,311.566,T,315.005,M,0.27302,N,0.50564,K,D*3A
$GNHDT,292.9212,T*1A
$GPGGA,032553.80,2234.53887632,N,11431.55989938,E,4,19,0.8,-4.4472,M,-1.3763,M,01,0000*5E
$GPRMC,032553.80,A,2234.53887632,N,11431.55989938,E,0.273,311.6,071224,3.4,W,D*23
$GNVTG,329.188,T,332.626,M,0.18448,N,0.34166,K,D*36
$GNHDT,292.9771,T*1A
$GPGGA,032554.00,2234.53888516,N,11431.55989371,E,4,19,0.8,-4.4699,M,-1.3763,M,02,0000*58
$GPRMC,032554.00,A,2234.53888516,N,11431.55989371,E,0.184,329.2,071224,3.4,W,D*25
$GNVTG,320.666,T,324.105,M,0.28615,N,0.52996,K,D*37
$GNHDT,292.2765,T*14
$GPGGA,032554.20,2234.53889750,N,11431.55988282,E,4,19,0.8,-4.5148,M,-1.3763,M,02,0000*5D
$GPRMC,032554.20,A,2234.53889750,N,11431.55988282,E,0.286,320.7,071224,3.4,W,D*27
$GNVTG,325.315,T,328.754,M,0.14410,N,0.26687,K,D*39
$GNHDT,292.1044,T*13
$GPGGA,032554.40,2234.53890410,N,11431.55987790,E,4,19,0.8,-4.4989,M,-1.3763,M,02,0000*59
$GPRMC,032554.40,A,2234.53890410,N,11431.55987790,E,0.144,325.3,071224,3.4,W,D*2B
$GNVTG,311.056,T,314.495,M,0.33922,N,0.62824,K,D*35
$GNHDT,291.6863,T*1A
$GPGGA,032554.60,2234.53891652,N,11431.55986254,E,4,19,0.8,-4.4934,M,-1.3763,M,02,0000*54
$GPRMC,032554.60,A,2234.53891652,N,11431.55986254,E,0.339,311.1,071224,3.4,W,D*2D
$GNVTG,298.874,T,302.313,M,0.48093,N,0.89067,K,D*36
$GNHDT,291.1638,T*1D
$GPGGA,032554.80,2234.53892947,N,11431.55983726,E,4,20,0.8,-4.5021,M,-1.3763,M,01,0000*52
$GPRMC,032554.80,A,2234.53892947,N,11431.55983726,E,0.481,298.9,071224,3.4,W,D*22
$GNVTG,304.413,T,307.851,M,0.34020,N,0.63006,K,D*37
$GNHDT,290.6825,T*19
$GPGGA,032555.00,2234.53894019,N,11431.55982041,E,4,19,0.8,-4.4462,M,-1.3763,M,02,0000*53
$GPRMC,032555.00,A,2234.53894019,N,11431.55982041,E,0.340,304.4,071224,3.4,W,D*2B
$GNVTG,281.343,T,284.782,M,0.47036,N,0.87111,K,D*3C
$GNHDT,291.4382,T*1C
$GPGGA,032555.20,2234.53894534,N,11431.55979273,E,4,18,0.9,-4.4089,M,-1.3763,M,02,0000*5D
$GPRMC,032555.20,A,2234.53894534,N,11431.55979273,E,0.470,281.3,071224,3.4,W,D*2B
$GNVTG,275.551,T,278.990,M,0.46670,N,0.86432,K,D*3C
$GNHDT,292.9966,T*12
$GPGGA,032555.40,2234.53894786,N,11431.55976484,E,4,18,0.9,-4.3719,M,-1.3763,M,02,0000*58
$GPRMC,032555.40,A,2234.53894786,N,11431.55976484,E,0.467,275.6,071224,3.4,W,D*2F
$GNVTG,285.105,T,288.543,M,0.62800,N,1.16305,K,D*3F
$GNHDT,293.6105,T*11
$GPGGA,032555.60,2234.53895698,N,11431.55972845,E,4,19,0.8,-4.3410,M,-1.3763,M,01,0000*59
$GPRMC,032555.60,A,2234.53895698,N,11431.55972845,E,0.628,285.1,071224,3.4,W,D*26
$GNVTG,314.498,T,317.936,M,0.66000,N,1.22232,K,D*30
$GNHDT,293.8995,T*1E
$GPGGA,032555.80,2234.53898277,N,11431.55970019,E,4,19,0.8,-4.3591,M,-1.3763,M,00,0000*55
$GPRMC,032555.80,A,2234.53898277,N,11431.55970019,E,0.660,314.5,071224,3.4,W,D*22
$GNVTG,303.205,T,306.644,M,0.75380,N,1.39603,K,D*3B
$GNHDT,295.3334,T*12
$GPGGA,032556.00,2234.53900578,N,11431.55966233,E,4,20,0.8,-4.3884,M,-1.3763,M,01,0000*59
$GPRMC,032556.00,A,2234.53900578,N,11431.55966233,E,0.754,303.2,071224,3.4,W,D*2B
$GNVTG,318.214,T,321.652,M,0.67032,N,1.24143,K,D*35
$GNHDT,294.8995,T*19
$GPGGA,032556.20,2234.53903365,N,11431.55963552,E,4,19,0.8,-4.4009,M,-1.3763,M,01,0000*57
$GPRMC,032556.20,A,2234.53903365,N,11431.55963552,E,0.670,318.2,071224,3.4,W,D*28
$GNVTG,313.608,T,317.047,M,0.90116,N,1.66894,K,D*3A
$GNHDT,294.1573,T*14
$GPGGA,032556.40,2234.53906830,N,11431.55959635,E,4,19,0.8,-4.4367,M,-1.3763,M,01,0000*5F
$GPRMC,032556.40,A,2234.53906830,N,11431.55959635,E,0.901,313.6,071224,3.4,W,D*2D
$GNVTG,323.649,T,327.088,M,0.61246,N,1.13428,K,D*3D
$GNHDT,293.1793,T*1F
$GPGGA,032556.60,2234.53909580,N,11431.55957456,E,4,19,0.8,-4.4619,M,-1.3763,M,01,0000*51
$GPRMC,032556.60,A,2234.53909580,N,11431.55957456,E,0.612,323.6,071224,3.4,W,D*21
$GNVTG,326.925,T,330.364,M,0.56707,N,1.05022,K,D*37
$GNHDT,292.3723,T*17
$GPGGA,032556.80,2234.53912229,N,11431.55955598,E,4,19,0.8,-4.4851,M,-1.3763,M,01,0000*52
$GPRMC,032556.80,A,2234.53912229,N,11431.55955598,E,0.567,326.9,071224,3.4,W,D*2B
$GNVTG,327.554,T,330.993,M,0.55785,N,1.03314,K,D*37
$GNHDT,291.7101,T*16
$GPGGA,032557.00,2234.53914853,N,11431.55953801,E,4,19,0.8,-4.5101,M,-1.3763,M,02,0000*5F
$GPRMC,032557.00,A,2234.53914853,N,11431.55953801,E,0.558,327.6,071224,3.4,W,D*2A
$GNVTG,345.496,T,348.935,M,0.42091,N,0.77953,K,D*30
$GNHDT,291.5312,T*14
$GPGGA,032557.20,2234.53917125,N,11431.55953168,E,4,19,0.8,-4.5356,M,-1.3763,M,02,0000*50
$GPRMC,032557.20,A,2234.53917125,N,11431.55953168,E,0.421,345.5,071224,3.4,W,D*2D
$GNVTG,314.503,T,317.941,M,0.50886,N,0.94240,K,D*39
$GNHDT,292.1594,T*1B
$GPGGA,032557.40,2234.53919113,N,11431.55950990,E,4,19,0.8,-4.4961,M,-1.3763,M,02,0000*5E
$GPRMC,032557.40,A,2234.53919113,N,11431.55950990,E,0.509,314.5,071224,3.4,W,D*23
$GNVTG,317.144,T,320.583,M,0.46960,N,0.86970,K,D*3E
$GNHDT,292.4288,T*14
$GPGGA,032557.60,2234.53921032,N,11431.55949073,E,4,19,0.8,-4.5396,M,-1.3763,M,02,0000*5A
$GPRMC,032557.60,A,2234.53921032,N,11431.55949073,E,0.470,317.1,071224,3.4,W,D*2C
$GNVTG,291.742,T,295.181,M,0.53691,N,0.99436,K,D*3C
$GNHDT,294.2013,T*14
$GPGGA,032557.80,2234.53922141,N,11431.55946079,E,4,19,0.8,-4.4626,M,-1.3763,M,02,0000*58
$GPRMC,032557.80,A,2234.53922141,N,11431.55946079,E,0.537,291.7,071224,3.4,W,D*2A
$GNVTG,289.056,T,292.494,M,0.66399,N,1.22970,K,D*34
$GNHDT,294.5467,T*14
$GPGGA,032558.00,2234.53923349,N,11431.55942311,E,4,19,0.8,-4.4471,M,-1.3763,M,03,0000*5C
$GPRMC,032558.00,A,2234.53923349,N,11431.55942311,E,0.664,289.1,071224,3.4,W,D*25
$GNVTG,283.760,T,287.198,M,0.58396,N,1.08149,K,D*39
$GNHDT,296.1044,T*17
$GPGGA,032558.20,2234.53924124,N,11431.55938907,E,4,19,0.8,-4.3978,M,-1.3763,M,03,0000*53
$GPRMC,032558.20,A,2234.53924124,N,11431.55938907,E,0.584,283.8,071224,3.4,W,D*27
$GNVTG,299.365,T,302.804,M,0.51534,N,0.95441,K,D*3C
$GNHDT,295.8988,T*14
$GPGGA,032558.40,2234.53925532,N,11431.55936211,E,4,19,0.8,-4.3575,M,-1.3764,M,03,0000*53
$GPRMC,032558.40,A,2234.53925532,N,11431.55936211,E,0.515,299.4,071224,3.4,W,D*2E
$GNVTG,315.389,T,318.828,M,0.33906,N,0.62795,K,D*35
$GNHDT,295.1919,T*15
$GPGGA,032558.60,2234.53926878,N,11431.55934781,E,4,19,0.8,-4.4205,M,-1.3764,M,03,0000*58
$GPRMC,032558.60,A,2234.53926878,N,11431.55934781,E,0.339,315.4,071224,3.4,W,D*2F
$GNVTG,300.106,T,303.545,M,0.31086,N,0.57571,K,D*35
$GNHDT,295.5116,T*16
$GPGGA,032558.80,2234.53927747,N,11431.55933167,E,4,19,0.8,-4.4390,M,-1.3764,M,00,0000*53
$GPRMC,032558.80,A,2234.53927747,N,11431.55933167,E,0.311,300.1,071224,3.4,W,D*21
$GNVTG,297.910,T,301.349,M,0.31501,N,0.58340,K,D*3C
$GNHDT,295.6927,T*1F
$GPGGA,032559.00,2234.53928569,N,11431.55931496,E,4,19,0.8,-4.5240,M,-1.3764,M,01,0000*5E
$GPRMC,032559.00,A,2234.53928569,N,11431.55931496,E,0.315,297.9,071224,3.4,W,D*23
$GNVTG,295.100,T,298.539,M,0.27610,N,0.51133,K,D*3C
$GNHDT,295.7458,T*1B
$GPGGA,032559.20,2234.53929222,N,11431.55929995,E,4,19,0.8,-4.4829,M,-1.3764,M,01,0000*56
$GPRMC,032559.20,A,2234.53929222,N,11431.55929995,E,0.276,295.1,071224,3.4,W,D*21
$GNVTG,292.499,T,295.937,M,0.34419,N,0.63745,K,D*3E
$GNHDT,295.6931,T*18
$GPGGA,032559.40,2234.53929956,N,11431.55928086,E,4,19,0.8,-4.5090,M,-1.3764,M,01,0000*59
$GPRMC,032559.40,A,2234.53929956,N,11431.55928086,E,0.344,292.5,071224,3.4,W,D*26
$GNVTG,294.443,T,297.881,M,0.29439,N,0.54521,K,D*3B
$GNHDT,295.4595,T*18
$GPGGA,032559.60,2234.53930636,N,11431.55926477,E,4,19,0.8,-4.4784,M,-1.3764,M,01,0000*5D
$GPRMC,032559.60,A,2234.53930636,N,11431.55926477,E,0.294,294.4,071224,3.4,W,D*2A
$GNVTG,310.427,T,313.866,M,0.35915,N,0.66515,K,D*38
$GNHDT,295.1525,T*16
$GPGGA,032559.80,2234.53931934,N,11431.55924836,E,4,19,0.8,-4.5172,M,-1.3764,M,01,0000*5A
$GPRMC,032559.80,A,2234.53931934,N,11431.55924836,E,0.359,310.4,071224,3.4,W,D*2E
$GNVTG,313.004,T,316.442,M,0.24764,N,0.45863,K,D*34
$GNHDT,294.9055,T*1D
$GPGGA,032600.00,2234.53932875,N,11431.55923749,E,4,19,0.8,-4.5042,M,-1.3764,M,02,0000*5B
$GPRMC,032600.00,A,2234.53932875,N,11431.55923749,E,0.248,313.0,071224,3.4,W,D*28
$GNVTG,322.420,T,325.859,M,0.20371,N,0.37726,K,D*3D
$GNHDT,294.8219,T*16
$GPGGA,032600.20,2234.53933775,N,11431.55923003,E,4,19,0.8,-4.4975,M,-1.3764,M,02,0000*52
$GPRMC,032600.20,A,2234.53933775,N,11431.55923003,E,0.204,322.4,071224,3.4,W,D*23
$GNVTG,306.999,T,310.438,M,0.32787,N,0.60722,K,D*31
$GNHDT,295.3010,T*17
$GPGGA,032600.40,2234.53934875,N,11431.55921432,E,4,19,0.8,-4.4991,M,-1.3764,M,02,0000*52
$GPRMC,032600.40,A,2234.53934875,N,11431.55921432,E,0.328,307.0,071224,3.4,W,D*25
$GNVTG,289.688,T,293.127,M,0.30968,N,0.57353,K,D*32
$GNHDT,295.7397,T*1F
$GPGGA,032600.60,2234.53935457,N,11431.55919681,E,4,19,0.8,-4.5024,M,-1.3764,M,02,0000*5A
$GPRMC,032600.60,A,2234.53935457,N,11431.55919681,E,0.310,289.7,071224,3.4,W,D*20
$GNVTG,306.183,T,309.622,M,0.31274,N,0.57919,K,D*3B
$GNHDT,296.2093,T*1E
$GPGGA,032600.80,2234.53936486,N,11431.55918166,E,4,20,0.8,-4.4535,M,-1.3764,M,00,0000*58
$GPRMC,032600.80,A,2234.53936486,N,11431.55918166,E,0.313,306.2,071224,3.4,W,D*2E
$GNVTG,312.915,T,316.354,M,0.34539,N,0.63966,K,D*37
$GNHDT,296.1876,T*1E
$GPGGA,032601.00,2234.53937797,N,11431.55916648,E,4,20,0.8,-4.4056,M,-1.3764,M,01,0000*57
$GPRMC,032601.00,A,2234.53937797,N,11431.55916648,E,0.345,312.9,071224,3.4,W,D*2D
$GNVTG,316.552,T,319.991,M,0.49689,N,0.92023,K,D*34
$GNHDT,296.8237,T*18
$GPGGA,032601.20,2234.53939808,N,11431.55914596,E,4,20,0.8,-4.4108,M,-1.3764,M,01,0000*5A
$GPRMC,032601.20,A,2234.53939808,N,11431.55914596,E,0.497,316.6,071224,3.4,W,D*29
$GNVTG,319.015,T,322.453,M,0.54659,N,1.01228,K,D*35
$GNHDT,296.8476,T*1B
$GPGGA,032601.40,2234.53942109,N,11431.55912444,E,4,20,0.8,-4.4089,M,-1.3764,M,01,0000*58
$GPRMC,032601.40,A,2234.53942109,N,11431.55912444,E,0.547,319.0,071224,3.4,W,D*26
$GNVTG,315.173,T,318.612,M,0.47569,N,0.88098,K,D*3D
$GNHDT,297.1664,T*12
$GPGGA,032601.60,2234.53943989,N,11431.55910431,E,4,20,0.8,-4.4349,M,-1.3764,M,01,0000*54
$GPRMC,032601.60,A,2234.53943989,N,11431.55910431,E,0.476,315.2,071224,3.4,W,D*28
$GNVTG,328.843,T,332.282,M,0.54712,N,1.01327,K,D*37
$GNHDT,296.8834,T*11
$GPGGA,032601.80,2234.53946599,N,11431.55908732,E,4,20,0.8,-4.4462,M,-1.3764,M,00,0000*54
$GPRMC,032601.80,A,2234.53946599,N,11431.55908732,E,0.547,328.8,071224,3.4,W,D*20
$GNVTG,311.783,T,315.222,M,0.55486,N,1.02760,K,D*3A
$GNHDT,297.3474,T*13
$GPGGA,032602.00,2234.53948660,N,11431.55906248,E,4,20,0.8,-4.4110,M,-1.3764,M,01,0000*53
$GPRMC,032602.00,A,2234.53948660,N,11431.55906248,E,0.555,311.8,071224,3.4,W,D*2F
$GNVTG,294.219,T,297.658,M,0.70196,N,1.30003,K,D*32
$GNHDT,297.9477,T*1A
$GPGGA,032602.20,2234.53950266,N,11431.55902406,E,4,19,0.8,-4.3735,M,-1.3764,M,01,0000*5E
$GPRMC,032602.20,A,2234.53950266,N,11431.55902406,E,0.702,294.2,071224,3.4,W,D*28
$GNVTG,294.021,T,297.459,M,0.76204,N,1.41130,K,D*31
$GNHDT,298.7861,T*10
$GPGGA,032602.40,2234.53951995,N,11431.55898227,E,4,19,0.8,-4.3216,M,-1.3764,M,01,0000*5D
$GPRMC,032602.40,A,2234.53951995,N,11431.55898227,E,0.762,294.0,071224,3.4,W,D*2B
$GNVTG,289.482,T,292.920,M,0.86709,N,1.60585,K,D*38
$GNHDT,299.6459,T*17
$GPGGA,032602.60,2234.53953607,N,11431.55893320,E,4,20,0.8,-4.3177,M,-1.3764,M,01,0000*5A
$GPRMC,032602.60,A,2234.53953607,N,11431.55893320,E,0.867,289.5,071224,3.4,W,D*21
$GNVTG,294.793,T,298.232,M,0.91100,N,1.68717,K,D*3D
$GNHDT,300.0819,T*18
$GPGGA,032602.80,2234.53955737,N,11431.55888356,E,4,20,0.8,-4.3186,M,-1.3764,M,01,0000*55
$GPRMC,032602.80,A,2234.53955737,N,11431.55888356,E,0.911,294.8,071224,3.4,W,D*21
$GNVTG,297.042,T,300.481,M,0.62566,N,1.15872,K,D*35
$GNHDT,298.9658,T*1A
$GPGGA,032603.00,2234.53957323,N,11431.55885011,E,4,20,0.8,-4.3397,M,-1.3764,M,02,0000*53
$GPRMC,032603.00,A,2234.53957323,N,11431.55885011,E,0.626,297.0,071224,3.4,W,D*26
$GNVTG,301.952,T,305.390,M,0.62158,N,1.15116,K,D*33
$GNHDT,297.9625,T*1F
$GPGGA,032603.20,2234.53959156,N,11431.55881845,E,4,20,0.8,-4.4049,M,-1.3764,M,02,0000*55
$GPRMC,032603.20,A,2234.53959156,N,11431.55881845,E,0.622,302.0,071224,3.4,W,D*2E
$GNVTG,302.125,T,305.563,M,0.40366,N,0.74758,K,D*37
$GNHDT,297.1196,T*18
$GPGGA,032603.40,2234.53960353,N,11431.55879793,E,4,19,0.8,-4.4918,M,-1.3764,M,02,0000*5A
$GPRMC,032603.40,A,2234.53960353,N,11431.55879793,E,0.404,302.1,071224,3.4,W,D*21
$GNVTG,311.886,T,315.324,M,0.24967,N,0.46238,K,D*3A
$GNHDT,296.9010,T*1E
$GPGGA,032603.60,2234.53961282,N,11431.55878677,E,4,19,0.8,-4.4979,M,-1.3764,M,02,0000*59
$GPRMC,032603.60,A,2234.53961282,N,11431.55878677,E,0.250,311.9,071224,3.4,W,D*28
$GNVTG,307.940,T,311.379,M,0.51791,N,0.95918,K,D*38
$GNHDT,296.3015,T*11
$GPGGA,032603.80,2234.53963057,N,11431.55876225,E,4,19,0.8,-4.5646,M,-1.3764,M,00,0000*52
$GPRMC,032603.80,A,2234.53963057,N,11431.55876225,E,0.518,307.9,071224,3.4,W,D*2F
$GNVTG,312.912,T,316.351,M,0.51400,N,0.95192,K,D*37
$GNHDT,295.4957,T*1A
$GPGGA,032604.00,2234.53965008,N,11431.55873965,E,4,19,0.8,-4.5673,M,-1.3764,M,01,0000*5C
$GPRMC,032604.00,A,2234.53965008,N,11431.55873965,E,0.514,312.9,071224,3.4,W,D*2E
$GNVTG,294.668,T,298.106,M,0.42885,N,0.79423,K,D*33
$GNHDT,295.5931,T*1B
$GPGGA,032604.20,2234.53966006,N,11431.55871626,E,4,19,0.8,-4.4912,M,-1.3764,M,01,0000*50
$GPRMC,032604.20,A,2234.53966006,N,11431.55871626,E,0.429,294.7,071224,3.4,W,D*25
$GNVTG,301.591,T,305.030,M,0.48402,N,0.89640,K,D*3B
$GNHDT,295.8210,T*1E
$GPGGA,032604.40,2234.53967420,N,11431.55869151,E,4,19,0.8,-4.4616,M,-1.3764,M,01,0000*52
$GPRMC,032604.40,A,2234.53967420,N,11431.55869151,E,0.484,301.6,071224,3.4,W,D*27
$GNVTG,275.807,T,279.246,M,0.57694,N,1.06850,K,D*38
$GNHDT,296.5143,T*15
$GPGGA,032604.60,2234.53967745,N,11431.55865705,E,4,20,0.8,-4.4013,M,-1.3764,M,01,0000*52
$GPRMC,032604.60,A,2234.53967745,N,11431.55865705,E,0.577,275.8,071224,3.4,W,D*2F
$GNVTG,287.564,T,291.003,M,0.49303,N,0.91309,K,D*34
$GNHDT,296.5921,T*19
$GPGGA,032604.80,2234.53968574,N,11431.55862884,E,4,20,0.8,-4.3924,M,-1.3764,M,01,0000*58
$GPRMC,032604.80,A,2234.53968574,N,11431.55862884,E,0.493,287.6,071224,3.4,W,D*27
$GNVTG,336.121,T,339.560,M,0.31352,N,0.58063,K,D*38
$GNHDT,296.6969,T*16
$GPGGA,032605.00,2234.53970173,N,11431.55862122,E,4,20,0.8,-4.4246,M,-1.3764,M,02,0000*55
$GPRMC,032605.00,A,2234.53970173,N,11431.55862122,E,0.314,336.1,071224,3.4,W,D*25
$GNVTG,331.068,T,334.506,M,0.27890,N,0.51652,K,D*31
$GNHDT,296.6355,T*13
$GPGGA,032605.20,2234.53971533,N,11431.55861312,E,4,20,0.8,-4.4575,M,-1.3764,M,02,0000*53
$GPRMC,032605.20,A,2234.53971533,N,11431.55861312,E,0.279,331.1,071224,3.4,W,D*29
$GNVTG,317.736,T,321.175,M,0.32559,N,0.60299,K,D*30
$GNHDT,296.8350,T*18
$GPGGA,032605.40,2234.53972877,N,11431.55859998,E,4,19,0.8,-4.5354,M,-1.3764,M,02,0000*56
$GPRMC,032605.40,A,2234.53972877,N,11431.55859998,E,0.326,317.7,071224,3.4,W,D*2B
$GNVTG,317.682,T,321.121,M,0.38395,N,0.71108,K,D*38
$GNHDT,296.9671,T*1F
$GPGGA,032605.60,2234.53974459,N,11431.55858446,E,4,19,0.8,-4.5355,M,-1.3764,M,02,0000*5C
$GPRMC,032605.60,A,2234.53974459,N,11431.55858446,E,0.384,317.7,071224,3.4,W,D*28
$GNVTG,316.643,T,320.082,M,0.37157,N,0.68815,K,D*33
$GNHDT,297.6299,T*13
$GPGGA,032605.80,2234.53975965,N,11431.55856915,E,4,19,0.8,-4.5273,M,-1.3764,M,00,0000*53
$GPRMC,032605.80,A,2234.53975965,N,11431.55856915,E,0.372,316.6,071224,3.4,W,D*29
$GNVTG,314.604,T,318.042,M,0.38377,N,0.71075,K,D*3C
$GNHDT,298.2224,T*1E
$GPGGA,032606.00,2234.53977468,N,11431.55855274,E,4,19,0.8,-4.4789,M,-1.3764,M,01,0000*55
$GPRMC,032606.00,A,2234.53977468,N,11431.55855274,E,0.384,314.6,071224,3.4,W,D*24
$GNVTG,319.281,T,322.720,M,0.42829,N,0.79319,K,D*3E
$GNHDT,298.8906,T*1F
$GPGGA,032606.20,2234.53979277,N,11431.55853597,E,4,20,0.8,-4.4613,M,-1.3764,M,01,0000*55
$GPRMC,032606.20,A,2234.53979277,N,11431.55853597,E,0.428,319.3,071224,3.4,W,D*25
$GNVTG,312.791,T,316.230,M,0.52691,N,0.97584,K,D*3C
$GNHDT,299.3914,T*16
$GPGGA,032606.40,2234.53981273,N,11431.55851276,E,4,19,0.8,-4.3941,M,-1.3764,M,01,0000*5F
$GPRMC,032606.40,A,2234.53981273,N,11431.55851276,E,0.527,312.8,071224,3.4,W,D*24
$GNVTG,331.310,T,334.748,M,0.50692,N,0.93882,K,D*34
$GNHDT,299.3444,T*1E
$GPGGA,032606.60,2234.53983752,N,11431.55849815,E,4,19,0.8,-4.3697,M,-1.3764,M,01,0000*5B
$GPRMC,032606.60,A,2234.53983752,N,11431.55849815,E,0.507,331.3,071224,3.4,W,D*2C
$GNVTG,310.002,T,313.440,M,0.48603,N,0.90012,K,D*3A
$GNHDT,299.9712,T*14
$GPGGA,032606.80,2234.53985493,N,11431.55847580,E,4,20,0.8,-4.3683,M,-1.3764,M,00,0000*5C
$GPRMC,032606.80,A,2234.53985493,N,11431.55847580,E,0.486,310.0,071224,3.4,W,D*2D
$GNVTG,309.761,T,313.200,M,0.48136,N,0.89148,K,D*35
$GNHDT,299.6977,T*16
$GPGGA,032607.00,2234.53987210,N,11431.55845359,E,4,20,0.8,-4.3525,M,-1.3764,M,01,0000*54
$GPRMC,032607.00,A,2234.53987210,N,11431.55845359,E,0.481,309.8,071224,3.4,W,D*2C
$GNVTG,295.501,T,298.940,M,0.57316,N,1.06150,K,D*39
$GNHDT,300.2752,T*1A
$GPGGA,032607.20,2234.53988585,N,11431.55842254,E,4,19,0.8,-4.3619,M,-1.3764,M,01,0000*5F
$GPRMC,032607.20,A,2234.53988585,N,11431.55842254,E,0.573,295.5,071224,3.4,W,D*24
$GNVTG,293.225,T,296.664,M,0.70562,N,1.30681,K,D*37
$GNHDT,300.2658,T*11
$GPGGA,032607.40,2234.53990137,N,11431.55838361,E,4,19,0.8,-4.4013,M,-1.3764,M,01,0000*5C
$GPRMC,032607.40,A,2234.53990137,N,11431.55838361,E,0.706,293.2,071224,3.4,W,D*2D
$GNVTG,290.055,T,293.494,M,0.71490,N,1.32399,K,D*3A
$GNHDT,300.9296,T*1C
$GPGGA,032607.60,2234.53991503,N,11431.55834330,E,4,19,0.8,-4.4431,M,-1.3764,M,01,0000*50
$GPRMC,032607.60,A,2234.53991503,N,11431.55834330,E,0.715,290.1,071224,3.4,W,D*27
$GNVTG,297.192,T,300.631,M,0.40719,N,0.75412,K,D*37
$GNHDT,300.2369,T*16
$GPGGA,032607.80,2234.53992541,N,11431.55832156,E,4,19,0.8,-4.4267,M,-1.3764,M,01,0000*5A
$GPRMC,032607.80,A,2234.53992541,N,11431.55832156,E,0.407,297.2,071224,3.4,W,D*2C
$GNVTG,283.957,T,287.396,M,0.34983,N,0.64789,K,D*3A
$GNHDT,300.1506,T*1A
$GPGGA,032608.00,2234.53993011,N,11431.55830118,E,4,18,0.8,-4.4976,M,-1.3764,M,02,0000*5D
$GPRMC,032608.00,A,2234.53993011,N,11431.55830118,E,0.350,284.0,071224,3.4,W,D*27
$GNVTG,357.603,T,1.042,M,0.13332,N,0.24691,K,D*33
$GNHDT,299.5331,T*1D
$GPGGA,032608.20,2234.53993753,N,11431.55830084,E,4,18,0.8,-4.4822,M,-1.3764,M,02,0000*5A
$GPRMC,032608.20,A,2234.53993753,N,11431.55830084,E,0.133,357.6,071224,3.4,W,D*2E
$GNVTG,306.401,T,309.840,M,0.20517,N,0.37998,K,D*33
$GNHDT,299.8121,T*13
$GPGGA,032608.40,2234.53994432,N,11431.55829093,E,4,18,0.8,-4.5303,M,-1.3764,M,02,0000*58
$GPRMC,032608.40,A,2234.53994432,N,11431.55829093,E,0.205,306.4,071224,3.4,W,D*25
$GNVTG,337.756,T,341.195,M,0.25389,N,0.47020,K,D*34
$GNHDT,298.9752,T*11
$GPGGA,032608.60,2234.53995742,N,11431.55828516,E,4,18,0.8,-4.4885,M,-1.3764,M,02,0000*52
$GPRMC,032608.60,A,2234.53995742,N,11431.55828516,E,0.254,337.8,071224,3.4,W,D*21
$GNVTG,297.629,T,301.068,M,0.68642,N,1.27126,K,D*3A
$GNHDT,299.0811,T*11
$GPGGA,032608.80,2234.53997517,N,11431.55824866,E,4,18,0.8,-4.4528,M,-1.3764,M,02,0000*50
$GPRMC,032608.80,A,2234.53997517,N,11431.55824866,E,0.686,297.6,071224,3.4,W,D*27
$GNVTG,286.601,T,290.039,M,0.83954,N,1.55482,K,D*3E
$GNHDT,299.9603,T*15
$GPGGA,032609.00,2234.53998854,N,11431.55820036,E,4,18,0.8,-4.3932,M,-1.3764,M,03,0000*54
$GPRMC,032609.00,A,2234.53998854,N,11431.55820036,E,0.840,286.6,071224,3.4,W,D*26
$GNVTG,291.829,T,295.268,M,0.92788,N,1.71843,K,D*37
$GNHDT,299.5226,T*1A
$GPGGA,032609.20,2234.54000777,N,11431.55814865,E,4,19,0.8,-4.3376,M,-1.3764,M,03,0000*55
$GPRMC,032609.20,A,2234.54000777,N,11431.55814865,E,0.928,291.8,071224,3.4,W,D*2B
$GNVTG,286.317,T,289.756,M,0.94078,N,1.74232,K,D*35
$GNHDT,300.0397,T*15
$GPGGA,032609.40,2234.54002251,N,11431.55809446,E,4,19,0.8,-4.3098,M,-1.3764,M,03,0000*52
$GPRMC,032609.40,A,2234.54002251,N,11431.55809446,E,0.941,286.3,071224,3.4,W,D*2D
$GNVTG,311.565,T,315.003,M,0.52525,N,0.97276,K,D*31
$GNHDT,299.7102,T*1D
$GPGGA,032609.60,2234.54004194,N,11431.55807086,E,4,20,0.8,-4.3345,M,-1.3764,M,03,0000*53
$GPRMC,032609.60,A,2234.54004194,N,11431.55807086,E,0.525,311.6,071224,3.4,W,D*21
$GNVTG,344.478,T,347.916,M,0.36005,N,0.66681,K,D*31
$GNHDT,298.8093,T*1A
$GPGGA,032609.80,2234.54006128,N,11431.55806508,E,4,20,0.8,-4.4033,M,-1.3764,M,03,0000*5F
$GPRMC,032609.80,A,2234.54006128,N,11431.55806508,E,0.360,344.5,071224,3.4,W,D*2C
$GNVTG,327.387,T,330.826,M,0.40685,N,0.75350,K,D*35
$GNHDT,298.7420,T*19
$GPGGA,032610.00,2234.54008038,N,11431.55805192,E,4,20,0.8,-4.4814,M,-1.3764,M,04,0000*5F
$GPRMC,032610.00,A,2234.54008038,N,11431.55805192,E,0.407,327.4,071224,3.4,W,D*24
$GNVTG,307.107,T,310.546,M,0.35102,N,0.65009,K,D*30
$GNHDT,298.7694,T*14
$GPGGA,032610.20,2234.54009219,N,11431.55803511,E,4,19,0.8,-4.5480,M,-1.3764,M,04,0000*5E
$GPRMC,032610.20,A,2234.54009219,N,11431.55803511,E,0.351,307.1,071224,3.4,W,D*2C
$GNVTG,317.928,T,321.367,M,0.55660,N,1.03082,K,D*34
$GNHDT,297.8849,T*1A
$GPGGA,032610.40,2234.54011522,N,11431.55801273,E,4,19,0.8,-4.5300,M,-1.3764,M,04,0000*50
$GPRMC,032610.40,A,2234.54011522,N,11431.55801273,E,0.557,317.9,071224,3.4,W,D*24
$GNVTG,320.898,T,324.337,M,0.42550,N,0.78802,K,D*31
$GNHDT,297.3118,T*1C
$GPGGA,032610.60,2234.54013363,N,11431.55799662,E,4,19,0.8,-4.4421,M,-1.3765,M,04,0000*5D
$GPRMC,032610.60,A,2234.54013363,N,11431.55799662,E,0.425,320.9,071224,3.4,W,D*2D
$GNVTG,291.175,T,294.613,M,0.73944,N,1.36943,K,D*3D
$GNHDT,297.5215,T*14
$GPGGA,032610.80,2234.54014852,N,11431.55795523,E,4,19,0.8,-4.4076,M,-1.3765,M,04,0000*51
$GPRMC,032610.80,A,2234.54014852,N,11431.55795523,E,0.739,291.2,071224,3.4,W,D*29
$GNVTG,292.682,T,296.121,M,0.56236,N,1.04150,K,D*37
$GNHDT,297.4165,T*11
$GPGGA,032611.00,2234.54016061,N,11431.55792408,E,4,20,0.8,-4.3539,M,-1.3765,M,05,0000*5F
$GPRMC,032611.00,A,2234.54016061,N,11431.55792408,E,0.562,292.7,071224,3.4,W,D*2F
$GNVTG,294.934,T,298.373,M,0.59329,N,1.09877,K,D*39
$GNHDT,297.6517,T*12
$GPGGA,032611.20,2234.54017455,N,11431.55789178,E,4,20,0.8,-4.3587,M,-1.3765,M,05,0000*52
$GPRMC,032611.20,A,2234.54017455,N,11431.55789178,E,0.593,294.9,071224,3.4,W,D*21
$GNVTG,293.099,T,296.538,M,0.42392,N,0.78510,K,D*36
$GNHDT,297.3982,T*17
$GPGGA,032611.40,2234.54018382,N,11431.55786838,E,4,20,0.8,-4.3671,M,-1.3765,M,05,0000*5E
$GPRMC,032611.40,A,2234.54018382,N,11431.55786838,E,0.424,293.1,071224,3.4,W,D*25
$GNVTG,299.855,T,303.294,M,0.18587,N,0.34422,K,D*3D
$GNHDT,297.5670,T*13
$GPGGA,032611.60,2234.54018898,N,11431.55785870,E,4,20,0.8,-4.3989,M,-1.3765,M,05,0000*5B
$GPRMC,032611.60,A,2234.54018898,N,11431.55785870,E,0.186,299.9,071224,3.4,W,D*27
$GNVTG,270.119,T,273.557,M,0.14191,N,0.26282,K,D*35
$GNHDT,297.7384,T*1F
$GPGGA,032611.80,2234.54018899,N,11431.55785018,E,4,20,0.8,-4.4421,M,-1.3765,M,05,0000*5A
$GPRMC,032611.80,A,2234.54018899,N,11431.55785018,E,0.142,270.1,071224,3.4,W,D*29
$GNVTG,290.793,T,294.232,M,0.30443,N,0.56380,K,D*3A
$GNHDT,298.0203,T*19
$GPGGA,032612.00,2234.54019502,N,11431.55783310,E,4,19,0.8,-4.4895,M,-1.3765,M,06,0000*58
$GPRMC,032612.00,A,2234.54019502,N,11431.55783310,E,0.304,290.8,071224,3.4,W,D*26
$GNVTG,257.163,T,260.602,M,0.39136,N,0.72480,K,D*3B
$GNHDT,298.3888,T*13
$GPGGA,032612.20,2234.54019017,N,11431.55781019,E,4,19,0.8,-4.3794,M,-1.3765,M,06,0000*5A
$GPRMC,032612.20,A,2234.54019017,N,11431.55781019,E,0.391,257.2,071224,3.4,W,D*20
$GNVTG,279.764,T,283.203,M,0.78340,N,1.45086,K,D*3F
$GNHDT,299.0791,T*16
$GPGGA,032612.40,2234.54019758,N,11431.55776385,E,4,19,0.8,-4.3709,M,-1.3765,M,06,0000*5A
$GPRMC,032612.40,A,2234.54019758,N,11431.55776385,E,0.783,279.8,071224,3.4,W,D*25
$GNVTG,281.489,T,284.928,M,0.80353,N,1.48814,K,D*36
$GNHDT,299.5910,T*14
$GPGGA,032612.60,2234.54020650,N,11431.55771658,E,4,19,0.8,-4.2991,M,-1.3765,M,06,0000*57
$GPRMC,032612.60,A,2234.54020650,N,11431.55771658,E,0.804,281.5,071224,3.4,W,D*2C
$GNVTG,280.490,T,283.928,M,0.73519,N,1.36157,K,D*3B
$GNHDT,299.5120,T*1F
$GPGGA,032612.80,2234.54021396,N,11431.55767318,E,4,19,0.8,-4.2800,M,-1.3765,M,06,0000*58
$GPRMC,032612.80,A,2234.54021396,N,11431.55767318,E,0.735,280.5,071224,3.4,W,D*26
$GNVTG,289.103,T,292.542,M,0.87535,N,1.62114,K,D*3E
$GNHDT,299.5228,T*14
$GPGGA,032613.00,2234.54022993,N,11431.55762353,E,4,19,0.8,-4.2643,M,-1.3765,M,07,0000*5F
$GPRMC,032613.00,A,2234.54022993,N,11431.55762353,E,0.875,289.1,071224,3.4,W,D*2F
$GNVTG,294.718,T,298.156,M,0.66540,N,1.23232,K,D*3A
$GNHDT,299.6969,T*19
$GPGGA,032613.20,2234.54024544,N,11431.55758725,E,4,19,0.8,-4.3053,M,-1.3765,M,07,0000*57
$GPRMC,032613.20,A,2234.54024544,N,11431.55758725,E,0.665,294.7,071224,3.4,W,D*24
$GNVTG,286.057,T,289.496,M,0.60402,N,1.11864,K,D*35
$GNHDT,300.5106,T*1A
$GPGGA,032613.40,2234.54025476,N,11431.55755241,E,4,19,0.8,-4.3730,M,-1.3765,M,07,0000*58
$GPRMC,032613.40,A,2234.54025476,N,11431.55755241,E,0.604,286.1,071224,3.4,W,D*2B
$GNVTG,289.869,T,293.308,M,0.40435,N,0.74885,K,D*3F
$GNHDT,300.6124,T*19
$GPGGA,032613.60,2234.54026242,N,11431.55752958,E,4,19,0.8,-4.4130,M,-1.3765,M,07,0000*5D
$GPRMC,032613.60,A,2234.54026242,N,11431.55752958,E,0.404,289.9,071224,3.4,W,D*2A
$GNVTG,282.638,T,286.077,M,0.46844,N,0.86756,K,D*31
$GNHDT,300.1794,T*13
$GPGGA,032613.80,2234.54026813,N,11431.55750214,E,4,18,0.8,-4.3938,M,-1.3765,M,07,0000*5A
$GPRMC,032613.80,A,2234.54026813,N,11431.55750214,E,0.468,282.6,071224,3.4,W,D*25
$GNVTG,284.235,T,287.674,M,0.48197,N,0.89262,K,D*3E
$GNHDT,299.8123,T*11
$GPGGA,032614.00,2234.54027474,N,11431.55747410,E,4,18,0.8,-4.4126,M,-1.3765,M,08,0000*52
$GPRMC,032614.00,A,2234.54027474,N,11431.55747410,E,0.482,284.2,071224,3.4,W,D*24
$GNVTG,284.306,T,287.744,M,0.61134,N,1.13220,K,D*3B
$GNHDT,299.3441,T*1B
$GPGGA,032614.20,2234.54028316,N,11431.55743854,E,4,18,0.8,-4.4301,M,-1.3765,M,08,0000*53
$GPRMC,032614.20,A,2234.54028316,N,11431.55743854,E,0.611,284.3,071224,3.4,W,D*2B
$GNVTG,280.272,T,283.711,M,0.48816,N,0.90407,K,D*32
$GNHDT,299.2020,T*19
$GPGGA,032614.40,2234.54028801,N,11431.55740970,E,4,18,0.8,-4.4250,M,-1.3765,M,08,0000*59
$GPRMC,032614.40,A,2234.54028801,N,11431.55740970,E,0.488,280.3,071224,3.4,W,D*22
$GNVTG,285.674,T,289.113,M,0.36986,N,0.68498,K,D*3B
$GNHDT,298.6081,T*17
$GPGGA,032614.60,2234.54029358,N,11431.55738833,E,4,20,0.8,-4.4323,M,-1.3765,M,08,0000*5A
$GPRMC,032614.60,A,2234.54029358,N,11431.55738833,E,0.370,285.7,071224,3.4,W,D*2E
$GNVTG,294.911,T,298.350,M,0.25573,N,0.47361,K,D*3A
$GNHDT,298.1787,T*11
$GPGGA,032614.80,2234.54029959,N,11431.55737440,E,4,20,0.8,-4.4313,M,-1.3765,M,08,0000*5B
$GPRMC,032614.80,A,2234.54029959,N,11431.55737440,E,0.256,294.9,071224,3.4,W,D*27
$GNVTG,299.489,T,302.928,M,0.24198,N,0.44814,K,D*36
$GNHDT,297.5594,T*1A
$GPGGA,032615.00,2234.54030623,N,11431.55736176,E,4,20,0.8,-4.4857,M,-1.3765,M,09,0000*53
$GPRMC,032615.00,A,2234.54030623,N,11431.55736176,E,0.242,299.5,071224,3.4,W,D*21
$GNVTG,293.793,T,297.231,M,0.27699,N,0.51298,K,D*35
$GNHDT,297.5396,T*1E
$GPGGA,032615.20,2234.54031246,N,11431.55734655,E,4,20,0.8,-4.4809,M,-1.3765,M,09,0000*58
$GPRMC,032615.20,A,2234.54031246,N,11431.55734655,E,0.277,293.8,071224,3.4,W,D*20
$GNVTG,286.660,T,290.099,M,0.40178,N,0.74410,K,D*33
$GNHDT,297.7935,T*1F
$GPGGA,032615.40,2234.54031888,N,11431.55732344,E,4,20,0.8,-4.4650,M,-1.3765,M,09,0000*57
$GPRMC,032615.40,A,2234.54031888,N,11431.55732344,E,0.402,286.7,071224,3.4,W,D*22
$GNVTG,306.950,T,310.389,M,0.39001,N,0.72230,K,D*3E
$GNHDT,298.2408,T*16
$GPGGA,032615.60,2234.54033195,N,11431.55730473,E,4,20,0.8,-4.4393,M,-1.3765,M,09,0000*59
$GPRMC,032615.60,A,2234.54033195,N,11431.55730473,E,0.390,307.0,071224,3.4,W,D*25
$GNVTG,320.784,T,324.223,M,0.47025,N,0.87091,K,D*37
$GNHDT,298.6117,T*19
$GPGGA,032615.80,2234.54035226,N,11431.55728688,E,4,20,0.8,-4.4196,M,-1.3765,M,09,0000*52
$GPRMC,032615.80,A,2234.54035226,N,11431.55728688,E,0.470,320.8,071224,3.4,W,D*2D
$GNVTG,314.649,T,318.088,M,0.49821,N,0.92268,K,D*3E
$GNHDT,298.8179,T*1F
$GPGGA,032616.00,2234.54037178,N,11431.55726561,E,4,19,0.8,-4.3746,M,-1.3765,M,10,0000*57
$GPRMC,032616.00,A,2234.54037178,N,11431.55726561,E,0.498,314.6,071224,3.4,W,D*29
$GNVTG,309.717,T,313.155,M,0.49786,N,0.92203,K,D*3D
$GNHDT,298.9093,T*1B
$GPGGA,032616.20,2234.54038951,N,11431.55724262,E,4,19,0.8,-4.3502,M,-1.3765,M,10,0000*5D
$GPRMC,032616.20,A,2234.54038951,N,11431.55724262,E,0.498,309.7,071224,3.4,W,D*2C
$GNVTG,328.503,T,331.942,M,0.36425,N,0.67459,K,D*36
$GNHDT,299.5182,T*17
$GPGGA,032616.40,2234.54040683,N,11431.55723119,E,4,19,0.8,-4.3880,M,-1.3765,M,10,0000*5B
$GPRMC,032616.40,A,2234.54040683,N,11431.55723119,E,0.364,328.5,071224,3.4,W,D*28
$GNVTG,335.995,T,339.434,M,0.42030,N,0.77840,K,D*3B
$GNHDT,299.5425,T*1F
$GPGGA,032616.60,2234.54042823,N,11431.55722093,E,4,19,0.8,-4.4414,M,-1.3765,M,07,0000*5D
$GPRMC,032616.60,A,2234.54042823,N,11431.55722093,E,0.420,336.0,071224,3.4,W,D*23
$GNVTG,338.184,T,341.623,M,0.44973,N,0.83290,K,D*31
$GNHDT,299.8147,T*13
$GPGGA,032616.80,2234.54045151,N,11431.55721090,E,4,19,0.8,-4.4078,M,-1.3765,M,07,0000*56
$GPRMC,032616.80,A,2234.54045151,N,11431.55721090,E,0.450,338.2,071224,3.4,W,D*2D
$GNVTG,354.356,T,357.795,M,0.21984,N,0.40715,K,D*31
$GNHDT,300.2119,T*13
$GPGGA,032617.00,2234.54046370,N,11431.55720960,E,4,19,0.8,-4.4706,M,-1.3765,M,08,0000*5B
$GPRMC,032617.00,A,2234.54046370,N,11431.55720960,E,0.220,354.4,071224,3.4,W,D*2C
$GNVTG,320.560,T,323.999,M,0.29459,N,0.54558,K,D*3B
$GNHDT,300.8894,T*15
$GPGGA,032617.20,2234.54047639,N,11431.55719837,E,4,19,0.8,-4.4503,M,-1.3765,M,08,0000*5E
$GPRMC,032617.20,A,2234.54047639,N,11431.55719837,E,0.295,320.6,071224,3.4,W,D*21
$GNVTG,323.458,T,326.897,M,0.43748,N,0.81021,K,D*34
$GNHDT,301.3164,T*19
$GPGGA,032617.40,2234.54049598,N,11431.55718273,E,4,18,0.8,-4.4549,M,-1.3765,M,08,0000*5A
$GPRMC,032617.40,A,2234.54049598,N,11431.55718273,E,0.437,323.5,071224,3.4,W,D*24
$GNVTG,309.500,T,312.939,M,0.48346,N,0.89537,K,D*39
$GNHDT,301.6511,T*1A
$GPGGA,032617.60,2234.54051312,N,11431.55716034,E,4,19,0.8,-4.4085,M,-1.3765,M,08,0000*5E
$GPRMC,032617.60,A,2234.54051312,N,11431.55716034,E,0.483,309.5,071224,3.4,W,D*23
$GNVTG,301.068,T,304.507,M,0.40559,N,0.75115,K,D*3B
$GNHDT,302.3199,T*18
$GPGGA,032617.80,2234.54052479,N,11431.55713948,E,4,19,0.8,-4.3393,M,-1.3765,M,08,0000*5D
$GPRMC,032617.80,A,2234.54052479,N,11431.55713948,E,0.406,301.1,071224,3.4,W,D*22
$GNVTG,325.964,T,329.403,M,0.30369,N,0.56244,K,D*36
$GNHDT,302.0784,T*11
$GPGGA,032618.00,2234.54053882,N,11431.55712928,E,4,19,0.8,-4.3275,M,-1.3765,M,09,0000*5C
$GPRMC,032618.00,A,2234.54053882,N,11431.55712928,E,0.304,326.0,071224,3.4,W,D*2A
$GNVTG,301.501,T,304.940,M,0.49080,N,0.90895,K,D*3C
$GNHDT,301.6747,T*1B
$GPGGA,032618.20,2234.54055312,N,11431.55710416,E,4,19,0.8,-4.3197,M,-1.3765,M,09,0000*57
$GPRMC,032618.20,A,2234.54055312,N,11431.55710416,E,0.491,301.5,071224,3.4,W,D*25
$GNVTG,286.230,T,289.669,M,0.52372,N,0.96992,K,D*33
$GNHDT,301.6848,T*1B
$GPGGA,032618.40,2234.54056128,N,11431.55707397,E,4,18,0.8,-4.3163,M,-1.3765,M,09,0000*5B
$GPRMC,032618.40,A,2234.54056128,N,11431.55707397,E,0.524,286.2,071224,3.4,W,D*25
$GNVTG,285.198,T,288.636,M,0.67221,N,1.24493,K,D*3F
$GNHDT,302.1151,T*1E
$GPGGA,032618.60,2234.54057110,N,11431.55703503,E,4,18,0.8,-4.3156,M,-1.3765,M,02,0000*51
$GPRMC,032618.60,A,2234.54057110,N,11431.55703503,E,0.672,285.2,071224,3.4,W,D*21
$GNVTG,279.629,T,283.068,M,0.50757,N,0.94002,K,D*31
$GNHDT,302.0271,T*1E
$GPGGA,032618.80,2234.54057584,N,11431.55700499,E,4,19,0.8,-4.3380,M,-1.3765,M,02,0000*5F
$GPRMC,032618.80,A,2234.54057584,N,11431.55700499,E,0.508,279.6,071224,3.4,W,D*2E
$GNVTG,283.484,T,286.923,M,0.56367,N,1.04391,K,D*32
$GNHDT,302.3206,T*1D
$GPGGA,032619.00,2234.54058316,N,11431.55697209,E,4,19,0.8,-4.3722,M,-1.3765,M,03,0000*59
$GPRMC,032619.00,A,2234.54058316,N,11431.55697209,E,0.564,283.5,071224,3.4,W,D*29
$GNVTG,289.877,T,293.316,M,0.32559,N,0.60299,K,D*33
$GNHDT,302.5794,T*15
$GPGGA,032619.20,2234.54058933,N,11431.55695371,E,4,18,0.8,-4.4380,M,-1.3765,M,03,0000*50
$GPRMC,032619.20,A,2234.54058933,N,11431.55695371,E,0.326,289.9,071224,3.4,W,D*2C
$GNVTG,284.472,T,287.911,M,0.24869,N,0.46058,K,D*3D
$GNHDT,303.0517,T*18
$GPGGA,032619.40,2234.54059280,N,11431.55693926,E,4,18,0.8,-4.4643,M,-1.3765,M,03,0000*50
$GPRMC,032619.40,A,2234.54059280,N,11431.55693926,E,0.249,284.5,071224,3.4,W,D*2F
$GNVTG,304.600,T,308.039,M,0.47773,N,0.88476,K,D*3D
$GNHDT,303.2085,T*14
$GPGGA,032619.60,2234.54060792,N,11431.55691565,E,4,18,0.8,-4.4796,M,-1.3765,M,03,0000*5E
$GPRMC,032619.60,A,2234.54060792,N,11431.55691565,E,0.478,304.6,071224,3.4,W,D*26
$GNVTG,299.139,T,302.578,M,0.54499,N,1.00932,K,D*36
$GNHDT,303.6099,T*1D
$GPGGA,032619.80,2234.54062271,N,11431.55688708,E,4,17,0.9,-4.4394,M,-1.3765,M,03,0000*53
$GPRMC,032619.80,A,2234.54062271,N,11431.55688708,E,0.545,299.1,071224,3.4,W,D*2E
$GNVTG,299.330,T,302.769,M,0.57794,N,1.07034,K,D*3A
$GNHDT,303.2820,T*13
$GPGGA,032620.00,2234.54063850,N,11431.55685683,E,4,18,0.8,-4.3884,M,-1.3765,M,04,0000*52
$GPRMC,032620.00,A,2234.54063850,N,11431.55685683,E,0.578,299.3,071224,3.4,W,D*27
$GNVTG,290.979,T,294.418,M,0.66534,N,1.23221,K,D*35
$GNHDT,303.5984,T*1B
$GPGGA,032620.20,2234.54065178,N,11431.55681954,E,4,18,0.8,-4.2707,M,-1.3765,M,04,0000*51
$GPRMC,032620.20,A,2234.54065178,N,11431.55681954,E,0.665,291.0,071224,3.4,W,D*25
$GNVTG,285.155,T,288.593,M,0.79341,N,1.46940,K,D*3D
$GNHDT,303.5678,T*17
$GPGGA,032620.40,2234.54066334,N,11431.55677357,E,4,18,0.8,-4.2340,M,-1.3765,M,04,0000*59
$GPRMC,032620.40,A,2234.54066334,N,11431.55677357,E,0.793,285.2,071224,3.4,W,D*25
$GNVTG,288.458,T,291.896,M,0.60852,N,1.12697,K,D*3D
$GNHDT,303.3214,T*1F
$GPGGA,032620.60,2234.54067408,N,11431.55673892,E,4,19,0.8,-4.2373,M,-1.3765,M,02,0000*53
$GPRMC,032620.60,A,2234.54067408,N,11431.55673892,E,0.609,288.5,071224,3.4,W,D*20
$GNVTG,284.312,T,287.751,M,0.51493,N,0.95365,K,D*3E
$GNHDT,303.5738,T*12
$GPGGA,032620.80,2234.54068118,N,11431.55670897,E,4,19,0.8,-4.3095,M,-1.3765,M,00,0000*58
$GPRMC,032620.80,A,2234.54068118,N,11431.55670897,E,0.515,284.3,071224,3.4,W,D*27
$GNVTG,268.810,T,272.249,M,0.36368,N,0.67354,K,D*3E
$GNHDT,303.8611,T*15
$GPGGA,032621.00,2234.54068075,N,11431.55668714,E,4,19,0.8,-4.3790,M,-1.3765,M,01,0000*55
$GPRMC,032621.00,A,2234.54068075,N,11431.55668714,E,0.364,268.8,071224,3.4,W,D*20
$GNVTG,281.129,T,284.567,M,0.46355,N,0.85849,K,D*3A
$GNHDT,304.0589,T*18
$GPGGA,032621.20,2234.54068574,N,11431.55665984,E,4,19,0.8,-4.3966,M,-1.3765,M,01,0000*5E
$GPRMC,032621.20,A,2234.54068574,N,11431.55665984,E,0.464,281.1,071224,3.4,W,D*25
$GNVTG,283.368,T,286.807,M,0.63484,N,1.17573,K,D*34
$GNHDT,304.6895,T*1E
$GPGGA,032621.40,2234.54069393,N,11431.55662276,E,4,19,0.8,-4.4892,M,-1.3766,M,01,0000*59
$GPRMC,032621.40,A,2234.54069393,N,11431.55662276,E,0.635,283.4,071224,3.4,W,D*2D
$GNVTG,282.963,T,286.402,M,0.39383,N,0.72937,K,D*3C
$GNHDT,304.6680,T*14
$GPGGA,032621.60,2234.54069885,N,11431.55659972,E,4,20,0.8,-4.4794,M,-1.3766,M,01,0000*53
$GPRMC,032621.60,A,2234.54069885,N,11431.55659972,E,0.394,283.0,071224,3.4,W,D*2E
$GNVTG,290.050,T,293.488,M,0.62458,N,1.15672,K,D*31
$GNHDT,305.0539,T*12
$GPGGA,032621.80,2234.54071079,N,11431.55656450,E,4,20,0.8,-4.4641,M,-1.3766,M,01,0000*54
$GPRMC,032621.80,A,2234.54071079,N,11431.55656450,E,0.625,290.0,071224,3.4,W,D*2D
$GNVTG,297.659,T,301.098,M,0.54893,N,1.01662,K,D*3C
$GNHDT,304.9913,T*1E
$GPGGA,032622.00,2234.54072499,N,11431.55653532,E,4,19,0.8,-4.4401,M,-1.3766,M,02,0000*59
$GPRMC,032622.00,A,2234.54072499,N,11431.55653532,E,0.549,297.7,071224,3.4,W,D*26
$GNVTG,300.548,T,303.986,M,0.45396,N,0.84073,K,D*30
$GNHDT,305.0486,T*17
$GPGGA,032622.20,2234.54073785,N,11431.55651185,E,4,19,0.8,-4.4290,M,-1.3766,M,02,0000*50
$GPRMC,032622.20,A,2234.54073785,N,11431.55651185,E,0.454,300.5,071224,3.4,W,D*21
$GNVTG,305.527,T,308.966,M,0.41092,N,0.76102,K,D*30
$GNHDT,305.3737,T*1D
$GPGGA,032622.40,2234.54075117,N,11431.55649177,E,4,19,0.8,-4.3974,M,-1.3766,M,02,0000*5F
$GPRMC,032622.40,A,2234.54075117,N,11431.55649177,E,0.411,305.5,071224,3.4,W,D*2C
$GNVTG,290.927,T,294.365,M,0.35643,N,0.66010,K,D*36
$GNHDT,305.5543,T*1A
$GPGGA,032622.60,2234.54075826,N,11431.55647179,E,4,19,0.8,-4.4035,M,-1.3766,M,02,0000*5D
$GPRMC,032622.60,A,2234.54075826,N,11431.55647179,E,0.356,290.9,071224,3.4,W,D*20
$GNVTG,302.623,T,306.061,M,0.26348,N,0.48797,K,D*32
$GNHDT,305.1265,T*1D
$GPGGA,032622.80,2234.54076618,N,11431.55645847,E,4,18,0.8,-4.4084,M,-1.3766,M,02,0000*5E
$GPRMC,032622.80,A,2234.54076618,N,11431.55645847,E,0.263,302.6,071224,3.4,W,D*2A
$GNVTG,294.149,T,297.588,M,0.30029,N,0.55614,K,D*39
$GNHDT,305.1267,T*1F
$GPGGA,032623.00,2234.54077303,N,11431.55644202,E,4,18,0.8,-4.4610,M,-1.3766,M,03,0000*59
$GPRMC,032623.00,A,2234.54077303,N,11431.55644202,E,0.300,294.1,071224,3.4,W,D*2A
$GNVTG,276.033,T,279.472,M,0.33123,N,0.61343,K,D*35
$GNHDT,304.9164,T*16
$GPGGA,032623.20,2234.54077497,N,11431.55642225,E,4,18,0.8,-4.4767,M,-1.3766,M,03,0000*53
$GPRMC,032623.20,A,2234.54077497,N,11431.55642225,E,0.331,276.0,071224,3.4,W,D*2E
$GNVTG,296.031,T,299.470,M,0.36841,N,0.68230,K,D*31
$GNHDT,304.8343,T*10
$GPGGA,032623.40,2234.54078398,N,11431.55640237,E,4,18,0.8,-4.4918,M,-1.3766,M,03,0000*55
$GPRMC,032623.40,A,2234.54078398,N,11431.55640237,E,0.368,296.0,071224,3.4,W,D*2C
$GNVTG,293.438,T,296.877,M,0.51348,N,0.95097,K,D*33
$GNHDT,305.1779,T*15
$GPGGA,032623.60,2234.54079537,N,11431.55637409,E,4,19,0.8,-4.5065,M,-1.3766,M,03,0000*5D
$GPRMC,032623.60,A,2234.54079537,N,11431.55637409,E,0.513,293.4,071224,3.4,W,D*2C
$GNVTG,300.096,T,303.535,M,0.45240,N,0.83785,K,D*31
$GNHDT,304.7522,T*1E
$GPGGA,032623.80,2234.54080802,N,11431.55635060,E,4,19,0.8,-4.4756,M,-1.3766,M,03,0000*51
$GPRMC,032623.80,A,2234.54080802,N,11431.55635060,E,0.452,300.1,071224,3.4,W,D*2C
$GNVTG,285.702,T,289.140,M,0.52070,N,0.96434,K,D*38
$GNHDT,305.1362,T*1B
$GPGGA,032624.00,2234.54081587,N,11431.55632051,E,4,18,0.8,-4.4562,M,-1.3766,M,04,0000*59
$GPRMC,032624.00,A,2234.54081587,N,11431.55632051,E,0.521,285.7,071224,3.4,W,D*28
$GNVTG,279.918,T,283.357,M,0.27406,N,0.50756,K,D*3A
$GNHDT,305.0561,T*1F
$GPGGA,032624.20,2234.54081850,N,11431.55630430,E,4,18,0.8,-4.4028,M,-1.3766,M,04,0000*56
$GPRMC,032624.20,A,2234.54081850,N,11431.55630430,E,0.274,279.9,071224,3.4,W,D*26
$GNVTG,295.870,T,299.309,M,0.32820,N,0.60782,K,D*31
$GNHDT,305.1318,T*16
$GPGGA,032624.40,2234.54082649,N,11431.55628658,E,4,18,0.8,-4.4901,M,-1.3766,M,04,0000*52
$GPRMC,032624.40,A,2234.54082649,N,11431.55628658,E,0.328,295.9,071224,3.4,W,D*2A
$GNVTG,315.750,T,319.188,M,0.18414,N,0.34102,K,D*3B
$GNHDT,305.0446,T*1B
$GPGGA,032624.60,2234.54083384,N,11431.55627886,E,4,19,0.8,-4.5302,M,-1.3766,M,04,0000*5E
$GPRMC,032624.60,A,2234.54083384,N,11431.55627886,E,0.184,315.7,071224,3.4,W,D*2C
$GNVTG,319.801,T,323.240,M,0.18816,N,0.34847,K,D*34
$GNHDT,304.7690,T*14
$GPGGA,032624.80,2234.54084185,N,11431.55627157,E,4,20,0.8,-4.5483,M,-1.3766,M,04,0000*55
$GPRMC,032624.80,A,2234.54084185,N,11431.55627157,E,0.188,319.8,071224,3.4,W,D*2C
$GNVTG,297.061,T,300.500,M,0.29028,N,0.53760,K,D*33
$GNHDT,305.1603,T*19
$GPGGA,032625.00,2234.54084921,N,11431.55625606,E,4,19,0.8,-4.5981,M,-1.3766,M,05,0000*5F
$GPRMC,032625.00,A,2234.54084921,N,11431.55625606,E,0.290,297.1,071224,3.4,W,D*26
$GNVTG,297.946,T,301.385,M,0.46593,N,0.86290,K,D*3B
$GNHDT,304.9358,T*1B
$GPGGA,032625.20,2234.54086139,N,11431.55623135,E,4,19,0.8,-4.5840,M,-1.3766,M,05,0000*53
$GPRMC,032625.20,A,2234.54086139,N,11431.55623135,E,0.466,297.9,071224,3.4,W,D*21
$GNVTG,288.609,T,292.048,M,0.44800,N,0.82970,K,D*3C
$GNHDT,305.0153,T*1A
$GPGGA,032625.40,2234.54086936,N,11431.55620586,E,4,19,0.8,-4.5441,M,-1.3766,M,05,0000*50
$GPRMC,032625.40,A,2234.54086936,N,11431.55620586,E,0.448,288.6,071224,3.4,W,D*22
$GNVTG,301.088,T,304.527,M,0.51059,N,0.94561,K,D*3A
$GNHDT,304.6016,T*1D
$GPGGA,032625.60,2234.54088405,N,11431.55617961,E,4,19,0.8,-4.5110,M,-1.3766,M,05,0000*51
$GPRMC,032625.60,A,2234.54088405,N,11431.55617961,E,0.511,301.1,071224,3.4,W,D*28
$GNVTG,332.590,T,336.029,M,0.34638,N,0.64149,K,D*3F
$GNHDT,305.0492,T*12
$GPGGA,032625.80,2234.54090120,N,11431.55617004,E,4,19,0.8,-4.5251,M,-1.3766,M,05,0000*58
$GPRMC,032625.80,A,2234.54090120,N,11431.55617004,E,0.346,332.6,071224,3.4,W,D*24
$GNVTG,354.912,T,358.351,M,0.25918,N,0.48001,K,D*33
$GNHDT,305.1672,T*1F
$GPGGA,032626.00,2234.54091559,N,11431.55616866,E,4,20,0.8,-4.5412,M,-1.3766,M,06,0000*5D
$GPRMC,032626.00,A,2234.54091559,N,11431.55616866,E,0.259,354.9,071224,3.4,W,D*29
$GNVTG,345.879,T,349.318,M,0.27526,N,0.50979,K,D*3E
$GNHDT,305.2710,T*19
$GPGGA,032626.20,2234.54093047,N,11431.55616463,E,4,20,0.8,-4.5672,M,-1.3766,M,06,0000*5A
$GPRMC,032626.20,A,2234.54093047,N,11431.55616463,E,0.275,345.9,071224,3.4,W,D*24
$GNVTG,354.643,T,358.082,M,0.29621,N,0.54858,K,D*35
$GNHDT,304.6757,T*1F
$GPGGA,032626.40,2234.54094691,N,11431.55616297,E,4,20,0.8,-4.5282,M,-1.3766,M,06,0000*50
$GPRMC,032626.40,A,2234.54094691,N,11431.55616297,E,0.296,354.6,071224,3.4,W,D*27
$GNVTG,341.390,T,344.828,M,0.25504,N,0.47232,K,D*33
$GNHDT,304.5707,T*19
$GPGGA,032626.60,2234.54096038,N,11431.55615808,E,4,20,0.8,-4.5284,M,-1.3766,M,06,0000*5C
$GPRMC,032626.60,A,2234.54096038,N,11431.55615808,E,0.255,341.4,071224,3.4,W,D*24
$GNVTG,316.129,T,319.568,M,0.35504,N,0.65753,K,D*33
$GNHDT,304.3570,T*1D
$GPGGA,032626.80,2234.54097465,N,11431.55614331,E,4,20,0.8,-4.5228,M,-1.3766,M,06,0000*59
$GPRMC,032626.80,A,2234.54097465,N,11431.55614331,E,0.355,316.1,071224,3.4,W,D*21
$GNVTG,314.876,T,318.315,M,0.33873,N,0.62733,K,D*35
$GNHDT,303.7525,T*1E
$GPGGA,032627.00,2234.54098798,N,11431.55612891,E,4,20,0.8,-4.4697,M,-1.3766,M,07,0000*59
$GPRMC,032627.00,A,2234.54098798,N,11431.55612891,E,0.339,314.9,071224,3.4,W,D*21
$GNVTG,287.471,T,290.910,M,0.61479,N,1.13859,K,D*3E
$GNHDT,304.5519,T*14
$GPGGA,032627.20,2234.54099827,N,11431.55609370,E,4,20,0.8,-4.4731,M,-1.3766,M,07,0000*52
$GPRMC,032627.20,A,2234.54099827,N,11431.55609370,E,0.615,287.5,071224,3.4,W,D*2B
$GNVTG,287.811,T,291.250,M,0.61549,N,1.13988,K,D*35
$GNHDT,304.8044,T*14
$GPGGA,032627.40,2234.54100876,N,11431.55605853,E,4,20,0.8,-4.4302,M,-1.3766,M,07,0000*53
$GPRMC,032627.40,A,2234.54100876,N,11431.55605853,E,0.615,287.8,071224,3.4,W,D*23
$GNVTG,291.212,T,294.651,M,0.87685,N,1.62393,K,D*36
$GNHDT,304.9646,T*11
$GPGGA,032627.60,2234.54102645,N,11431.55600946,E,4,20,0.8,-4.3764,M,-1.3766,M,07,0000*5E
$GPRMC,032627.60,A,2234.54102645,N,11431.55600946,E,0.877,291.2,071224,3.4,W,D*2A
$GNVTG,288.108,T,291.547,M,0.84987,N,1.57396,K,D*3A
$GNHDT,305.1945,T*14
$GPGGA,032627.80,2234.54104117,N,11431.55596097,E,4,20,0.8,-4.3408,M,-1.3766,M,00,0000*51
$GPRMC,032627.80,A,2234.54104117,N,11431.55596097,E,0.850,288.1,071224,3.4,W,D*25
$GNVTG,289.360,T,292.799,M,0.92315,N,1.70967,K,D*32
$GNHDT,305.7943,T*14
$GPGGA,032628.00,2234.54105823,N,11431.55590869,E,4,20,0.8,-4.3177,M,-1.3766,M,01,0000*5A
$GPRMC,032628.00,A,2234.54105823,N,11431.55590869,E,0.923,289.4,071224,3.4,W,D*23
$GNVTG,288.538,T,291.977,M,0.77663,N,1.43832,K,D*3B
$GNHDT,306.0576,T*1A
$GPGGA,032628.20,2234.54107200,N,11431.55586449,E,4,20,0.8,-4.3281,M,-1.3766,M,01,0000*52
$GPRMC,032628.20,A,2234.54107200,N,11431.55586449,E,0.777,288.5,071224,3.4,W,D*2E
$GNVTG,304.215,T,307.654,M,0.63092,N,1.16847,K,D*39
$GNHDT,305.8086,T*1B
$GPGGA,032628.40,2234.54109177,N,11431.55583317,E,4,20,0.8,-4.3351,M,-1.3766,M,01,0000*5C
$GPRMC,032628.40,A,2234.54109177,N,11431.55583317,E,0.631,304.2,071224,3.4,W,D*2D
$GNVTG,308.412,T,311.850,M,0.51756,N,0.95852,K,D*39
$GNHDT,304.6728,T*17
$GPGGA,032628.60,2234.54110970,N,11431.55580882,E,4,20,0.8,-4.3818,M,-1.3766,M,01,0000*5B
$GPRMC,032628.60,A,2234.54110970,N,11431.55580882,E,0.518,308.4,071224,3.4,W,D*2E
$GNVTG,301.153,T,304.591,M,0.57327,N,1.06170,K,D*32
$GNHDT,304.8311,T*17
$GPGGA,032628.80,2234.54112623,N,11431.55577937,E,4,20,0.8,-4.4256,M,-1.3766,M,01,0000*5E
$GPRMC,032628.80,A,2234.54112623,N,11431.55577937,E,0.573,301.2,071224,3.4,W,D*2E
$GNVTG,322.554,T,325.993,M,0.46719,N,0.86523,K,D*3F
$GNHDT,304.1321,T*1D
$GPGGA,032629.00,2234.54114691,N,11431.55576232,E,4,20,0.8,-4.4962,M,-1.3766,M,02,0000*58
$GPRMC,032629.00,A,2234.54114691,N,11431.55576232,E,0.467,322.6,071224,3.4,W,D*26
$GNVTG,315.052,T,318.491,M,0.51107,N,0.94650,K,D*32
$GNHDT,304.2850,T*13
$GPGGA,032629.20,2234.54116708,N,11431.55574065,E,4,20,0.8,-4.5023,M,-1.3766,M,02,0000*56
$GPRMC,032629.20,A,2234.54116708,N,11431.55574065,E,0.511,315.1,071224,3.4,W,D*26
$GNVTG,313.575,T,317.014,M,0.58227,N,1.07837,K,D*3E
$GNHDT,303.5612,T*1B
$GPGGA,032629.40,2234.54118945,N,11431.55571533,E,4,20,0.8,-4.4398,M,-1.3766,M,02,0000*58
$GPRMC,032629.40,A,2234.54118945,N,11431.55571533,E,0.582,313.6,071224,3.4,W,D*21
$GNVTG,289.083,T,292.522,M,0.74959,N,1.38824,K,D*3E
$GNHDT,304.1383,T*15
$GPGGA,032629.60,2234.54120311,N,11431.55567280,E,4,20,0.8,-4.3391,M,-1.3766,M,02,0000*5C
$GPRMC,032629.60,A,2234.54120311,N,11431.55567280,E,0.750,289.1,071224,3.4,W,D*23
$GNVTG,273.863,T,277.302,M,0.91767,N,1.69953,K,D*3F
$GNHDT,305.7185,T*16
$GPGGA,032629.80,2234.54120656,N,11431.55561784,E,4,20,0.8,-4.2739,M,-1.3766,M,02,0000*54
$GPRMC,032629.80,A,2234.54120656,N,11431.55561784,E,0.918,273.9,071224,3.4,W,D*23
$GNVTG,285.582,T,289.021,M,0.94195,N,1.74450,K,D*3B
$GNHDT,305.5094,T*15
$GPGGA,032630.00,2234.54122066,N,11431.55556337,E,4,20,0.8,-4.2000,M,-1.3766,M,03,0000*57
$GPRMC,032630.00,A,2234.54122066,N,11431.55556337,E,0.942,285.6,071224,3.4,W,D*25
$GNVTG,280.875,T,284.314,M,0.90903,N,1.68353,K,D*39
$GNHDT,305.9754,T*12
$GPGGA,032630.20,2234.54123023,N,11431.55550979,E,4,21,0.7,-4.2231,M,-1.3766,M,03,0000*5D
$GPRMC,032630.20,A,2234.54123023,N,11431.55550979,E,0.909,280.9,071224,3.4,W,D*24
$GNVTG,280.148,T,283.586,M,0.84116,N,1.55782,K,D*3B
$GNHDT,305.6032,T*1A
$GPGGA,032630.40,2234.54123849,N,11431.55546008,E,4,21,0.7,-4.2921,M,-1.3766,M,03,0000*5D
$GPRMC,032630.40,A,2234.54123849,N,11431.55546008,E,0.841,280.1,071224,3.4,W,D*2B
$GNVTG,273.061,T,276.500,M,0.43495,N,0.80553,K,D*3B
$GNHDT,305.7163,T*1E
$GPGGA,032630.60,2234.54123978,N,11431.55543401,E,4,21,0.7,-4.4134,M,-1.3766,M,03,0000*5E
$GPRMC,032630.60,A,2234.54123978,N,11431.55543401,E,0.435,273.1,071224,3.4,W,D*21
$GNVTG,251.911,T,255.349,M,0.30475,N,0.56440,K,D*3D
$GNHDT,306.2538,T*12
$GPGGA,032630.80,2234.54123451,N,11431.55541662,E,4,21,0.7,-4.5322,M,-1.3766,M,00,0000*54
$GPRMC,032630.80,A,2234.54123451,N,11431.55541662,E,0.305,251.9,071224,3.4,W,D*20
$GNVTG,269.556,T,272.995,M,0.14630,N,0.27094,K,D*39
$GNHDT,306.3409,T*10
$GPGGA,032631.00,2234.54123444,N,11431.55540784,E,4,20,0.8,-4.6202,M,-1.3766,M,01,0000*5E
$GPRMC,032631.00,A,2234.54123444,N,11431.55540784,E,0.146,269.6,071224,3.4,W,D*24
$GNVTG,306.315,T,309.754,M,0.05197,N,0.09625,K,D*34
$GNHDT,306.8094,T*1B
$GPGGA,032631.20,2234.54123616,N,11431.55540533,E,4,20,0.8,-4.6699,M,-1.3766,M,01,0000*51
$GPRMC,032631.20,A,2234.54123616,N,11431.55540533,E,0.052,306.3,071224,3.4,W,D*24
$GNVTG,309.462,T,312.901,M,0.17773,N,0.32916,K,D*30
$GNHDT,307.4866,T*13
$GPGGA,032631.40,2234.54124246,N,11431.55539709,E,4,18,0.8,-4.6069,M,-1.3766,M,01,0000*56
$GPRMC,032631.40,A,2234.54124246,N,11431.55539709,E,0.178,309.5,071224,3.4,W,D*21
$GNVTG,302.759,T,306.198,M,0.50802,N,0.94086,K,D*3B
$GNHDT,307.8220,T*17
$GPGGA,032631.60,2234.54125778,N,11431.55537144,E,4,18,0.8,-4.5523,M,-1.3766,M,01,0000*54
$GPRMC,032631.60,A,2234.54125778,N,11431.55537144,E,0.508,302.8,071224,3.4,W,D*2E
$GNVTG,300.019,T,303.458,M,0.67232,N,1.24515,K,D*3E
$GNHDT,308.1389,T*13
$GPGGA,032631.80,2234.54127653,N,11431.55533650,E,4,18,0.8,-4.4594,M,-1.3766,M,00,0000*5A
$GPRMC,032631.80,A,2234.54127653,N,11431.55533650,E,0.672,300.0,071224,3.4,W,D*28
$GNVTG,301.806,T,305.244,M,0.74087,N,1.37209,K,D*32
$GNHDT,308.1790,T*1F
$GPGGA,032632.00,2234.54129830,N,11431.55529870,E,4,19,0.8,-4.3317,M,-1.3766,M,01,0000*59
$GPRMC,032632.00,A,2234.54129830,N,11431.55529870,E,0.741,301.8,071224,3.4,W,D*29
$GNVTG,295.650,T,299.089,M,0.68139,N,1.26194,K,D*3A
$GNHDT,307.4563,T*1B
$GPGGA,032632.20,2234.54131474,N,11431.55526183,E,4,19,0.8,-4.2477,M,-1.3766,M,01,0000*54
$GPRMC,032632.20,A,2234.54131474,N,11431.55526183,E,0.681,295.7,071224,3.4,W,D*2A
$GNVTG,282.501,T,285.939,M,0.58383,N,1.08126,K,D*31
$GNHDT,307.4911,T*12
$GPGGA,032632.40,2234.54132179,N,11431.55522762,E,4,18,0.8,-4.3149,M,-1.3767,M,01,0000*5D
$GPRMC,032632.40,A,2234.54132179,N,11431.55522762,E,0.584,282.5,071224,3.4,W,D*28
$GNVTG,284.382,T,287.821,M,0.64957,N,1.20300,K,D*30
$GNHDT,307.8535,T*14
$GPGGA,032632.60,2234.54133078,N,11431.55518984,E,4,19,0.8,-4.3435,M,-1.3767,M,01,0000*5E
$GPRMC,032632.60,A,2234.54133078,N,11431.55518984,E,0.650,284.4,071224,3.4,W,D*29
$GNVTG,271.071,T,274.509,M,0.39899,N,0.73893,K,D*33
$GNHDT,307.5060,T*1C
$GPGGA,032632.80,2234.54133120,N,11431.55516590,E,4,18,0.8,-4.4252,M,-1.3767,M,00,0000*5B
$GPRMC,032632.80,A,2234.54133120,N,11431.55516590,E,0.399,271.1,071224,3.4,W,D*23
$GNVTG,274.423,T,277.862,M,0.25169,N,0.46613,K,D*3D
$GNHDT,307.1370,T*1A
$GPGGA,032633.00,2234.54133228,N,11431.55515083,E,4,18,0.8,-4.5614,M,-1.3767,M,01,0000*5B
$GPRMC,032633.00,A,2234.54133228,N,11431.55515083,E,0.252,274.4,071224,3.4,W,D*23
$GNVTG,254.976,T,258.415,M,0.26018,N,0.48185,K,D*31
$GNHDT,307.4489,T*1E
$GPGGA,032633.20,2234.54132852,N,11431.55513575,E,4,18,0.8,-4.5898,M,-1.3767,M,01,0000*5F
$GPRMC,032633.20,A,2234.54132852,N,11431.55513575,E,0.260,255.0,071224,3.4,W,D*2B
$GNVTG,287.508,T,290.947,M,0.24417,N,0.45219,K,D*36
$GNHDT,307.7563,T*18
$GPGGA,032633.40,2234.54133261,N,11431.55512177,E,4,18,0.8,-4.6004,M,-1.3767,M,01,0000*5B
$GPRMC,032633.40,A,2234.54133261,N,11431.55512177,E,0.244,287.5,071224,3.4,W,D*2D
$GNVTG,341.924,T,345.363,M,0.10118,N,0.18739,K,D*38
$GNHDT,307.3054,T*1D
$GPGGA,032633.60,2234.54133798,N,11431.55511989,E,4,18,0.8,-4.5940,M,-1.3767,M,01,0000*5A
$GPRMC,032633.60,A,2234.54133798,N,11431.55511989,E,0.101,341.9,071224,3.4,W,D*23
$GNVTG,327.655,T,331.094,M,0.25499,N,0.47224,K,D*30
$GNHDT,307.3769,T*14
$GPGGA,032633.80,2234.54134999,N,11431.55511170,E,4,18,0.8,-4.5519,M,-1.3767,M,01,0000*52
$GPRMC,032633.80,A,2234.54134999,N,11431.55511170,E,0.255,327.7,071224,3.4,W,D*27
$GNVTG,335.120,T,338.559,M,0.32353,N,0.59918,K,D*37
$GNHDT,306.8569,T*1C
$GPGGA,032634.00,2234.54136635,N,11431.55510353,E,4,18,0.8,-4.5830,M,-1.3767,M,02,0000*51
$GPRMC,032634.00,A,2234.54136635,N,11431.55510353,E,0.324,335.1,071224,3.4,W,D*23
$GNVTG,0.530,T,3.968,M,0.26578,N,0.49222,K,D*3B
$GNHDT,305.8774,T*11
$GPGGA,032634.20,2234.54138116,N,11431.55510368,E,4,17,0.9,-4.5553,M,-1.3767,M,02,0000*55
$GPRMC,032634.20,A,2234.54138116,N,11431.55510368,E,0.266,0.5,071224,3.4,W,D*27
$GNVTG,295.515,T,298.954,M,0.49459,N,0.91598,K,D*35
$GNHDT,306.8329,T*1E
$GPGGA,032634.40,2234.54139304,N,11431.55507688,E,4,17,0.9,-4.4836,M,-1.3767,M,02,0000*51
$GPRMC,032634.40,A,2234.54139304,N,11431.55507688,E,0.495,295.5,071224,3.4,W,D*28
$GNVTG,283.413,T,286.852,M,0.52543,N,0.97310,K,D*3D
$GNHDT,307.0491,T*13
$GPGGA,032634.60,2234.54139984,N,11431.55504620,E,4,17,0.9,-4.4207,M,-1.3767,M,02,0000*58
$GPRMC,032634.60,A,2234.54139984,N,11431.55504620,E,0.525,283.4,071224,3.4,W,D*25
$GNVTG,281.953,T,285.392,M,0.59325,N,1.09870,K,D*34
$GNHDT,307.1203,T*1F
$GPGGA,032634.80,2234.54140668,N,11431.55501136,E,4,17,0.9,-4.3998,M,-1.3767,M,00,0000*58
$GPRMC,032634.80,A,2234.54140668,N,11431.55501136,E,0.593,282.0,071224,3.4,W,D*25
$GNVTG,268.899,T,272.338,M,0.77475,N,1.43484,K,D*3B
$GNHDT,307.8492,T*18
$GPGGA,032635.00,2234.54140586,N,11431.55496486,E,4,17,0.9,-4.2993,M,-1.3767,M,01,0000*58
$GPRMC,032635.00,A,2234.54140586,N,11431.55496486,E,0.775,268.9,071224,3.4,W,D*29
$GNVTG,266.627,T,270.065,M,0.79910,N,1.47993,K,D*38
$GNHDT,308.6557,T*11
$GPGGA,032635.20,2234.54140323,N,11431.55491698,E,4,17,0.9,-4.3022,M,-1.3767,M,01,0000*5B
$GPRMC,032635.20,A,2234.54140323,N,11431.55491698,E,0.799,266.6,071224,3.4,W,D*2B
$GNVTG,277.969,T,281.408,M,0.93573,N,1.73298,K,D*36
$GNHDT,307.5887,T*1D
$GPGGA,032635.40,2234.54141047,N,11431.55486135,E,4,17,0.9,-4.3247,M,-1.3767,M,01,0000*5A
$GPRMC,032635.40,A,2234.54141047,N,11431.55486135,E,0.936,278.0,071224,3.4,W,D*29
$GNVTG,262.638,T,266.077,M,0.51882,N,0.96086,K,D*36
$GNHDT,307.7032,T*19
$GPGGA,032635.60,2234.54140676,N,11431.55483046,E,4,17,0.9,-4.4024,M,-1.3767,M,01,0000*5D
$GPRMC,032635.60,A,2234.54140676,N,11431.55483046,E,0.519,262.6,071224,3.4,W,D*22
$GNVTG,278.586,T,282.025,M,0.71008,N,1.31506,K,D*3F
$GNHDT,307.1365,T*1E
$GPGGA,032635.80,2234.54141267,N,11431.55478831,E,4,17,0.9,-4.5365,M,-1.3767,M,01,0000*5D
$GPRMC,032635.80,A,2234.54141267,N,11431.55478831,E,0.710,278.6,071224,3.4,W,D*25
$GNVTG,291.802,T,295.241,M,0.40745,N,0.75460,K,D*33
$GNHDT,307.1602,T*1A
$GPGGA,032636.00,2234.54142111,N,11431.55476561,E,4,19,0.8,-4.6030,M,-1.3767,M,02,0000*5D
$GPRMC,032636.00,A,2234.54142111,N,11431.55476561,E,0.407,291.8,071224,3.4,W,D*25
$GNVTG,292.430,T,295.869,M,0.40439,N,0.74892,K,D*35
$GNHDT,306.8658,T*1D
$GPGGA,032636.20,2234.54142971,N,11431.55474317,E,4,19,0.8,-4.5976,M,-1.3767,M,02,0000*5C
$GPRMC,032636.20,A,2234.54142971,N,11431.55474317,E,0.404,292.4,071224,3.4,W,D*20
$GNVTG,299.390,T,302.828,M,0.44730,N,0.82840,K,D*31
$GNHDT,306.0750,T*1C
$GPGGA,032636.40,2234.54144194,N,11431.55471977,E,4,19,0.8,-4.4828,M,-1.3767,M,02,0000*5D
$GPRMC,032636.40,A,2234.54144194,N,11431.55471977,E,0.447,299.4,071224,3.4,W,D*26
$GNVTG,293.206,T,296.645,M,0.38730,N,0.71728,K,D*3A
$GNHDT,305.5467,T*1D
$GPGGA,032636.60,2234.54145045,N,11431.55469840,E,4,18,0.8,-4.4433,M,-1.3767,M,02,0000*58
$GPRMC,032636.60,A,2234.54145045,N,11431.55469840,E,0.387,293.2,071224,3.4,W,D*23
$GNVTG,297.732,T,301.170,M,0.55370,N,1.02545,K,D*35
$GNHDT,305.2417,T*1D
$GPGGA,032636.80,2234.54146482,N,11431.55466898,E,4,20,0.8,-4.3632,M,-1.3767,M,02,0000*5F
$GPRMC,032636.80,A,2234.54146482,N,11431.55466898,E,0.554,297.7,071224,3.4,W,D*22
$GNVTG,288.658,T,292.097,M,0.69560,N,1.28826,K,D*3D
$GNHDT,304.7333,T*18
$GPGGA,032637.00,2234.54147722,N,11431.55462942,E,4,19,0.8,-4.3052,M,-1.3767,M,03,0000*57
$GPRMC,032637.00,A,2234.54147722,N,11431.55462942,E,0.696,288.7,071224,3.4,W,D*22
$GNVTG,288.283,T,291.722,M,0.78882,N,1.46090,K,D*39
$GNHDT,303.9542,T*11
$GPGGA,032637.20,2234.54149102,N,11431.55458446,E,4,19,0.8,-4.2631,M,-1.3767,M,03,0000*5D
$GPRMC,032637.20,A,2234.54149102,N,11431.55458446,E,0.789,288.3,071224,3.4,W,D*21
$GNVTG,277.206,T,280.644,M,0.56111,N,1.03918,K,D*32
$GNHDT,303.1661,T*1B
$GPGGA,032637.40,2234.54149494,N,11431.55455104,E,4,19,0.8,-4.2937,M,-1.3767,M,03,0000*56
$GPRMC,032637.40,A,2234.54149494,N,11431.55455104,E,0.561,277.2,071224,3.4,W,D*26
$GNVTG,274.860,T,278.298,M,0.44457,N,0.82334,K,D*31
$GNHDT,303.6028,T*17
$GPGGA,032637.60,2234.54149704,N,11431.55452445,E,4,20,0.8,-4.3434,M,-1.3767,M,03,0000*5C
$GPRMC,032637.60,A,2234.54149704,N,11431.55452445,E,0.445,274.9,071224,3.4,W,D*26
$GNVTG,271.666,T,275.105,M,0.36593,N,0.67771,K,D*34
$GNHDT,303.7020,T*1E
$GPGGA,032637.80,2234.54149763,N,11431.55450250,E,4,18,0.8,-4.4513,M,-1.3767,M,03,0000*5B
$GPRMC,032637.80,A,2234.54149763,N,11431.55450250,E,0.366,271.7,071224,3.4,W,D*24
$GNVTG,261.687,T,265.126,M,0.47198,N,0.87410,K,D*39
$GNHDT,304.5401,T*1C
$GPGGA,032638.00,2234.54149383,N,11431.55447446,E,4,17,0.9,-4.4528,M,-1.3767,M,04,0000*50
$GPRMC,032638.00,A,2234.54149383,N,11431.55447446,E,0.472,261.7,071224,3.4,W,D*2D
$GNVTG,272.792,T,276.231,M,0.62599,N,1.15933,K,D*3D
$GNHDT,304.8751,T*17
$GPGGA,032638.20,2234.54149553,N,11431.55443693,E,4,17,0.9,-4.4460,M,-1.3767,M,04,0000*5A
$GPRMC,032638.20,A,2234.54149553,N,11431.55443693,E,0.626,272.8,071224,3.4,W,D*24
$GNVTG,273.115,T,276.553,M,0.68211,N,1.26326,K,D*35
$GNHDT,306.0160,T*19
$GPGGA,032638.40,2234.54149759,N,11431.55439604,E,4,17,0.9,-4.3853,M,-1.3767,M,04,0000*5C
$GPRMC,032638.40,A,2234.54149759,N,11431.55439604,E,0.682,273.1,071224,3.4,W,D*2F
$GNVTG,294.480,T,297.918,M,0.61417,N,1.13745,K,D*37
$GNHDT,305.2826,T*13
$GPGGA,032638.60,2234.54151178,N,11431.55436249,E,4,18,0.8,-4.3281,M,-1.3767,M,04,0000*5B
$GPRMC,032638.60,A,2234.54151178,N,11431.55436249,E,0.614,294.5,071224,3.4,W,D*21
$GNVTG,301.571,T,305.009,M,0.59127,N,1.09503,K,D*30
$GNHDT,304.6505,T*1A
$GPGGA,032638.80,2234.54152904,N,11431.55433225,E,4,19,0.8,-4.3188,M,-1.3767,M,04,0000*51
$GPRMC,032638.80,A,2234.54152904,N,11431.55433225,E,0.591,301.6,071224,3.4,W,D*20
$GNVTG,294.573,T,298.012,M,0.64866,N,1.20132,K,D*3F
$GNHDT,304.8509,T*18
$GPGGA,032639.00,2234.54154408,N,11431.55429684,E,4,18,0.8,-4.3456,M,-1.3767,M,05,0000*5D
$GPRMC,032639.00,A,2234.54154408,N,11431.55429684,E,0.649,294.6,071224,3.4,W,D*21
$GNVTG,300.741,T,304.179,M,0.49913,N,0.92438,K,D*33
$GNHDT,305.2510,T*1B
