.8,071224,3.4,W,D*2B
$GNVTG,146.889,T,150.327,M,3.16574,N,5.86295,K,D*37
$GNHDT,80.1089,T*23
$GPGGA,050529.40,2234.18137848,N,11431.74309234,E,4,20,0.8,-4.0415,M,-1.3561,M,01,0000*5C
$GPRMC,050529.40,A,2234.18137848,N,11431.74309234,E,3.166,146.9,071224,3.4,W,D*25
$GNVTG,148.345,T,151.783,M,3.10095,N,5.74296,K,D*3B
$GNHDT,79.7772,T*20
$GPGGA,050529.60,2234.18123133,N,11431.74319003,E,4,21,0.8,-4.0659,M,-1.3561,M,01,0000*52
$GPRMC,050529.60,A,2234.18123133,N,11431.74319003,E,3.101,148.3,071224,3.4,W,D*25
$GNVTG,145.772,T,149.210,M,3.11612,N,5.77106,K,D*31
$GNHDT,80.2075,T*23
$GPGGA,050529.80,2234.18108771,N,11431.74329524,E,4,21,0.8,-4.0827,M,-1.3561,M,01,0000*51
$GPRMC,050529.80,A,2234.18108771,N,11431.74329524,E,3.116,145.8,071224,3.4,W,D*21
$GNVTG,146.756,T,150.194,M,3.20959,N,5.94416,K,D*38
$GNHDT,79.5857,T*2A
$GPGGA,050530.00,2234.18093806,N,11431.74340086,E,4,21,0.8,-4.0711,M,-1.3561,M,02,0000*56
$GPRMC,050530.00,A,2234.18093806,N,11431.74340086,E,3.210,146.8,071224,3.4,W,D*29
$GNVTG,144.505,T,147.943,M,3.09646,N,5.73465,K,D*3D
$GNHDT,79.7574,T*24
$GPGGA,050530.20,2234.18079752,N,11431.74350878,E,4,21,0.8,-4.0103,M,-1.3561,M,02,0000*53
$GPRMC,050530.20,A,2234.18079752,N,11431.74350878,E,3.096,144.5,071224,3.4,W,D*2A
$GNVTG,144.874,T,148.312,M,3.18567,N,5.89986,K,D*32
$GNHDT,79.7766,T*25
$GPGGA,050530.40,2234.18065227,N,11431.74361880,E,4,20,0.8,-4.0455,M,-1.3561,M,02,0000*5D
$GPRMC,050530.40,A,2234.18065227,N,11431.74361880,E,3.186,144.9,071224,3.4,W,D*2F
$GNVTG,145.184,T,148.622,M,3.21005,N,5.94500,K,D*36
$GNHDT,79.3049,T*2B
$GPGGA,050530.60,2234.18050535,N,11431.74372881,E,4,20,0.8,-4.0242,M,-1.3561,M,02,0000*5E
$GPRMC,050530.60,A,2234.18050535,N,11431.74372881,E,3.210,145.2,071224,3.4,W,D*2A
$GNVTG,144.411,T,147.849,M,3.12281,N,5.78345,K,D*39
$GNHDT,79.6520,T*24
$GPGGA,050530.80,2234.18036378,N,11431.74383790,E,4,20,0.8,-4.0536,M,-1.3561,M,00,0000*58
$GPRMC,050530.80,A,2234.18036378,N,11431.74383790,E,3.123,144.4,071224,3.4,W,D*2E
$GNVTG,144.238,T,147.676,M,3.19544,N,5.91795,K,D*3D
$GNHDT,79.0127,T*21
$GPGGA,050531.00,2234.18021923,N,11431.74395000,E,4,20,0.8,-4.0560,M,-1.3560,M,01,0000*59
$GPRMC,050531.00,A,2234.18021923,N,11431.74395000,E,3.195,144.2,071224,3.4,W,D*27
$GNVTG,146.647,T,150.085,M,3.25703,N,6.03201,K,D*31
$GNHDT,78.9471,T*2F
$GPGGA,050531.20,2234.18006757,N,11431.74405749,E,4,20,0.8,-4.0674,M,-1.3560,M,01,0000*51
$GPRMC,050531.20,A,2234.18006757,N,11431.74405749,E,3.257,146.6,071224,3.4,W,D*22
$GNVTG,143.594,T,147.031,M,3.20751,N,5.94030,K,D*3F
$GNHDT,78.5700,T*26
$GPGGA,050531.40,2234.17992366,N,11431.74417176,E,4,18,0.9,-4.0578,M,-1.3560,M,01,0000*56
$GPRMC,050531.40,A,2234.17992366,N,11431.74417176,E,3.208,143.6,071224,3.4,W,D*2F
$GNVTG,142.211,T,145.649,M,3.22075,N,5.96483,K,D*32
$GNHDT,78.7020,T*21
$GPGGA,050531.60,2234.17978177,N,11431.74429022,E,4,18,0.9,-4.0585,M,-1.3560,M,01,0000*5D
$GPRMC,050531.60,A,2234.17978177,N,11431.74429022,E,3.221,142.2,071224,3.4,W,D*28
$GNVTG,142.525,T,145.963,M,3.14533,N,5.82516,K,D*3F
$GNHDT,78.8460,T*2E
$GPGGA,050531.80,2234.17964261,N,11431.74440509,E,4,18,0.9,-4.0681,M,-1.3560,M,00,0000*5F
$GPRMC,050531.80,A,2234.17964261,N,11431.74440509,E,3.145,142.5,071224,3.4,W,D*2A
$GNVTG,142.326,T,145.764,M,3.15614,N,5.84517,K,D*33
$GNHDT,79.0057,T*27
$GPGGA,050532.00,2234.17950335,N,11431.74452088,E,4,18,0.9,-4.0739,M,-1.3560,M,01,0000*5F
$GPRMC,050532.00,A,2234.17950335,N,11431.74452088,E,3.156,142.3,071224,3.4,W,D*2D
$GNVTG,136.003,T,139.441,M,3.23508,N,5.99136,K,D*3B
$GNHDT,78.4512,T*26
$GPGGA,050532.20,2234.17937361,N,11431.74465576,E,4,18,0.9,-4.0567,M,-1.3560,M,01,0000*54
$GPRMC,050532.20,A,2234.17937361,N,11431.74465576,E,3.235,136.0,071224,3.4,W,D*29
$GNVTG,143.143,T,146.581,M,3.02522,N,5.60272,K,D*37
$GNHDT,78.7304,T*24
$GPGGA,050532.40,2234.17923867,N,11431.74476469,E,4,18,0.9,-4.1000,M,-1.3560,M,01,0000*52
$GPRMC,050532.40,A,2234.17923867,N,11431.74476469,E,3.025,143.1,071224,3.4,W,D*2A
$GNVTG,139.271,T,142.709,M,3.27760,N,6.07012,K,D*3B
$GNHDT,77.6603,T*28
$GPGGA,050532.60,2234.17910021,N,11431.74489306,E,4,21,0.8,-4.0682,M,-1.3559,M,01,0000*58
$GPRMC,050532.60,A,2234.17910021,N,11431.74489306,E,3.278,139.3,071224,3.4,W,D*29
$GNVTG,140.945,T,144.383,M,3.09971,N,5.74066,K,D*3F
$GNHDT,77.5297,T*22
$GPGGA,050532.80,2234.17896602,N,11431.74501029,E,4,21,0.8,-4.1072,M,-1.3559,M,01,0000*59
$GPRMC,050532.80,A,2234.17896602,N,11431.74501029,E,3.100,140.9,071224,3.4,W,D*28
$GNVTG,141.423,T,144.861,M,3.15383,N,5.84090,K,D*38
$GNHDT,76.9437,T*23
$GPGGA,050533.00,2234.17882857,N,11431.74512833,E,4,21,0.8,-4.0840,M,-1.3559,M,02,0000*51
$GPRMC,050533.00,A,2234.17882857,N,11431.74512833,E,3.154,141.4,071224,3.4,W,D*26
$GNVTG,140.835,T,144.272,M,3.08260,N,5.70898,K,D*31
$GNHDT,76.9421,T*24
$GPGGA,050533.20,2234.17869533,N,11431.74524520,E,4,20,0.8,-4.0801,M,-1.3559,M,02,0000*57
$GPRMC,050533.20,A,2234.17869533,N,11431.74524520,E,3.083,140.8,071224,3.4,W,D*22
$GNVTG,142.132,T,145.570,M,3.12335,N,5.78444,K,D*36
$GNHDT,76.4788,T*29
$GPGGA,050533.40,2234.17855788,N,11431.74536028,E,4,19,0.8,-4.0761,M,-1.3559,M,02,0000*51
$GPRMC,050533.40,A,2234.17855788,N,11431.74536028,E,3.123,142.1,071224,3.4,W,D*27
$GNVTG,142.478,T,145.916,M,3.04995,N,5.64851,K,D*33
$GNHDT,76.3942,T*26
$GPGGA,050533.60,2234.17842303,N,11431.74547179,E,4,19,0.8,-4.0953,M,-1.3559,M,02,0000*5E
$GPRMC,050533.60,A,2234.17842303,N,11431.74547179,E,3.050,142.5,071224,3.4,W,D*26
$GNVTG,138.703,T,142.141,M,3.08352,N,5.71068,K,D*37
$GNHDT,76.9576,T*27
$GPGGA,050533.80,2234.17829388,N,11431.74559394,E,4,20,0.8,-4.0609,M,-1.3559,M,00,0000*58
$GPRMC,050533.80,A,2234.17829388,N,11431.74559394,E,3.084,138.7,071224,3.4,W,D*2E
$GNVTG,144.903,T,148.341,M,3.06769,N,5.68136,K,D*3A
$GNHDT,76.6916,T*22
$GPGGA,050534.00,2234.17815396,N,11431.74569981,E,4,19,0.8,-4.0877,M,-1.3559,M,01,0000*56
$GPRMC,050534.00,A,2234.17815396,N,11431.74569981,E,3.068,144.9,071224,3.4,W,D*2B
$GNVTG,142.078,T,145.516,M,3.16911,N,5.86919,K,D*35
$GNHDT,76.5478,T*24
$GPGGA,050534.20,2234.17801459,N,11431.74581672,E,4,19,0.8,-3.9951,M,-1.3559,M,01,0000*5B
$GPRMC,050534.20,A,2234.17801459,N,11431.74581672,E,3.169,142.1,071224,3.4,W,D*23
$GNVTG,142.646,T,146.084,M,3.21418,N,5.95266,K,D*32
$GNHDT,75.7186,T*21
$GPGGA,050534.40,2234.17787216,N,11431.74593378,E,4,19,0.8,-3.9357,M,-1.3559,M,01,0000*51
$GPRMC,050534.40,A,2234.17787216,N,11431.74593378,E,3.214,142.6,071224,3.4,W,D*2B
$GNVTG,142.791,T,146.229,M,3.10212,N,5.74513,K,D*38
$GNHDT,75.7318,T*24
$GPGGA,050534.60,2234.17773443,N,11431.74604639,E,4,19,0.8,-3.9189,M,-1.3558,M,01,0000*53
$GPRMC,050534.60,A,2234.17773443,N,11431.74604639,E,3.102,142.8,071224,3.4,W,D*23
$GNVTG,140.886,T,144.324,M,3.14553,N,5.82551,K,D*34
$GNHDT,75.9539,T*2F
$GPGGA,050534.80,2234.17759838,N,11431.74616550,E,4,19,0.8,-3.9112,M,-1.3558,M,00,0000*59
$GPRMC,050534.80,A,2234.17759838,N,11431.74616550,E,3.146,140.9,071224,3.4,W,D*29
$GNVTG,143.989,T,147.427,M,3.10394,N,5.74849,K,D*3A
$GNHDT,75.3244,T*28
$GPGGA,050535.00,2234.17745841,N,11431.74627505,E,4,20,0.8,-3.8902,M,-1.3558,M,01,0000*52
$GPRMC,050535.00,A,2234.17745841,N,11431.74627505,E,3.104,144.0,071224,3.4,W,D*2A
$GNVTG,144.993,T,148.431,M,3.02875,N,5.60925,K,D*37
$GNHDT,75.1963,T*24
$GPGGA,050535.20,2234.17732011,N,11431.74637934,E,4,20,0.8,-3.9198,M,-1.3558,M,01,0000*58
$GPRMC,050535.20,A,2234.17732011,N,11431.74637934,E,3.029,145.0,071224,3.4,W,D*25
$GNVTG,144.000,T,147.438,M,3.13795,N,5.81149,K,D*3E
$GNHDT,75.0595,T*20
$GPGGA,050535.40,2234.17717858,N,11431.74649006,E,4,20,0.8,-3.9035,M,-1.3558,M,01,0000*5B
$GPRMC,050535.40,A,2234.17717858,N,11431.74649006,E,3.138,144.0,071224,3.4,W,D*20
$GNVTG,144.460,T,147.898,M,3.17451,N,5.87919,K,D*3E
$GNHDT,74.8031,T*22
$GPGGA,050535.60,2234.17703458,N,11431.74660082,E,4,20,0.8,-3.9160,M,-1.3558,M,01,0000*56
$GPRMC,050535.60,A,2234.17703458,N,11431.74660082,E,3.175,144.5,071224,3.4,W,D*20
$GNVTG,145.654,T,149.092,M,3.10170,N,5.74435,K,D*38
$GNHDT,74.4409,T*21
$GPGGA,050535.80,2234.17689182,N,11431.74670586,E,4,19,0.8,-3.9229,M,-1.3558,M,00,0000*5C
$GPRMC,050535.80,A,2234.17689182,N,11431.74670586,E,3.102,145.7,071224,3.4,W,D*2C
$GNVTG,144.062,T,147.500,M,3.08921,N,5.72122,K,D*3A
$GNHDT,74.2752,T*2A
$GPGGA,050536.00,2234.17675238,N,11431.74681469,E,4,20,0.8,-3.8973,M,-1.3558,M,01,0000*56
$GPRMC,050536.00,A,2234.17675238,N,11431.74681469,E,3.089,144.1,071224,3.4,W,D*2D
$GNVTG,144.714,T,148.152,M,3.02022,N,5.59345,K,D*3A
$GNHDT,74.3991,T*2A
$GPGGA,050536.20,2234.17661495,N,11431.74691941,E,4,19,0.8,-3.8772,M,-1.3558,M,01,0000*53
$GPRMC,050536.20,A,2234.17661495,N,11431.74691941,E,3.020,144.7,071224,3.4,W,D*28
$GNVTG,144.797,T,148.235,M,3.06864,N,5.68313,K,D*3C
$GNHDT,74.2340,T*2D
$GPGGA,050536.40,2234.17647517,N,11431.74702560,E,4,19,0.8,-3.9268,M,-1.3558,M,01,0000*51
$GPRMC,050536.40,A,2234.17647517,N,11431.74702560,E,3.069,144.8,071224,3.4,W,D*27
$GNVTG,143.765,T,147.202,M,3.11243,N,5.76422,K,D*3E
$GNHDT,73.9747,T*22
$GPGGA,050536.60,2234.17633521,N,11431.74713603,E,4,19,0.8,-3.9228,M,-1.3557,M,01,0000*58
$GPRMC,050536.60,A,2234.17633521,N,11431.74713603,E,3.112,143.8,071224,3.4,W,D*2F
$GNVTG,143.483,T,146.921,M,3.12757,N,5.79226,K,D*30
$GNHDT,73.7445,T*2D
$GPGGA,050536.80,2234.17619509,N,11431.74724775,E,4,19,0.8,-3.9409,M,-1.3557,M,00,0000*54
$GPRMC,050536.80,A,2234.17619509,N,11431.74724775,E,3.128,143.5,071224,3.4,W,D*23
$GNVTG,144.901,T,148.339,M,3.04730,N,5.64360,K,D*34
$GNHDT,73.7563,T*28
$GPGGA,050537.00,2234.17605610,N,11431.74735292,E,4,19,0.8,-3.9248,M,-1.3557,M,01,0000*55
$GPRMC,050537.00,A,2234.17605610,N,11431.74735292,E,3.047,144.9,071224,3.4,W,D*23
$GNVTG,140.405,T,143.843,M,3.06069,N,5.66841,K,D*37
$GNHDT,73.5101,T*2A
$GPGGA,050537.20,2234.17592462,N,11431.74747002,E,4,19,0.8,-3.9408,M,-1.3557,M,01,0000*51
$GPRMC,050537.20,A,2234.17592462,N,11431.74747002,E,3.061,140.4,071224,3.4,W,D*28
$GNVTG,143.357,T,146.795,M,3.04808,N,5.64504,K,D*36
$GNHDT,73.3551,T*2D
$GPGGA,050537.40,2234.17578828,N,11431.74757922,E,4,20,0.8,-3.9406,M,-1.3557,M,01,0000*5F
$GPRMC,050537.40,A,2234.17578828,N,11431.74757922,E,3.048,143.4,071224,3.4,W,D*2A
$GNVTG,141.678,T,145.115,M,3.06803,N,5.68200,K,D*37
$GNHDT,73.1193,T*25
$GPGGA,050537.60,2234.17565410,N,11431.74769341,E,4,20,0.8,-3.9562,M,-1.3557,M,01,0000*57
$GPRMC,050537.60,A,2234.17565410,N,11431.74769341,E,3.068,141.7,071224,3.4,W,D*22
$GNVTG,141.033,T,144.471,M,3.05028,N,5.64911,K,D*3D
$GNHDT,73.2706,T*2C
$GPGGA,050537.80,2234.17552189,N,11431.74780855,E,4,19,0.8,-4.0072,M,-1.3557,M,00,0000*50
$GPRMC,050537.80,A,2234.17552189,N,11431.74780855,E,3.050,141.0,071224,3.4,W,D*28
$GNVTG,139.766,T,143.204,M,3.03180,N,5.61489,K,D*3A
$GNHDT,73.1326,T*29
$GPGGA,050538.00,2234.17539286,N,11431.74792610,E,4,19,0.8,-4.0388,M,-1.3557,M,01,0000*5D
$GPRMC,050538.00,A,2234.17539286,N,11431.74792610,E,3.032,139.8,071224,3.4,W,D*21
$GNVTG,138.624,T,142.061,M,3.07855,N,5.70148,K,D*31
$GNHDT,72.8587,T*2C
$GPGGA,050538.20,2234.17526408,N,11431.74804825,E,4,19,0.8,-4.0383,M,-1.3557,M,01,0000*52
$GPRMC,050538.20,A,2234.17526408,N,11431.74804825,E,3.079,138.6,071224,3.4,W,D*25
$GNVTG,137.137,T,140.575,M,3.11969,N,5.77767,K,D*3C
$GNHDT,72.7853,T*27
$GPGGA,050538.40,2234.17513660,N,11431.74817563,E,4,19,0.8,-4.0397,M,-1.3557,M,01,0000*56
$GPRMC,050538.40,A,2234.17513660,N,11431.74817563,E,3.120,137.1,071224,3.4,W,D*21
$GNVTG,137.208,T,140.646,M,3.14571,N,5.82585,K,D*34
$GNHDT,72.3761,T*2D
$GPGGA,050538.60,2234.17500792,N,11431.74830391,E,4,19,0.8,-4.0401,M,-1.3556,M,01,0000*5D
$GPRMC,050538.60,A,2234.17500792,N,11431.74830391,E,3.146,137.2,071224,3.4,W,D*20
$GNVTG,136.465,T,139.903,M,3.13294,N,5.80220,K,D*39
$GNHDT,72.4575,T*2D
$GPGGA,050538.80,2234.17488130,N,11431.74843344,E,4,19,0.8,-4.0232,M,-1.3556,M,00,0000*57
$GPRMC,050538.80,A,2234.17488130,N,11431.74843344,E,3.133,136.5,071224,3.4,W,D*29
$GNVTG,137.516,T,140.954,M,3.12223,N,5.78237,K,D*3D
$GNHDT,72.1490,T*22
$GPGGA,050539.00,2234.17475294,N,11431.74856002,E,4,19,0.8,-4.0426,M,-1.3556,M,01,0000*56
$GPRMC,050539.00,A,2234.17475294,N,11431.74856002,E,3.122,137.5,071224,3.4,W,D*2B
$GNVTG,132.310,T,135.748,M,3.25480,N,6.02789,K,D*3C
$GNHDT,72.4462,T*2A
$GPGGA,050539.20,2234.17463080,N,11431.74870450,E,4,19,0.8,-4.0211,M,-1.3556,M,01,0000*51
$GPRMC,050539.20,A,2234.17463080,N,11431.74870450,E,3.255,132.3,071224,3.4,W,D*2E
$GNVTG,134.546,T,137.984,M,3.16504,N,5.86165,K,D*35
$GNHDT,71.9838,T*27
$GPGGA,050539.40,2234.17450703,N,11431.74883990,E,4,20,0.8,-4.0309,M,-1.3556,M,01,0000*54
$GPRMC,050539.40,A,2234.17450703,N,11431.74883990,E,3.165,134.5,071224,3.4,W,D*29
$GNVTG,133.693,T,137.131,M,3.23727,N,5.99542,K,D*35
$GNHDT,71.1711,T*2B
$GPGGA,050539.60,2234.17438236,N,11431.74898040,E,4,20,0.8,-4.0027,M,-1.3556,M,01,0000*5A
$GPRMC,050539.60,A,2234.17438236,N,11431.74898040,E,3.237,133.7,071224,3.4,W,D*29
$GNVTG,134.379,T,137.816,M,3.05159,N,5.65154,K,D*34
$GNHDT,71.6545,T*2F
$GPGGA,050539.80,2234.17426339,N,11431.74911132,E,4,22,0.8,-4.0388,M,-1.3556,M,00,0000*54
$GPRMC,050539.80,A,2234.17426339,N,11431.74911132,E,3.052,134.4,071224,3.4,W,D*27
$GNVTG,135.472,T,138.910,M,3.16469,N,5.86100,K,D*39
$GNHDT,71.6844,T*23
$GPGGA,050540.00,2234.17413761,N,11431.74924453,E,4,22,0.8,-4.0472,M,-1.3556,M,01,0000*5A
$GPRMC,050540.00,A,2234.17413761,N,11431.74924453,E,3.165,135.5,071224,3.4,W,D*2F
$GNVTG,135.782,T,139.220,M,3.00554,N,5.56626,K,D*3A
$GNHDT,71.4463,T*28
$GPGGA,050540.20,2234.17401753,N,11431.74937035,E,4,21,0.8,-4.0533,M,-1.3555,M,01,0000*58
$GPRMC,050540.20,A,2234.17401753,N,11431.74937035,E,3.006,135.8,071224,3.4,W,D*20
$GNVTG,135.773,T,139.211,M,3.07369,N,5.69247,K,D*36
$GNHDT,71.2265,T*2E
$GPGGA,050540.40,2234.17389474,N,11431.74949904,E,4,21,0.8,-4.0502,M,-1.3555,M,01,0000*5F
$GPRMC,050540.40,A,2234.17389474,N,11431.74949904,E,3.074,135.8,071224,3.4,W,D*20
$GNVTG,133.149,T,136.587,M,3.13708,N,5.80987,K,D*3E
$GNHDT,71.3052,T*29
$GPGGA,050540.60,2234.17377514,N,11431.74963642,E,4,21,0.8,-4.0498,M,-1.3555,M,01,0000*5C
$GPRMC,050540.60,A,2234.17377514,N,11431.74963642,E,3.137,133.1,071224,3.4,W,D*28
$GNVTG,134.377,T,137.814,M,3.07070,N,5.68694,K,D*36
$GNHDT,71.3253,T*2A
$GPGGA,050540.80,2234.17365542,N,11431.74976817,E,4,21,0.8,-4.0413,M,-1.3555,M,01,0000*5B
$GPRMC,050540.80,A,2234.17365542,N,11431.74976817,E,3.071,134.4,071224,3.4,W,D*2D
$GNVTG,134.006,T,137.444,M,3.16506,N,5.86168,K,D*3A
$GNHDT,70.9147,T*27
$GPGGA,050541.00,2234.17353284,N,11431.74990482,E,4,22,0.8,-4.0215,M,-1.3555,M,02,0000*52
$GPRMC,050541.00,A,2234.17353284,N,11431.74990482,E,3.165,134.0,071224,3.4,W,D*24
$GNVTG,134.235,T,137.673,M,3.09688,N,5.73543,K,D*32
$GNHDT,71.2543,T*2D
$GPGGA,050541.20,2234.17341240,N,11431.75003801,E,4,21,0.8,-4.0450,M,-1.3555,M,02,0000*5A
$GPRMC,050541.20,A,2234.17341240,N,11431.75003801,E,3.097,134.2,071224,3.4,W,D*26
$GNVTG,134.467,T,137.905,M,3.19277,N,5.91301,K,D*34
$GNHDT,70.8683,T*29
$GPGGA,050541.40,2234.17328772,N,11431.75017478,E,4,21,0.8,-4.0234,M,-1.3555,M,02,0000*54
$GPRMC,050541.40,A,2234.17328772,N,11431.75017478,E,3.193,134.5,071224,3.4,W,D*2E
$GNVTG,134.274,T,137.712,M,3.23109,N,5.98398,K,D*32
$GNHDT,70.6265,T*2B
$GPGGA,050541.60,2234.17316198,N,11431.75031365,E,4,21,0.8,-4.0245,M,-1.3555,M,02,0000*50
$GPRMC,050541.60,A,2234.17316198,N,11431.75031365,E,3.231,134.3,071224,3.4,W,D*21
$GNVTG,136.268,T,139.706,M,3.02649,N,5.60505,K,D*33
$GNHDT,70.9061,T*22
$GPGGA,050541.80,2234.17304007,N,11431.75043923,E,4,21,0.8,-4.0003,M,-1.3555,M,00,0000*55
$GPRMC,050541.80,A,2234.17304007,N,11431.75043923,E,3.026,136.3,071224,3.4,W,D*20
$GNVTG,137.848,T,141.286,M,3.01412,N,5.58215,K,D*3A
$GNHDT,70.9757,T*20
$GPGGA,050542.00,2234.17291550,N,11431.75056065,E,4,21,0.8,-3.9714,M,-1.3555,M,01,0000*55
$GPRMC,050542.00,A,2234.17291550,N,11431.75056065,E,3.014,137.8,071224,3.4,W,D*25
$GNVTG,138.785,T,142.223,M,3.05432,N,5.65661,K,D*38
$GNHDT,70.8613,T*20
$GPGGA,050542.20,2234.17278741,N,11431.75068145,E,4,21,0.8,-3.9246,M,-1.3555,M,01,0000*5E
$GPRMC,050542.20,A,2234.17278741,N,11431.75068145,E,3.054,138.8,071224,3.4,W,D*27
$GNVTG,136.433,T,139.870,M,3.14357,N,5.82190,K,D*3C
$GNHDT,70.4146,T*2B
$GPGGA,050542.40,2234.17266044,N,11431.75081150,E,4,20,0.8,-3.9388,M,-1.3554,M,01,0000*55
$GPRMC,050542.40,A,2234.17266044,N,11431.75081150,E,3.144,136.4,071224,3.4,W,D*2D
$GNVTG,134.844,T,138.281,M,3.13561,N,5.80714,K,D*3B
$GNHDT,70.2492,T*21
$GPGGA,050542.60,2234.17253717,N,11431.75094495,E,4,20,0.8,-3.9328,M,-1.3554,M,01,0000*52
$GPRMC,050542.60,A,2234.17253717,N,11431.75094495,E,3.136,134.8,071224,3.4,W,D*2B
$GNVTG,137.119,T,140.556,M,3.04812,N,5.64511,K,D*39
$GNHDT,70.3681,T*20
$GPGGA,050542.80,2234.17241266,N,11431.75106946,E,4,20,0.8,-3.9169,M,-1.3554,M,00,0000*53
$GPRMC,050542.80,A,2234.17241266,N,11431.75106946,E,3.048,137.1,071224,3.4,W,D*2E
$GNVTG,137.194,T,140.632,M,3.14691,N,5.82807,K,D*3B
$GNHDT,69.9636,T*2E
$GPGGA,050543.00,2234.17228395,N,11431.75119781,E,4,20,0.8,-3.9069,M,-1.3554,M,01,0000*53
$GPRMC,050543.00,A,2234.17228395,N,11431.75119781,E,3.147,137.2,071224,3.4,W,D*23
$GNVTG,139.427,T,142.864,M,3.05354,N,5.65516,K,D*3F
$GNHDT,69.6707,T*22
$GPGGA,050543.20,2234.17215465,N,11431.75131703,E,4,20,0.8,-3.9274,M,-1.3554,M,01,0000*59
$GPRMC,050543.20,A,2234.17215465,N,11431.75131703,E,3.054,139.4,071224,3.4,W,D*2C
$GNVTG,139.732,T,143.169,M,3.12694,N,5.79109,K,D*35
$GNHDT,69.9037,T*29
$GPGGA,050543.40,2234.17202164,N,11431.75143835,E,4,21,0.8,-3.9010,M,-1.3554,M,01,0000*53
$GPRMC,050543.40,A,2234.17202164,N,11431.75143835,E,3.127,139.7,071224,3.4,W,D*21
$GNVTG,137.994,T,141.431,M,3.12986,N,5.79650,K,D*34
$GNHDT,69.9250,T*2A
$GPGGA,050543.60,2234.17189199,N,11431.75156408,E,4,21,0.8,-3.9147,M,-1.3554,M,01,0000*56
$GPRMC,050543.60,A,2234.17189199,N,11431.75156408,E,3.130,138.0,071224,3.4,W,D*27
$GNVTG,138.766,T,142.203,M,3.13181,N,5.80011,K,D*37
$GNHDT,69.5379,T*2C
$GPGGA,050543.80,2234.17176069,N,11431.75168799,E,4,21,0.8,-3.9049,M,-1.3553,M,00,0000*59
$GPRMC,050543.80,A,2234.17176069,N,11431.75168799,E,3.132,138.8,071224,3.4,W,D*2B
$GNVTG,137.140,T,140.578,M,3.09058,N,5.72376,K,D*32
$GNHDT,69.5193,T*2A
$GPGGA,050544.00,2234.17163440,N,11431.75181418,E,4,20,0.8,-3.9188,M,-1.3553,M,01,0000*5C
$GPRMC,050544.00,A,2234.17163440,N,11431.75181418,E,3.091,137.1,071224,3.4,W,D*2C
$GNVTG,138.210,T,141.647,M,3.08682,N,5.71678,K,D*3D
$GNHDT,69.7934,T*2D
$GPGGA,050544.20,2234.17150610,N,11431.75193766,E,4,20,0.8,-3.8966,M,-1.3553,M,01,0000*59
$GPRMC,050544.20,A,2234.17150610,N,11431.75193766,E,3.087,138.2,071224,3.4,W,D*2B
$GNVTG,137.290,T,140.728,M,3.10679,N,5.75377,K,D*30
$GNHDT,69.5164,T*22
$GPGGA,050544.40,2234.17137884,N,11431.75206415,E,4,20,0.8,-3.9286,M,-1.3553,M,01,0000*51
$GPRMC,050544.40,A,2234.17137884,N,11431.75206415,E,3.107,137.3,071224,3.4,W,D*20
$GNVTG,135.976,T,139.413,M,3.10605,N,5.75240,K,D*3A
$GNHDT,69.3700,T*20
$GPGGA,050544.60,2234.17125433,N,11431.75219372,E,4,21,0.8,-3.9034,M,-1.3553,M,01,0000*52
$GPRMC,050544.60,A,2234.17125433,N,11431.75219372,E,3.106,136.0,071224,3.4,W,D*2A
$GNVTG,136.881,T,140.319,M,3.04285,N,5.63536,K,D*3B
$GNHDT,69.2467,T*23
$GPGGA,050544.80,2234.17113051,N,11431.75231856,E,4,21,0.8,-3.9618,M,-1.3553,M,00,0000*57
$GPRMC,050544.80,A,2234.17113051,N,11431.75231856,E,3.043,136.9,071224,3.4,W,D*2F
$GNVTG,136.926,T,140.364,M,3.08926,N,5.72130,K,D*31
$GNHDT,68.7635,T*22
$GPGGA,050545.00,2234.17100471,N,11431.75244520,E,4,20,0.8,-3.9651,M,-1.3553,M,01,0000*59
$GPRMC,050545.00,A,2234.17100471,N,11431.75244520,E,3.089,136.9,071224,3.4,W,D*2A
$GNVTG,134.152,T,137.590,M,3.05715,N,5.66184,K,D*3C
$GNHDT,68.5060,T*26
$GPGGA,050545.20,2234.17088600,N,11431.75257687,E,4,20,0.8,-3.9387,M,-1.3553,M,01,0000*5C
$GPRMC,050545.20,A,2234.17088600,N,11431.75257687,E,3.057,134.2,071224,3.4,W,D*2B
$GNVTG,133.643,T,137.081,M,3.08544,N,5.71424,K,D*3B
$GNHDT,68.3024,T*20
$GPGGA,050545.40,2234.17076729,N,11431.75271089,E,4,20,0.8,-4.0005,M,-1.3553,M,01,0000*5A
$GPRMC,050545.40,A,2234.17076729,N,11431.75271089,E,3.085,133.6,071224,3.4,W,D*26
$GNVTG,132.981,T,136.418,M,3.12621,N,5.78975,K,D*35
$GNHDT,67.7040,T*29
$GPGGA,050545.60,2234.17064847,N,11431.75284818,E,4,20,0.8,-4.0052,M,-1.3553,M,01,0000*54
$GPRMC,050545.60,A,2234.17064847,N,11431.75284818,E,3.126,133.0,071224,3.4,W,D*24
$GNVTG,130.021,T,133.459,M,3.14649,N,5.82730,K,D*36
$GNHDT,67.6285,T*23
$GPGGA,050545.80,2234.17053567,N,11431.75299282,E,4,20,0.8,-4.0090,M,-1.3553,M,00,0000*5B
$GPRMC,050545.80,A,2234.17053567,N,11431.75299282,E,3.146,130.0,071224,3.4,W,D*21
$GNVTG,130.364,T,133.802,M,3.12154,N,5.78110,K,D*3A
$GNHDT,67.4227,T*29
$GPGGA,050546.00,2234.17042297,N,11431.75313558,E,4,20,0.8,-4.0137,M,-1.3552,M,01,0000*57
$GPRMC,050546.00,A,2234.17042297,N,11431.75313558,E,3.122,130.4,071224,3.4,W,D*27
$GNVTG,132.748,T,136.186,M,3.08964,N,5.72202,K,D*38
$GNHDT,67.3234,T*2C
$GPGGA,050546.20,2234.17030606,N,11431.75327177,E,4,20,0.8,-4.0282,M,-1.3552,M,01,0000*5F
$GPRMC,050546.20,A,2234.17030606,N,11431.75327177,E,3.090,132.7,071224,3.4,W,D*2B
$GNVTG,129.435,T,132.872,M,3.24732,N,6.01403,K,D*3E
$GNHDT,66.9978,T*24
$GPGGA,050546.40,2234.17019107,N,11431.75342232,E,4,21,0.8,-4.0147,M,-1.3552,M,01,0000*5E
$GPRMC,050546.40,A,2234.17019107,N,11431.75342232,E,3.247,129.4,071224,3.4,W,D*20
$GNVTG,130.762,T,134.200,M,3.16314,N,5.85813,K,D*3D
$GNHDT,66.9963,T*2E
$GPGGA,050546.60,2234.17007594,N,11431.75356614,E,4,20,0.8,-4.0351,M,-1.3552,M,01,0000*5C
$GPRMC,050546.60,A,2234.17007594,N,11431.75356614,E,3.163,130.8,071224,3.4,W,D*27
$GNVTG,128.185,T,131.623,M,3.27241,N,6.06051,K,D*3E
$GNHDT,66.5203,T*2F
$GPGGA,050546.80,2234.16996316,N,11431.75372053,E,4,20,0.8,-4.0238,M,-1.3552,M,00,0000*52
$GPRMC,050546.80,A,2234.16996316,N,11431.75372053,E,3.272,128.2,071224,3.4,W,D*26
$GNVTG,129.352,T,132.790,M,3.15915,N,5.85074,K,D*39
$GNHDT,65.6777,T*29
$GPGGA,050547.00,2234.16985149,N,11431.75386717,E,4,20,0.8,-4.0266,M,-1.3552,M,01,0000*57
$GPRMC,050547.00,A,2234.16985149,N,11431.75386717,E,3.159,129.4,071224,3.4,W,D*24
$GNVTG,127.613,T,131.051,M,3.09487,N,5.73170,K,D*39
$GNHDT,65.4850,T*21
$GPGGA,050547.20,2234.16974619,N,11431.75401433,E,4,20,0.8,-4.0528,M,-1.3552,M,01,0000*59
$GPRMC,050547.20,A,2234.16974619,N,11431.75401433,E,3.095,127.6,071224,3.4,W,D*2A
$GNVTG,130.141,T,133.579,M,3.16046,N,5.85317,K,D*3F
$GNHDT,65.0908,T*29
$GPGGA,050547.40,2234.16963260,N,11431.75415935,E,4,20,0.8,-4.0431,M,-1.3552,M,01,0000*54
$GPRMC,050547.40,A,2234.16963260,N,11431.75415935,E,3.160,130.1,071224,3.4,W,D*24
$GNVTG,125.925,T,129.363,M,3.23132,N,5.98440,K,D*3A
$GNHDT,65.1511,T*2C
$GPGGA,050547.60,2234.16952691,N,11431.75431642,E,4,20,0.8,-4.0543,M,-1.3551,M,01,0000*50
$GPRMC,050547.60,A,2234.16952691,N,11431.75431642,E,3.231,125.9,071224,3.4,W,D*2C
$GNVTG,128.363,T,131.801,M,3.20962,N,5.94421,K,D*3C
$GNHDT,64.8701,T*27
$GPGGA,050547.80,2234.16941586,N,11431.75446748,E,4,20,0.8,-4.0688,M,-1.3551,M,00,0000*57
$GPRMC,050547.80,A,2234.16941586,N,11431.75446748,E,3.210,128.4,071224,3.4,W,D*2D
$GNVTG,125.498,T,128.936,M,3.11124,N,5.76202,K,D*3C
$GNHDT,64.9860,T*2E
$GPGGA,050548.00,2234.16931515,N,11431.75461952,E,4,20,0.8,-4.0637,M,-1.3551,M,01,0000*58
$GPRMC,050548.00,A,2234.16931515,N,11431.75461952,E,3.111,125.5,071224,3.4,W,D*29
$GNVTG,129.006,T,132.444,M,3.01849,N,5.59024,K,D*38
$GNHDT,64.7466,T*2A
$GPGGA,050548.20,2234.16920924,N,11431.75476032,E,4,21,0.8,-4.0598,M,-1.3551,M,01,0000*5A
$GPRMC,050548.20,A,2234.16920924,N,11431.75476032,E,3.018,129.0,071224,3.4,W,D*2D
$GNVTG,129.325,T,132.763,M,3.14057,N,5.81633,K,D*3A
$GNHDT,64.7082,T*24
$GPGGA,050548.40,2234.16909829,N,11431.75490615,E,4,20,0.8,-4.0270,M,-1.3551,M,01,0000*50
$GPRMC,050548.40,A,2234.16909829,N,11431.75490615,E,3.141,129.3,071224,3.4,W,D*29
$GNVTG,130.160,T,133.598,M,3.03484,N,5.62052,K,D*36
$GNHDT,64.6645,T*28
$GPGGA,050548.60,2234.16898918,N,11431.75504537,E,4,20,0.8,-4.0242,M,-1.3551,M,01,0000*56
$GPRMC,050548.60,A,2234.16898918,N,11431.75504537,E,3.035,130.2,071224,3.4,W,D*25
$GNVTG,131.369,T,134.807,M,3.22017,N,5.96375,K,D*30
$GNHDT,64.4346,T*2C
$GPGGA,050548.80,2234.16887053,N,11431.75519043,E,4,20,0.8,-4.0116,M,-1.3551,M,00,0000*59
$GPRMC,050548.80,A,2234.16887053,N,11431.75519043,E,3.220,131.4,071224,3.4,W,D*28
$GNVTG,129.855,T,133.293,M,3.08024,N,5.70461,K,D*3F
$GNHDT,64.4450,T*2C
$GPGGA,050549.00,2234.16876049,N,11431.75533237,E,4,20,0.8,-3.9747,M,-1.3550,M,01,0000*50
$GPRMC,050549.00,A,2234.16876049,N,11431.75533237,E,3.080,129.9,071224,3.4,W,D*21
$GNVTG,131.561,T,134.999,M,3.26743,N,6.05127,K,D*36
$GNHDT,64.2565,T*2D
$GPGGA,050549.20,2234.16863965,N,11431.75547912,E,4,20,0.8,-3.9732,M,-1.3550,M,01,0000*5C
$GPRMC,050549.20,A,2234.16863965,N,11431.75547912,E,3.267,131.6,071224,3.4,W,D*22
$GNVTG,130.496,T,133.934,M,3.20503,N,5.93572,K,D*36
$GNHDT,64.3490,T*27
$GPGGA,050549.40,2234.16852362,N,11431.75562542,E,4,20,0.8,-3.9727,M,-1.3550,M,01,0000*5F
$GPRMC,050549.40,A,2234.16852362,N,11431.75562542,E,3.205,130.5,071224,3.4,W,D*23
$GNVTG,131.618,T,135.056,M,3.38035,N,6.26041,K,D*39
$GNHDT,64.1949,T*2C
$GPGGA,050549.60,2234.16839846,N,11431.75577711,E,4,20,0.8,-3.9565,M,-1.3550,M,01,0000*59
$GPRMC,050549.60,A,2234.16839846,N,11431.75577711,E,3.380,131.6,071224,3.4,W,D*2F
$GNVTG,131.288,T,134.725,M,3.19336,N,5.91411,K,D*3B
$GNHDT,65.2511,T*2F
$GPGGA,050549.80,2234.16828100,N,11431.75592115,E,4,20,0.8,-3.9370,M,-1.3550,M,00,0000*56
$GPRMC,050549.80,A,2234.16828100,N,11431.75592115,E,3.193,131.3,071224,3.4,W,D*26
$GNVTG,131.705,T,135.142,M,3.30149,N,6.11436,K,D*32
$GNHDT,65.2176,T*2A
$GPGGA,050550.00,2234.16815855,N,11431.75606910,E,4,20,0.8,-3.8880,M,-1.3550,M,01,0000*56
$GPRMC,050550.00,A,2234.16815855,N,11431.75606910,E,3.301,131.7,071224,3.4,W,D*2F
$GNVTG,130.198,T,133.636,M,3.19963,N,5.92572,K,D*31
$GNHDT,65.9429,T*2E
$GPGGA,050550.20,2234.16804343,N,11431.75621580,E,4,19,0.8,-3.8786,M,-1.3550,M,01,0000*5B
$GPRMC,050550.20,A,2234.16804343,N,11431.75621580,E,3.200,130.2,071224,3.4,W,D*25
$GNVTG,130.607,T,134.044,M,3.29199,N,6.09676,K,D*3C
$GNHDT,66.6691,T*23
$GPGGA,050550.40,2234.16792398,N,11431.75636582,E,4,19,0.8,-3.8091,M,-1.3550,M,01,0000*5E
$GPRMC,050550.40,A,2234.16792398,N,11431.75636582,E,3.292,130.6,071224,3.4,W,D*2E
$GNVTG,129.686,T,133.123,M,3.17527,N,5.88060,K,D*3D
$GNHDT,67.8613,T*26
$GPGGA,050550.60,2234.16781094,N,11431.75651250,E,4,19,0.8,-3.7932,M,-1.3550,M,01,0000*57
$GPRMC,050550.60,A,2234.16781094,N,11431.75651250,E,3.175,129.7,071224,3.4,W,D*2B
$GNVTG,131.726,T,135.163,M,3.17699,N,5.88379,K,D*30
$GNHDT,68.3597,T*2D
$GPGGA,050550.80,2234.16769307,N,11431.75665482,E,4,19,0.8,-3.8076,M,-1.3550,M,00,0000*5F
$GPRMC,050550.80,A,2234.16769307,N,11431.75665482,E,3.177,131.7,071224,3.4,W,D*2F
$GNVTG,132.894,T,136.332,M,3.01600,N,5.58563,K,D*37
$GNHDT,69.3893,T*25
$GPGGA,050551.00,2234.16757863,N,11431.75678745,E,4,19,0.8,-3.8149,M,-1.3549,M,01,0000*52
$GPRMC,050551.00,A,2234.16757863,N,11431.75678745,E,3.016,132.9,071224,3.4,W,D*2D
$GNVTG,137.839,T,141.277,M,3.31956,N,6.14782,K,D*3C
$GNHDT,69.6102,T*21
$GPGGA,050551.20,2234.16744145,N,11431.75692120,E,4,19,0.8,-3.8470,M,-1.3549,M,01,0000*51
$GPRMC,050551.20,A,2234.16744145,N,11431.75692120,E,3.320,137.8,071224,3.4,W,D*23
$GNVTG,141.258,T,144.696,M,3.07215,N,5.68962,K,D*3F
$GNHDT,71.7541,T*2A
$GPGGA,050551.40,2234.16730787,N,11431.75703660,E,4,19,0.8,-3.9248,M,-1.3549,M,01,0000*5A
$GPRMC,050551.40,A,2234.16730787,N,11431.75703660,E,3.072,141.3,071224,3.4,W,D*2A
$GNVTG,142.214,T,145.651,M,3.23380,N,5.98899,K,D*3F
$GNHDT,72.4389,T*28
$GPGGA,050551.60,2234.16716540,N,11431.75715554,E,4,19,0.8,-3.9728,M,-1.3549,M,01,0000*55
$GPRMC,050551.60,A,2234.16716540,N,11431.75715554,E,3.234,142.2,071224,3.4,W,D*24
$GNVTG,140.526,T,143.964,M,3.03984,N,5.62979,K,D*32
$GNHDT,72.9210,T*24
$GPGGA,050551.80,2234.16703459,N,11431.75727154,E,4,20,0.8,-4.0679,M,-1.3549,M,00,0000*53
$GPRMC,050551.80,A,2234.16703459,N,11431.75727154,E,3.040,140.5,071224,3.4,W,D*26
$GNVTG,134.191,T,137.629,M,3.15600,N,5.84491,K,D*3B
$GNHDT,72.6644,T*2E
$GPGGA,050552.00,2234.16691195,N,11431.75740737,E,4,20,0.8,-4.1030,M,-1.3549,M,01,0000*5E
$GPRMC,050552.00,A,2234.16691195,N,11431.75740737,E,3.156,134.2,071224,3.4,W,D*22
$GNVTG,129.654,T,133.092,M,2.75466,N,5.10163,K,D*3B
$GNHDT,72.8561,T*24
$GPGGA,050552.20,2234.16681395,N,11431.75753468,E,4,20,0.8,-4.0244,M,-1.3549,M,01,0000*54
$GPRMC,050552.20,A,2234.16681395,N,11431.75753468,E,2.755,129.7,071224,3.4,W,D*25
$GNVTG,132.174,T,135.612,M,2.73627,N,5.06757,K,D*3B
$GNHDT,74.1250,T*2E
$GPGGA,050552.40,2234.16671154,N,11431.75765640,E,4,19,0.8,-3.9561,M,-1.3549,M,01,0000*5B
$GPRMC,050552.40,A,2234.16671154,N,11431.75765640,E,2.736,132.2,071224,3.4,W,D*24
$GNVTG,137.428,T,140.866,M,2.91687,N,5.40204,K,D*3A
$GNHDT,76.2576,T*2C
$GPGGA,050552.60,2234.16659179,N,11431.75777485,E,4,20,0.8,-3.9262,M,-1.3549,M,01,0000*5A
$GPRMC,050552.60,A,2234.16659179,N,11431.75777485,E,2.917,137.4,071224,3.4,W,D*25
$GNVTG,139.510,T,142.948,M,2.97497,N,5.50964,K,D*38
$GNHDT,78.6440,T*22
$GPGGA,050552.80,2234.16646566,N,11431.75789080,E,4,20,0.8,-3.9503,M,-1.3549,M,01,0000*50
$GPRMC,050552.80,A,2234.16646566,N,11431.75789080,E,2.975,139.5,071224,3.4,W,D*24
$GNVTG,135.942,T,139.380,M,3.14499,N,5.82452,K,D*3E
$GNHDT,81.2296,T*2D
$GPGGA,050553.00,2234.16633967,N,11431.75802208,E,4,20,0.8,-3.9926,M,-1.3549,M,02,0000*50
$GPRMC,050553.00,A,2234.16633967,N,11431.75802208,E,3.145,135.9,071224,3.4,W,D*26
$GNVTG,137.637,T,141.075,M,3.13993,N,5.81516,K,D*35
$GNHDT,83.6998,T*2E
$GPGGA,050553.20,2234.16621033,N,11431.75814908,E,4,20,0.8,-4.1387,M,-1.3548,M,02,0000*5A
$GPRMC,050553.20,A,2234.16621033,N,11431.75814908,E,3.140,137.6,071224,3.4,W,D*2B
$GNVTG,138.110,T,141.548,M,2.98451,N,5.52731,K,D*3B
$GNHDT,86.3128,T*2D
$GPGGA,050553.40,2234.16608647,N,11431.75826869,E,4,20,0.8,-4.1153,M,-1.3548,M,02,0000*5E
$GPRMC,050553.40,A,2234.16608647,N,11431.75826869,E,2.985,138.1,071224,3.4,W,D*2C
$GNVTG,142.266,T,145.704,M,2.85569,N,5.28874,K,D*3F
$GNHDT,88.1379,T*27
$GPGGA,050553.60,2234.16596057,N,11431.75837360,E,4,21,0.8,-4.0752,M,-1.3548,M,02,0000*5A
$GPRMC,050553.60,A,2234.16596057,N,11431.75837360,E,2.856,142.3,071224,3.4,W,D*2F
$GNVTG,148.324,T,151.762,M,2.77524,N,5.13974,K,D*3A
$GNHDT,89.9040,T*27
$GPGGA,050553.80,2234.16582890,N,11431.75846108,E,4,21,0.8,-4.0344,M,-1.3548,M,00,0000*59
$GPRMC,050553.80,A,2234.16582890,N,11431.75846108,E,2.775,148.3,071224,3.4,W,D*29
$GNVTG,148.297,T,151.735,M,2.90139,N,5.37337,K,D*3B
$GNHDT,91.4959,T*22
$GPGGA,050554.00,2234.16569130,N,11431.75855260,E,4,19,0.8,-3.9983,M,-1.3548,M,01,0000*5A
$GPRMC,050554.00,A,2234.16569130,N,11431.75855260,E,2.901,148.3,071224,3.4,W,D*22
$GNVTG,150.129,T,153.566,M,2.86042,N,5.29749,K,D*3A
$GNHDT,93.5459,T*2C
$GPGGA,050554.20,2234.16555302,N,11431.75863811,E,4,19,0.8,-3.9813,M,-1.3548,M,01,0000*55
$GPRMC,050554.20,A,2234.16555302,N,11431.75863811,E,2.860,150.1,071224,3.4,W,D*28
$GNVTG,152.860,T,156.298,M,2.95080,N,5.46487,K,D*3B
$GNHDT,95.4286,T*2F
$GPGGA,050554.40,2234.16540663,N,11431.75871891,E,4,19,0.8,-4.0156,M,-1.3548,M,01,0000*58
$GPRMC,050554.40,A,2234.16540663,N,11431.75871891,E,2.951,152.9,071224,3.4,W,D*2A
$GNVTG,156.103,T,159.541,M,2.84690,N,5.27246,K,D*34
$GNHDT,97.6296,T*2E
$GPGGA,050554.60,2234.16526153,N,11431.75878814,E,4,19,0.8,-4.0103,M,-1.3548,M,01,0000*5A
$GPRMC,050554.60,A,2234.16526153,N,11431.75878814,E,2.847,156.1,071224,3.4,W,D*22
$GNVTG,159.666,T,163.104,M,2.86210,N,5.30061,K,D*3C
$GNHDT,99.6562,T*2C
$GPGGA,050554.80,2234.16511192,N,11431.75884784,E,4,20,0.8,-4.0095,M,-1.3548,M,00,0000*5D
$GPRMC,050554.80,A,2234.16511192,N,11431.75884784,E,2.862,159.7,071224,3.4,W,D*2E
$GNVTG,163.012,T,166.450,M,2.75504,N,5.10233,K,D*38
$GNHDT,102.1411,T*1D
$GPGGA,050555.00,2234.16496504,N,11431.75889615,E,4,19,0.8,-3.9964,M,-1.3548,M,01,0000*57
$GPRMC,050555.00,A,2234.16496504,N,11431.75889615,E,2.755,163.0,071224,3.4,W,D*23
$GNVTG,164.342,T,167.780,M,2.79050,N,5.16800,K,D*32
$GNHDT,104.2794,T*16
$GPGGA,050555.20,2234.16481525,N,11431.75894136,E,4,19,0.8,-4.0216,M,-1.3548,M,01,0000*5A
$GPRMC,050555.20,A,2234.16481525,N,11431.75894136,E,2.790,164.3,071224,3.4,W,D*23
$GNVTG,165.394,T,168.832,M,2.79254,N,5.17178,K,D*30
$GNHDT,105.8939,T*14
$GPGGA,050555.40,2234.16466460,N,11431.75898363,E,4,20,0.8,-4.0173,M,-1.3547,M,01,0000*5E
$GPRMC,050555.40,A,2234.16466460,N,11431.75898363,E,2.793,165.4,071224,3.4,W,D*27
$GNVTG,168.023,T,171.461,M,2.87554,N,5.32550,K,D*3F
$GNHDT,107.2225,T*1A
$GPGGA,050555.60,2234.16450779,N,11431.75901945,E,4,19,0.8,-3.9983,M,-1.3547,M,01,0000*5E
$GPRMC,050555.60,A,2234.16450779,N,11431.75901945,E,2.876,168.0,071224,3.4,W,D*29
$GNVTG,166.646,T,170.084,M,2.83718,N,5.25446,K,D*34
$GNHDT,108.3523,T*15
$GPGGA,050555.80,2234.16435390,N,11431.75905878,E,4,19,0.8,-4.0345,M,-1.3547,M,00,0000*54
$GPRMC,050555.80,A,2234.16435390,N,11431.75905878,E,2.837,166.6,071224,3.4,W,D*21
$GNVTG,168.605,T,172.043,M,2.75158,N,5.09592,K,D*39
$GNHDT,109.7416,T*17
$GPGGA,050556.00,2234.16420353,N,11431.75909142,E,4,19,0.8,-4.0446,M,-1.3547,M,01,0000*5D
$GPRMC,050556.00,A,2234.16420353,N,11431.75909142,E,2.752,168.6,071224,3.4,W,D*2F
$GNVTG,170.945,T,174.383,M,2.85910,N,5.29505,K,D*35
$GNHDT,110.3934,T*16
$GPGGA,050556.20,2234.16404613,N,11431.75911843,E,4,19,0.8,-3.9918,M,-1.3547,M,01,0000*51
$GPRMC,050556.20,A,2234.16404613,N,11431.75911843,E,2.859,170.9,071224,3.4,W,D*29
$GNVTG,172.608,T,176.046,M,2.77667,N,5.14239,K,D*3D
$GNHDT,112.0507,T*1B
$GPGGA,050556.40,2234.16389263,N,11431.75913987,E,4,19,0.8,-3.9848,M,-1.3547,M,01,0000*59
$GPRMC,050556.40,A,2234.16389263,N,11431.75913987,E,2.777,172.6,071224,3.4,W,D*2B
$GNVTG,172.871,T,176.309,M,2.71632,N,5.03062,K,D*39
$GNHDT,113.1760,T*18
$GPGGA,050556.60,2234.16374237,N,11431.75916011,E,4,19,0.8,-3.9650,M,-1.3547,M,01,0000*5C
$GPRMC,050556.60,A,2234.16374237,N,11431.75916011,E,2.716,172.9,071224,3.4,W,D*21
$GNVTG,175.018,T,178.456,M,2.80222,N,5.18970,K,D*31
$GNHDT,114.3534,T*1E
$GPGGA,050556.80,2234.16358674,N,11431.75917471,E,4,19,0.8,-3.9193,M,-1.3547,M,00,0000*55
$GPRMC,050556.80,A,2234.16358674,N,11431.75917471,E,2.802,175.0,071224,3.4,W,D*25
$GNVTG,177.293,T,180.731,M,2.77768,N,5.14427,K,D*37
$GNHDT,114.7057,T*1A
$GPGGA,050557.00,2234.16343207,N,11431.75918259,E,4,19,0.8,-3.8544,M,-1.3547,M,01,0000*5B
$GPRMC,050557.00,A,2234.16343207,N,11431.75918259,E,2.778,177.3,071224,3.4,W,D*26
$GNVTG,178.638,T,182.075,M,2.72285,N,5.04271,K,D*3F
$GNHDT,115.4935,T*15
$GPGGA,050557.20,2234.16328032,N,11431.75918647,E,4,20,0.8,-3.8398,M,-1.3547,M,01,0000*56
$GPRMC,050557.20,A,2234.16328032,N,11431.75918647,E,2.723,178.6,071224,3.4,W,D*22
$GNVTG,179.766,T,183.204,M,2.81655,N,5.21625,K,D*36
$GNHDT,114.9313,T*17
$GPGGA,050557.40,2234.16312331,N,11431.75918716,E,4,20,0.8,-3.8439,M,-1.3547,M,01,0000*50
$GPRMC,050557.40,A,2234.16312331,N,11431.75918716,E,2.817,179.8,071224,3.4,W,D*2F
$GNVTG,180.214,T,183.651,M,2.83499,N,5.25040,K,D*35
$GNHDT,114.8940,T*1A
$GPGGA,050557.60,2234.16296527,N,11431.75918653,E,4,19,0.8,-3.8538,M,-1.3547,M,01,0000*54
$GPRMC,050557.60,A,2234.16296527,N,11431.75918653,E,2.835,180.2,071224,3.4,W,D*2D
$GNVTG,179.798,T,183.236,M,2.74090,N,5.07615,K,D*34
$GNHDT,114.9444,T*12
$GPGGA,050557.80,2234.16281247,N,11431.75918711,E,4,19,0.8,-3.8497,M,-1.3547,M,00,0000*5F
$GPRMC,050557.80,A,2234.16281247,N,11431.75918711,E,2.741,179.8,071224,3.4,W,D*23
$GNVTG,179.672,T,183.110,M,2.67957,N,4.96257,K,D*3D
$GNHDT,114.7665,T*1D
$GPGGA,050558.00,2234.16266309,N,11431.75918803,E,4,20,0.8,-3.8466,M,-1.3547,M,01,0000*53
$GPRMC,050558.00,A,2234.16266309,N,11431.75918803,E,2.680,179.7,071224,3.4,W,D*29
$GNVTG,178.543,T,181.981,M,2.66586,N,4.93718,K,D*35
$GNHDT,114.2100,T*1C
$GPGGA,050558.20,2234.16251453,N,11431.75919210,E,4,20,0.8,-3.8230,M,-1.3547,M,01,0000*51
$GPRMC,050558.20,A,2234.16251453,N,11431.75919210,E,2.666,178.5,071224,3.4,W,D*25
$GNVTG,179.831,T,183.269,M,2.67391,N,4.95208,K,D*30
$GNHDT,114.3866,T*14
$GPGGA,050558.40,2234.16236546,N,11431.75919257,E,4,20,0.8,-3.8713,M,-1.3547,M,01,0000*54
$GPRMC,050558.40,A,2234.16236546,N,11431.75919257,E,2.674,179.8,071224,3.4,W,D*2B
$GNVTG,178.818,T,182.256,M,2.67996,N,4.96328,K,D*3A
$GNHDT,113.3443,T*18
$GPGGA,050558.60,2234.16221610,N,11431.75919589,E,4,20,0.8,-3.9123,M,-1.3547,M,00,0000*51
$GPRMC,050558.60,A,2234.16221610,N,11431.75919589,E,2.680,178.8,071224,3.4,W,D*21
$GNVTG,175.764,T,179.202,M,2.66197,N,4.92997,K,D*34
$GNHDT,112.1462,T*18
$GPGGA,050558.80,2234.16206810,N,11431.75920769,E,4,19,0.8,-3.9732,M,-1.3547,M,00,0000*5E
$GPRMC,050558.80,A,2234.16206810,N,11431.75920769,E,2.662,175.8,071224,3.4,W,D*23
$GNVTG,176.422,T,179.860,M,2.55666,N,4.73493,K,D*37
$GNHDT,111.2913,T*13
$GPGGA,050559.00,2234.16192585,N,11431.75921727,E,4,19,0.8,-4.0027,M,-1.3547,M,01,0000*5F
$GPRMC,050559.00,A,2234.16192585,N,11431.75921727,E,2.557,176.4,071224,3.4,W,D*24
$GNVTG,175.297,T,178.735,M,2.57303,N,4.76525,K,D*3F
$GNHDT,110.7264,T*1C
$GPGGA,050559.20,2234.16178290,N,11431.75922993,E,4,19,0.8,-4.0169,M,-1.3547,M,01,0000*53
$GPRMC,050559.20,A,2234.16178290,N,11431.75922993,E,2.573,175.3,071224,3.4,W,D*21
$GNVTG,175.309,T,178.746,M,2.56923,N,4.75822,K,D*3D
$GNHDT,110.1537,T*1B
$GPGGA,050559.40,2234.16164015,N,11431.75924254,E,4,19,0.8,-4.0385,M,-1.3546,M,01,0000*50
$GPRMC,050559.40,A,2234.16164015,N,11431.75924254,E,2.569,175.3,071224,3.4,W,D*28
$GNVTG,173.597,T,177.035,M,2.51574,N,4.65915,K,D*3B
$GNHDT,110.0035,T*1D
$GPGGA,050559.60,2234.16150078,N,11431.75925938,E,4,20,0.8,-4.0633,M,-1.3546,M,01,0000*5C
$GPRMC,050559.60,A,2234.16150078,N,11431.75925938,E,2.516,173.6,071224,3.4,W,D*2D
$GNVTG,173.532,T,176.970,M,2.57679,N,4.77222,K,D*39
$GNHDT,109.4930,T*1D
$GPGGA,050559.80,2234.16135805,N,11431.75927681,E,4,20,0.8,-4.0335,M,-1.3546,M,00,0000*5E
$GPRMC,050559.80,A,2234.16135805,N,11431.75927681,E,2.577,173.5,071224,3.4,W,D*29
$GNVTG,170.677,T,174.115,M,2.67333,N,4.95101,K,D*37
$GNHDT,108.2693,T*1C
$GPGGA,050600.00,2234.16121098,N,11431.75930280,E,4,20,0.8,-4.0457,M,-1.3546,M,01,0000*51
$GPRMC,050600.00,A,2234.16121098,N,11431.75930280,E,2.673,170.7,071224,3.4,W,D*22
$GNVTG,173.064,T,176.502,M,2.60644,N,4.82713,K,D*31
$GNHDT,107.2708,T*10
$GPGGA,050600.20,2234.16106674,N,11431.75932170,E,4,20,0.8,-4.0073,M,-1.3546,M,01,0000*5E
$GPRMC,050600.20,A,2234.16106674,N,11431.75932170,E,2.606,173.1,071224,3.4,W,D*28
$GNVTG,171.985,T,175.423,M,2.72911,N,5.05432,K,D*36
$GNHDT,105.9418,T*1B
$GPGGA,050600.40,2234.16091609,N,11431.75934454,E,4,20,0.8,-4.0268,M,-1.3546,M,01,0000*50
$GPRMC,050600.40,A,2234.16091609,N,11431.75934454,E,2.729,172.0,071224,3.4,W,D*22
$GNVTG,172.821,T,176.259,M,2.66876,N,4.94255,K,D*39
$GNHDT,104.9279,T*1B
$GPGGA,050600.60,2234.16076848,N,11431.75936456,E,4,20,0.8,-4.0382,M,-1.3546,M,00,0000*54
$GPRMC,050600.60,A,2234.16076848,N,11431.75936456,E,2.669,172.8,071224,3.4,W,D*2F
$GNVTG,173.571,T,177.009,M,2.62387,N,4.85940,K,D*38
$GNHDT,103.8193,T*1A
$GPGGA,050600.80,2234.16062313,N,11431.75938219,E,4,20,0.8,-4.0353,M,-1.3546,M,00,0000*55
$GPRMC,050600.80,A,2234.16062313,N,11431.75938219,E,2.624,173.6,071224,3.4,W,D*24
$GNVTG,171.889,T,175.327,M,2.69105,N,4.98382,K,D*36
$GNHDT,103.1398,T*1A
$GPGGA,050601.00,2234.16047461,N,11431.75940499,E,4,20,0.8,-4.0239,M,-1.3546,M,01,0000*54
$GPRMC,050601.00,A,2234.16047461,N,11431.75940499,E,2.691,171.9,071224,3.4,W,D*2A
$GNVTG,174.012,T,177.450,M,2.65210,N,4.91169,K,D*39
$GNHDT,101.7146,T*1F
$GPGGA,050601.20,2234.16032757,N,11431.75942159,E,4,20,0.8,-4.0113,M,-1.3546,M,01,0000*52
$GPRMC,050601.20,A,2234.16032757,N,11431.75942159,E,2.652,174.0,071224,3.4,W,D*24
$GNVTG,169.513,T,172.951,M,2.65977,N,4.92589,K,D*3B
$GNHDT,101.2320,T*18
$GPGGA,050601.40,2234.16018177,N,11431.75945065,E,4,20,0.8,-4.0280,M,-1.3546,M,01,0000*58
$GPRMC,050601.40,A,2234.16018177,N,11431.75945065,E,2.660,169.5,071224,3.4,W,D*2F
$GNVTG,171.915,T,175.353,M,2.59077,N,4.79810,K,D*39
$GNHDT,100.3419,T*15
$GPGGA,050601.60,2234.16003878,N,11431.75947252,E,4,20,0.8,-4.0405,M,-1.3546,M,00,0000*58
$GPRMC,050601.60,A,2234.16003878,N,11431.75947252,E,2.591,171.9,071224,3.4,W,D*2D
$GNVTG,170.568,T,174.006,M,2.58050,N,4.77909,K,D*3F
$GNHDT,99.3950,T*24
$GPGGA,050601.80,2234.15989687,N,11431.75949791,E,4,20,0.8,-4.0497,M,-1.3546,M,00,0000*5F
$GPRMC,050601.80,A,2234.15989687,N,11431.75949791,E,2.581,170.6,071224,3.4,W,D*2E
$GNVTG,168.749,T,172.187,M,2.61408,N,4.84128,K,D*3D
$GNHDT,98.5630,T*2A
$GPGGA,050602.00,2234.15975394,N,11431.75952852,E,4,21,0.8,-4.0428,M,-1.3546,M,01,0000*5E
$GPRMC,050602.00,A,2234.15975394,N,11431.75952852,E,2.614,168.7,071224,3.4,W,D*2C
$GNVTG,168.657,T,172.095,M,2.67240,N,4.94928,K,D*34
$GNHDT,97.5152,T*26
$GPGGA,050602.20,2234.15960787,N,11431.75956007,E,4,21,0.8,-4.0739,M,-1.3546,M,01,0000*51
$GPRMC,050602.20,A,2234.15960787,N,11431.75956007,E,2.672,168.7,071224,3.4,W,D*20
$GNVTG,166.459,T,169.897,M,2.60488,N,4.82424,K,D*35
$GNHDT,96.7012,T*20
$GPGGA,050602.40,2234.15946669,N,11431.75959668,E,4,20,0.8,-4.0577,M,-1.3546,M,01,0000*5B
$GPRMC,050602.40,A,2234.15946669,N,11431.75959668,E,2.605,166.5,071224,3.4,W,D*2F
$GNVTG,167.238,T,170.676,M,2.68296,N,4.96885,K,D*3F
$GNHDT,95.3219,T*2E
$GPGGA,050602.60,2234.15932082,N,11431.75963226,E,4,20,0.8,-4.0340,M,-1.3546,M,01,0000*5C
$GPRMC,050602.60,A,2234.15932082,N,11431.75963226,E,2.683,167.2,071224,3.4,W,D*22
$GNVTG,164.521,T,167.959,M,2.71378,N,5.02593,K,D*38
$GNHDT,94.5428,T*2D
$GPGGA,050602.80,2234.15917502,N,11431.75967573,E,4,20,0.8,-4.0019,M,-1.3546,M,01,0000*54
$GPRMC,050602.80,A,2234.15917502,N,11431.75967573,E,2.714,164.5,071224,3.4,W,D*2E
$GNVTG,165.103,T,168.541,M,2.70886,N,5.01682,K,D*3C
$GNHDT,94.3009,T*2C
$GPGGA,050603.00,2234.15902909,N,11431.75971753,E,4,20,0.8,-3.9426,M,-1.3546,M,01,0000*5F
$GPRMC,050603.00,A,2234.15902909,N,11431.75971753,E,2.709,165.1,071224,3.4,W,D*2A
$GNVTG,164.042,T,167.480,M,2.73292,N,5.06137,K,D*38
$GNHDT,93.0782,T*2C
$GPGGA,050603.20,2234.15888260,N,11431.75976263,E,4,20,0.8,-3.8804,M,-1.3545,M,01,0000*55
$GPRMC,050603.20,A,2234.15888260,N,11431.75976263,E,2.733,164.0,071224,3.4,W,D*27
$GNVTG,162.916,T,166.353,M,2.70594,N,5.01139,K,D*35
$GNHDT,92.1544,T*24
$GPGGA,050603.40,2234.15873841,N,11431.75981035,E,4,20,0.8,-3.8594,M,-1.3545,M,01,0000*53
$GPRMC,050603.40,A,2234.15873841,N,11431.75981035,E,2.706,162.9,071224,3.4,W,D*2C
$GNVTG,160.501,T,163.939,M,2.77059,N,5.13113,K,D*36
$GNHDT,90.6164,T*27
$GPGGA,050603.60,2234.15859282,N,11431.75986586,E,4,20,0.8,-3.8374,M,-1.3545,M,00,0000*5F
$GPRMC,050603.60,A,2234.15859282,N,11431.75986586,E,2.771,160.5,071224,3.4,W,D*27
$GNVTG,161.879,T,165.317,M,2.67836,N,4.96033,K,D*3A
$GNHDT,89.4539,T*21
$GPGGA,050603.80,2234.15845091,N,11431.75991587,E,4,20,0.8,-3.8383,M,-1.3545,M,00,0000*53
$GPRMC,050603.80,A,2234.15845091,N,11431.75991587,E,2.678,161.9,071224,3.4,W,D*26
$GNVTG,161.062,T,164.500,M,2.65658,N,4.91998,K,D*32
$GNHDT,88.1208,T*20
$GPGGA,050604.00,2234.15831083,N,11431.75996762,E,4,19,0.8,-3.8515,M,-1.3545,M,01,0000*50
$GPRMC,050604.00,A,2234.15831083,N,11431.75996762,E,2.657,161.1,071224,3.4,W,D*22
$GNVTG,160.759,T,164.196,M,2.66920,N,4.94337,K,D*3E
$GNHDT,86.6097,T*2D
$GPGGA,050604.20,2234.15817034,N,11431.76002042,E,4,19,0.8,-3.8705,M,-1.3545,M,01,0000*5B
$GPRMC,050604.20,A,2234.15817034,N,11431.76002042,E,2.669,160.8,071224,3.4,W,D*2F
$GNVTG,161.170,T,164.607,M,2.62680,N,4.86483,K,D*37
$GNHDT,85.0186,T*29
$GPGGA,050604.40,2234.15803174,N,11431.76007131,E,4,19,0.8,-3.8867,M,-1.3545,M,01,0000*56
$GPRMC,050604.40,A,2234.15803174,N,11431.76007131,E,2.627,161.2,071224,3.4,W,D*28
$GNVTG,158.571,T,162.009,M,2.69917,N,4.99886,K,D*3B
$GNHDT,83.1054,T*20
$GPGGA,050604.60,2234.15789167,N,11431.76013051,E,4,19,0.8,-3.8804,M,-1.3545,M,01,0000*5C
$GPRMC,050604.60,A,2234.15789167,N,11431.76013051,E,2.699,158.6,071224,3.4,W,D*2C
$GNVTG,156.590,T,160.027,M,2.59515,N,4.80621,K,D*32
$GNHDT,82.0889,T*28
$GPGGA,050604.80,2234.15775891,N,11431.76019240,E,4,19,0.8,-3.8810,M,-1.3545,M,01,0000*5C
$GPRMC,050604.80,A,2234.15775891,N,11431.76019240,E,2.595,156.6,071224,3.4,W,D*28
$GNVTG,154.284,T,157.722,M,2.67860,N,4.96077,K,D*34
$GNHDT,80.8103,T*29
$GPGGA,050605.00,2234.15762438,N,11431.76026216,E,4,19,0.8,-3.8894,M,-1.3545,M,02,0000*5C
$GPRMC,050605.00,A,2234.15762438,N,11431.76026216,E,2.679,154.3,071224,3.4,W,D*21
$GNVTG,154.285,T,157.722,M,2.69266,N,4.98680,K,D*37
$GNHDT,79.6915,T*2E
$GPGGA,050605.20,2234.15748914,N,11431.76033229,E,4,19,0.8,-3.9310,M,-1.3545,M,02,0000*5B
$GPRMC,050605.20,A,2234.15748914,N,11431.76033229,E,2.693,154.3,071224,3.4,W,D*24
$GNVTG,151.043,T,154.481,M,2.75903,N,5.10972,K,D*35
$GNHDT,78.6641,T*21
$GPGGA,050605.40,2234.15735456,N,11431.76041248,E,4,19,0.8,-3.9585,M,-1.3545,M,02,0000*54
$GPRMC,050605.40,A,2234.15735456,N,11431.76041248,E,2.759,151.0,071224,3.4,W,D*20
$GNVTG,152.067,T,155.505,M,2.57121,N,4.76188,K,D*38
$GNHDT,78.5032,T*20
$GPGGA,050605.60,2234.15722792,N,11431.76048477,E,4,20,0.8,-3.9651,M,-1.3545,M,00,0000*5A
$GPRMC,050605.60,A,2234.15722792,N,11431.76048477,E,2.571,152.1,071224,3.4,W,D*26
$GNVTG,151.600,T,155.038,M,2.80037,N,5.18629,K,D*3E
$GNHDT,76.8104,T*27
$GPGGA,050605.80,2234.15709059,N,11431.76056472,E,4,19,0.8,-3.9473,M,-1.3544,M,00,0000*5E
$GPRMC,050605.80,A,2234.15709059,N,11431.76056472,E,2.800,151.6,071224,3.4,W,D*24
$GNVTG,149.955,T,153.393,M,2.70042,N,5.00118,K,D*3D
$GNHDT,75.9948,T*25
$GPGGA,050606.00,2234.15696028,N,11431.76064588,E,4,19,0.8,-3.9178,M,-1.3544,M,01,0000*5E
$GPRMC,050606.00,A,2234.15696028,N,11431.76064588,E,2.700,150.0,071224,3.4,W,D*23
$GNVTG,149.013,T,152.451,M,2.73719,N,5.06927,K,D*36
$GNHDT,74.7722,T*28
$GPGGA,050606.20,2234.15682947,N,11431.76073047,E,4,19,0.8,-3.9015,M,-1.3544,M,01,0000*53
$GPRMC,050606.20,A,2234.15682947,N,11431.76073047,E,2.737,149.0,071224,3.4,W,D*28
$GNVTG,148.509,T,151.947,M,2.73146,N,5.05867,K,D*3A
$GNHDT,74.5011,T*2D
$GPGGA,050606.40,2234.15669962,N,11431.76081612,E,4,19,0.8,-3.8947,M,-1.3544,M,01,0000*53
$GPRMC,050606.40,A,2234.15669962,N,11431.76081612,E,2.731,148.5,071224,3.4,W,D*25
$GNVTG,145.217,T,148.654,M,2.75792,N,5.10767,K,D*38
$GNHDT,73.9926,T*2B
$GPGGA,050606.60,2234.15657335,N,11431.76091056,E,4,19,0.8,-3.9074,M,-1.3544,M,00,0000*5A
$GPRMC,050606.60,A,2234.15657335,N,11431.76091056,E,2.758,145.2,071224,3.4,W,D*20
$GNVTG,146.476,T,149.914,M,2.78937,N,5.16591,K,D*31
$GNHDT,73.2878,T*2A
$GPGGA,050606.80,2234.15644371,N,11431.76100303,E,4,20,0.8,-3.9126,M,-1.3544,M,00,0000*50
$GPRMC,050606.80,A,2234.15644371,N,11431.76100303,E,2.789,146.5,071224,3.4,W,D*2E
$GNVTG,144.904,T,148.342,M,2.66720,N,4.93965,K,D*3F
$GNHDT,72.5151,T*2E
$GPGGA,050607.00,2234.15632206,N,11431.76109507,E,4,19,0.8,-3.9425,M,-1.3544,M,01,0000*5F
$GPRMC,050607.00,A,2234.15632206,N,11431.76109507,E,2.667,144.9,071224,3.4,W,D*23
$GNVTG,144.558,T,147.996,M,2.63450,N,4.87909,K,D*38
$GNHDT,72.2041,T*29
$GPGGA,050607.20,2234.15620240,N,11431.76118678,E,4,19,0.8,-3.9214,M,-1.3544,M,01,0000*53
$GPRMC,050607.20,A,2234.15620240,N,11431.76118678,E,2.634,144.6,071224,3.4,W,D*22
$GNVTG,144.763,T,148.201,M,2.77390,N,5.13726,K,D*39
$GNHDT,71.5073,T*2C
$GPGGA,050607.40,2234.15607610,N,11431.76128284,E,4,19,0.8,-3.9302,M,-1.3544,M,01,0000*53
$GPRMC,050607.40,A,2234.15607610,N,11431.76128284,E,2.774,144.8,071224,3.4,W,D*2F
$GNVTG,142.028,T,145.466,M,2.67469,N,4.95353,K,D*34
$GNHDT,71.3067,T*2F
$GPGGA,050607.60,2234.15595856,N,11431.76138162,E,4,19,0.8,-3.9933,M,-1.3544,M,01,0000*57
$GPRMC,050607.60,A,2234.15595856,N,11431.76138162,E,2.675,142.0,071224,3.4,W,D*2D
$GNVTG,139.159,T,142.597,M,2.82179,N,5.22595,K,D*39
$GNHDT,70.6764,T*2F
$GPGGA,050607.80,2234.15583955,N,11431.76149239,E,4,19,0.8,-4.0090,M,-1.3544,M,01,0000*59
$GPRMC,050607.80,A,2234.15583955,N,11431.76149239,E,2.822,139.2,071224,3.4,W,D*2F
$GNVTG,136.794,T,140.232,M,2.83382,N,5.24824,K,D*3D
$GNHDT,70.5296,T*24
$GPGGA,050608.00,2234.15572440,N,11431.76160885,E,4,19,0.8,-4.0689,M,-1.3543,M,02,0000*55
$GPRMC,050608.00,A,2234.15572440,N,11431.76160885,E,2.834,136.8,071224,3.4,W,D*2B
$GNVTG,139.130,T,142.568,M,2.82708,N,5.23576,K,D*3A
$GNHDT,69.7097,T*2D
$GPGGA,050608.20,2234.15560522,N,11431.76171989,E,4,19,0.8,-4.1008,M,-1.3543,M,02,0000*52
$GPRMC,050608.20,A,2234.15560522,N,11431.76171989,E,2.827,139.1,071224,3.4,W,D*26
$GNVTG,137.695,T,141.133,M,2.81886,N,5.22054,K,D*3B
$GNHDT,69.6799,T*25
$GPGGA,050608.40,2234.15548900,N,11431.76183377,E,4,19,0.8,-4.0871,M,-1.3543,M,02,0000*53
$GPRMC,050608.40,A,2234.15548900,N,11431.76183377,E,2.819,137.7,071224,3.4,W,D*25
$GNVTG,139.215,T,142.653,M,2.95604,N,5.47459,K,D*30
$GNHDT,69.0454,T*21
$GPGGA,050608.60,2234.15536423,N,11431.76194968,E,4,20,0.8,-4.0603,M,-1.3543,M,00,0000*55
$GPRMC,050608.60,A,2234.15536423,N,11431.76194968,E,2.956,139.2,071224,3.4,W,D*21
$GNVTG,136.262,T,139.700,M,2.87450,N,5.32358,K,D*30
$GNHDT,69.5379,T*2C
$GPGGA,050608.80,2234.15524845,N,11431.76206897,E,4,19,0.8,-4.0469,M,-1.3543,M,00,0000*59
$GPRMC,050608.80,A,2234.15524845,N,11431.76206897,E,2.875,136.3,071224,3.4,W,D*27
$GNVTG,138.128,T,141.566,M,2.94145,N,5.44757,K,D*37
$GNHDT,69.5953,T*2E
$GPGGA,050609.00,2234.15512635,N,11431.76218682,E,4,19,0.8,-3.9997,M,-1.3543,M,01,0000*5A
$GPRMC,050609.00,A,2234.15512635,N,11431.76218682,E,2.941,138.1,071224,3.4,W,D*2D
$GNVTG,135.918,T,139.355,M,2.95538,N,5.47336,K,D*37
$GNHDT,70.2533,T*2B
$GPGGA,050609.20,2234.15500800,N,11431.76231024,E,4,19,0.8,-4.0071,M,-1.3543,M,01,0000*5D
$GPRMC,050609.20,A,2234.15500800,N,11431.76231024,E,2.955,135.9,071224,3.4,W,D*25
$GNVTG,136.276,T,139.714,M,2.97750,N,5.51432,K,D*3C
$GNHDT,69.8652,T*2D
$GPGGA,050609.40,2234.15488804,N,11431.76243377,E,4,19,0.8,-3.9929,M,-1.3543,M,01,0000*54
$GPRMC,050609.40,A,2234.15488804,N,11431.76243377,E,2.977,136.3,071224,3.4,W,D*2F
$GNVTG,137.531,T,140.969,M,2.85183,N,5.28159,K,D*3E
$GNHDT,70.1916,T*23
$GPGGA,050609.60,2234.15477077,N,11431.76254935,E,4,19,0.8,-3.9962,M,-1.3543,M,00,0000*5E
$GPRMC,050609.60,A,2234.15477077,N,11431.76254935,E,2.852,137.5,071224,3.4,W,D*2A
$GNVTG,135.943,T,139.381,M,2.94355,N,5.45146,K,D*3B
$GNHDT,70.0028,T*26
$GPGGA,050609.80,2234.15465284,N,11431.76267221,E,4,20,0.8,-3.9977,M,-1.3542,M,00,0000*5C
$GPRMC,050609.80,A,2234.15465284,N,11431.76267221,E,2.944,135.9,071224,3.4,W,D*2F
$GNVTG,138.621,T,142.059,M,2.91560,N,5.39969,K,D*3C
$GNHDT,70.1430,T*2A
$GPGGA,050610.00,2234.15453088,N,11431.76278790,E,4,19,0.8,-4.0169,M,-1.3542,M,01,0000*54
$GPRMC,050610.00,A,2234.15453088,N,11431.76278790,E,2.916,138.6,071224,3.4,W,D*20
$GNVTG,136.513,T,139.950,M,2.98015,N,5.51924,K,D*35
$GNHDT,69.4662,T*22
$GPGGA,050610.20,2234.15441035,N,11431.76291101,E,4,19,0.8,-3.9398,M,-1.3542,M,01,0000*58
$GPRMC,050610.20,A,2234.15441035,N,11431.76291101,E,2.980,136.5,071224,3.4,W,D*2C
$GNVTG,136.539,T,139.976,M,2.94556,N,5.45517,K,D*3E
$GNHDT,69.6636,T*21
$GPGGA,050610.40,2234.15429116,N,11431.76303263,E,4,19,0.8,-3.9580,M,-1.3542,M,01,0000*52
$GPRMC,050610.40,A,2234.15429116,N,11431.76303263,E,2.946,136.5,071224,3.4,W,D*23
$GNVTG,137.408,T,140.845,M,3.04127,N,5.63242,K,D*3A
$GNHDT,69.1681,T*2A
$GPGGA,050610.60,2234.15416635,N,11431.76315618,E,4,19,0.8,-3.9325,M,-1.3542,M,00,0000*5D
$GPRMC,050610.60,A,2234.15416635,N,11431.76315618,E,3.041,137.4,071224,3.4,W,D*2B
$GNVTG,138.356,T,141.794,M,2.95926,N,5.48055,K,D*36
$GNHDT,69.2036,T*23
$GPGGA,050610.80,2234.15404306,N,11431.76327422,E,4,19,0.8,-3.9225,M,-1.3542,M,00,0000*5E
$GPRMC,050610.80,A,2234.15404306,N,11431.76327422,E,2.959,138.4,071224,3.4,W,D*27
$GNVTG,136.048,T,139.486,M,2.96336,N,5.48815,K,D*3F
$GNHDT,69.5649,T*2A
$GPGGA,050611.00,2234.15392413,N,11431.76339767,E,4,19,0.8,-3.9075,M,-1.3542,M,01,0000*57
$GPRMC,050611.00,A,2234.15392413,N,11431.76339767,E,2.963,136.0,071224,3.4,W,D*2B
$GNVTG,135.743,T,139.181,M,2.99244,N,5.54201,K,D*3B
$GNHDT,69.6995,T*27
$GPGGA,050611.20,2234.15380465,N,11431.76352303,E,4,20,0.8,-3.9308,M,-1.3542,M,01,0000*5F
$GPRMC,050611.20,A,2234.15380465,N,11431.76352303,E,2.992,135.7,071224,3.4,W,D*2A
$GNVTG,136.524,T,139.961,M,2.95349,N,5.46987,K,D*3B
$GNHDT,70.4785,T*22
$GPGGA,050611.40,2234.15368517,N,11431.76364501,E,4,20,0.8,-3.9203,M,-1.3542,M,01,0000*50
$GPRMC,050611.40,A,2234.15368517,N,11431.76364501,E,2.953,136.5,071224,3.4,W,D*23
$GNVTG,137.532,T,140.969,M,3.04403,N,5.63754,K,D*3C
$GNHDT,70.5045,T*28
$GPGGA,050611.60,2234.15356000,N,11431.76376838,E,4,20,0.8,-3.9565,M,-1.3542,M,00,0000*5E
$GPRMC,050611.60,A,2234.15356000,N,11431.76376838,E,3.044,137.5,071224,3.4,W,D*24
$GNVTG,137.363,T,140.801,M,3.07319,N,5.69154,K,D*32
$GNHDT,70.1697,T*25
$GPGGA,050611.80,2234.15343396,N,11431.76389333,E,4,20,0.8,-3.9480,M,-1.3542,M,00,0000*52
$GPRMC,050611.80,A,2234.15343396,N,11431.76389333,E,3.073,137.4,071224,3.4,W,D*27
$GNVTG,139.401,T,142.838,M,3.07915,N,5.70258,K,D*36
$GNHDT,69.7649,T*28
$GPGGA,050612.00,2234.15330363,N,11431.76401361,E,4,20,0.8,-3.9726,M,-1.3541,M,01,0000*5A
$GPRMC,050612.00,A,2234.15330363,N,11431.76401361,E,3.079,139.4,071224,3.4,W,D*26
$GNVTG,137.171,T,140.608,M,3.09124,N,5.72498,K,D*39
$GNHDT,69.8476,T*29
$GPGGA,050612.20,2234.15317725,N,11431.76413975,E,4,20,0.8,-3.9686,M,-1.3541,M,01,0000*5C
$GPRMC,050612.20,A,2234.15317725,N,11431.76413975,E,3.091,137.2,071224,3.4,W,D*25
$GNVTG,135.396,T,138.834,M,3.11804,N,5.77461,K,D*3F
$GNHDT,69.4725,T*20
$GPGGA,050612.40,2234.15305349,N,11431.76427118,E,4,20,0.8,-3.9702,M,-1.3541,M,01,0000*5E
$GPRMC,050612.40,A,2234.15305349,N,11431.76427118,E,3.118,135.4,071224,3.4,W,D*2E
$GNVTG,134.301,T,137.739,M,3.20055,N,5.92741,K,D*39
$GNHDT,68.8676,T*2A
$GPGGA,050612.60,2234.15292888,N,11431.76440867,E,4,19,0.8,-4.0131,M,-1.3541,M,01,0000*57
$GPRMC,050612.60,A,2234.15292888,N,11431.76440867,E,3.201,134.3,071224,3.4,W,D*28
$GNVTG,132.135,T,135.573,M,3.10138,N,5.74375,K,D*36
$GNHDT,68.9447,T*2B
$GPGGA,050612.80,2234.15281289,N,11431.76454672,E,4,18,0.8,-3.9766,M,-1.3541,M,00,0000*55
$GPRMC,050612.80,A,2234.15281289,N,11431.76454672,E,3.101,132.1,071224,3.4,W,D*27
$GNVTG,135.000,T,138.438,M,3.14126,N,5.81762,K,D*36
$GNHDT,68.8813,T*27
$GPGGA,050613.00,2234.15268906,N,11431.76468005,E,4,18,0.8,-3.9630,M,-1.3541,M,01,0000*5D
$GPRMC,050613.00,A,2234.15268906,N,11431.76468005,E,3.141,135.0,071224,3.4,W,D*2E
$GNVTG,133.753,T,137.190,M,3.11284,N,5.76498,K,D*39
$GNHDT,69.4001,T*21
$GPGGA,050613.20,2234.15256905,N,11431.76481502,E,4,18,0.8,-3.9732,M,-1.3541,M,01,0000*57
$GPRMC,050613.20,A,2234.15256905,N,11431.76481502,E,3.113,133.8,071224,3.4,W,D*2E
$GNVTG,133.011,T,136.449,M,3.18724,N,5.90276,K,D*30
$GNHDT,69.3345,T*25
$GPGGA,050613.40,2234.15244785,N,11431.76495491,E,4,18,0.8,-3.9326,M,-1.3540,M,01,0000*5A
$GPRMC,050613.40,A,2234.15244785,N,11431.76495491,E,3.187,133.0,071224,3.4,W,D*26
$GNVTG,133.871,T,137.309,M,3.21510,N,5.95436,K,D*34
$GNHDT,69.6551,T*23
$GPGGA,050613.60,2234.15232364,N,11431.76509404,E,4,18,0.8,-3.9347,M,-1.3540,M,01,0000*5D
$GPRMC,050613.60,A,2234.15232364,N,11431.76509404,E,3.215,133.9,071224,3.4,W,D*27
$GNVTG,131.928,T,135.366,M,3.32553,N,6.15888,K,D*37
$GNHDT,69.3107,T*21
$GPGGA,050613.80,2234.15219976,N,11431.76524255,E,4,18,0.8,-3.9156,M,-1.3540,M,00,0000*5D
$GPRMC,050613.80,A,2234.15219976,N,11431.76524255,E,3.326,131.9,071224,3.4,W,D*27
$GNVTG,133.885,T,137.323,M,3.15116,N,5.83596,K,D*3E
$GNHDT,69.1220,T*25
$GPGGA,050614.00,2234.15207798,N,11431.76537888,E,4,18,0.8,-3.9355,M,-1.3540,M,01,0000*5B
$GPRMC,050614.00,A,2234.15207798,N,11431.76537888,E,3.151,133.9,071224,3.4,W,D*21
$GNVTG,135.924,T,139.362,M,2.99083,N,5.53902,K,D*3D
$GNHDT,69.7196,T*2D
$GPGGA,050614.20,2234.15195820,N,11431.76550376,E,4,18,0.8,-3.9228,M,-1.3540,M,01,0000*5D
$GPRMC,050614.20,A,2234.15195820,N,11431.76550376,E,2.991,135.9,071224,3.4,W,D*2F
$GNVTG,134.045,T,137.482,M,3.10085,N,5.74277,K,D*3F
$GNHDT,69.6709,T*2C
$GPGGA,050614.40,2234.15183802,N,11431.76563755,E,4,18,0.8,-3.9078,M,-1.3540,M,01,0000*5E
$GPRMC,050614.40,A,2234.15183802,N,11431.76563755,E,3.101,134.0,071224,3.4,W,D*23
$GNVTG,135.887,T,139.325,M,3.07878,N,5.70191,K,D*3F
$GNHDT,69.2679,T*2E
$GPGGA,050614.60,2234.15171480,N,11431.76576619,E,4,18,0.8,-3.9037,M,-1.3540,M,01,0000*51
$GPRMC,050614.60,A,2234.15171480,N,11431.76576619,E,3.079,135.9,071224,3.4,W,D*21
$GNVTG,135.308,T,138.745,M,3.12579,N,5.78897,K,D*3F
$GNHDT,68.8914,T*21
$GPGGA,050614.80,2234.15159092,N,11431.76589814,E,4,18,0.8,-3.9272,M,-1.3540,M,00,0000*53
$GPRMC,050614.80,A,2234.15159092,N,11431.76589814,E,3.126,135.3,071224,3.4,W,D*20
$GNVTG,132.936,T,136.374,M,3.20019,N,5.92675,K,D*33
$GNHDT,68.3453,T*24
$GPGGA,050615.00,2234.15146940,N,11431.76603878,E,4,18,0.8,-3.9216,M,-1.3540,M,01,0000*5A
$GPRMC,050615.00,A,2234.15146940,N,11431.76603878,E,3.200,132.9,071224,3.4,W,D*20
$GNVTG,131.064,T,134.501,M,3.03832,N,5.62697,K,D*3B
$GNHDT,68.5466,T*24
$GPGGA,050615.20,2234.15135813,N,11431.76617629,E,4,18,0.8,-3.9132,M,-1.3540,M,01,0000*51
$GPRMC,050615.20,A,2234.15135813,N,11431.76617629,E,3.038,131.1,071224,3.4,W,D*2C
$GNVTG,135.916,T,139.354,M,3.06372,N,5.67401,K,D*3A
$GNHDT,68.4738,T*2D
$GPGGA,050615.40,2234.15123545,N,11431.76630423,E,4,18,0.8,-3.9681,M,-1.3539,M,01,0000*52
$GPRMC,050615.40,A,2234.15123545,N,11431.76630423,E,3.064,135.9,071224,3.4,W,D*2B
$GNVTG,134.474,T,137.911,M,3.12759,N,5.79230,K,D*34
$GNHDT,67.8203,T*23
$GPGGA,050615.60,2234.15111330,N,11431.76643819,E,4,18,0.8,-3.9603,M,-1.3539,M,01,0000*5E
$GPRMC,050615.60,A,2234.15111330,N,11431.76643819,E,3.128,134.5,071224,3.4,W,D*29
$GNVTG,131.864,T,135.301,M,3.13281,N,5.80197,K,D*3C
$GNHDT,68.1102,T*27
$GPGGA,050615.80,2234.15099675,N,11431.76657824,E,4,18,0.8,-3.9659,M,-1.3539,M,00,0000*50
$GPRMC,050615.80,A,2234.15099675,N,11431.76657824,E,3.133,131.9,071224,3.4,W,D*2A
$GNVTG,133.429,T,136.867,M,3.20622,N,5.93792,K,D*3F
$GNHDT,67.5449,T*26
$GPGGA,050616.00,2234.15087387,N,11431.76671801,E,4,18,0.8,-3.9944,M,-1.3539,M,01,0000*5D
$GPRMC,050616.00,A,2234.15087387,N,11431.76671801,E,3.206,133.4,071224,3.4,W,D*2F
$GNVTG,132.369,T,135.807,M,3.10987,N,5.75948,K,D*3A
$GNHDT,67.5019,T*27
$GPGGA,050616.20,2234.15075704,N,11431.76685592,E,4,18,0.8,-4.0122,M,-1.3539,M,01,0000*57
$GPRMC,050616.20,A,2234.15075704,N,11431.76685592,E,3.110,132.4,071224,3.4,W,D*26
$GNVTG,133.091,T,136.529,M,3.15722,N,5.84718,K,D*3C
$GNHDT,67.2171,T*2F
$GPGGA,050616.40,2234.15063680,N,11431.76699432,E,4,18,0.8,-4.0002,M,-1.3539,M,01,0000*5E
$GPRMC,050616.40,A,2234.15063680,N,11431.76699432,E,3.157,133.1,071224,3.4,W,D*2B
$GNVTG,134.345,T,137.783,M,3.17972,N,5.88884,K,D*3D
$GNHDT,67.8834,T*2D
$GPGGA,050616.60,2234.15051289,N,11431.76713081,E,4,18,0.8,-3.9951,M,-1.3539,M,01,0000*5E
$GPRMC,050616.60,A,2234.15051289,N,11431.76713081,E,3.180,134.3,071224,3.4,W,D*25
$GNVTG,130.780,T,134.218,M,3.28095,N,6.07633,K,D*3A
$GNHDT,67.6966,T*25
$GPGGA,050616.80,2234.15039343,N,11431.76727994,E,4,18,0.8,-3.9923,M,-1.3539,M,00,0000*57
$GPRMC,050616.80,A,2234.15039343,N,11431.76727994,E,3.281,130.8,071224,3.4,W,D*25
$GNVTG,132.936,T,136.374,M,3.22816,N,5.97854,K,D*3E
$GNHDT,66.8277,T*21
$GPGGA,050617.00,2234.15027084,N,11431.76742181,E,4,18,0.8,-3.9601,M,-1.3539,M,01,0000*58
$GPRMC,050617.00,A,2234.15027084,N,11431.76742181,E,3.228,132.9,071224,3.4,W,D*24
$GNVTG,132.478,T,135.916,M,3.23903,N,5.99868,K,D*31
$GNHDT,66.4073,T*2B
$GPGGA,050617.20,2234.15014891,N,11431.76756520,E,4,18,0.8,-3.9907,M,-1.3539,M,01,0000*55
$GPRMC,050617.20,A,2234.15014891,N,11431.76756520,E,3.239,132.5,071224,3.4,W,D*2C
$GNVTG,131.480,T,134.918,M,3.06552,N,5.67733,K,D*35
$GNHDT,66.6695,T*27
$GPGGA,050617.40,2234.15003571,N,11431.76770306,E,4,18,0.8,-4.0010,M,-1.3538,M,01,0000*50
$GPRMC,050617.40,A,2234.15003571,N,11431.76770306,E,3.066,131.5,071224,3.4,W,D*22
$GNVTG,131.573,T,135.010,M,3.18511,N,5.89883,K,D*34
$GNHDT,66.7423,T*29
$GPGGA,050617.60,2234.14991789,N,11431.76784609,E,4,18,0.8,-4.0027,M,-1.3538,M,01,0000*51
