34.03471823,N,11431.92619837,E,4,25,0.6,3.3949,M,-1.3414,M,01,0000*72
$GPRMC,095029.60,A,2234.03471823,N,11431.92619837,E,0.078,155.9,041224,3.4,W,D*22
$GNVTG,240.583,T,244.013,M,0.05985,N,0.11085,K,D*3C
$GNHDT,236.5245,T*1A
$GPGGA,095029.80,2234.03471659,N,11431.92619524,E,4,25,0.6,3.3977,M,-1.3414,M,00,0000*7C
$GPRMC,095029.80,A,2234.03471659,N,11431.92619524,E,0.060,240.6,041224,3.4,W,D*21
$GNVTG,170.386,T,173.816,M,0.08141,N,0.15077,K,D*31
$GNHDT,236.6512,T*1C
$GPGGA,095030.00,2234.03471212,N,11431.92619605,E,4,25,0.6,3.3859,M,-1.3414,M,01,0000*7B
$GPRMC,095030.00,A,2234.03471212,N,11431.92619605,E,0.081,170.4,041224,3.4,W,D*27
$GNVTG,283.394,T,286.824,M,0.03428,N,0.06349,K,D*38
$GNHDT,236.2534,T*1C
$GPGGA,095030.20,2234.03471256,N,11431.92619405,E,4,25,0.6,3.3824,M,-1.3414,M,01,0000*71
$GPRMC,095030.20,A,2234.03471256,N,11431.92619405,E,0.034,283.4,041224,3.4,W,D*26
$GNVTG,232.971,T,236.400,M,0.03909,N,0.07239,K,D*3B
$GNHDT,236.2376,T*1C
$GPGGA,095030.40,2234.03471125,N,11431.92619218,E,4,25,0.6,3.3899,M,-1.3414,M,01,0000*7C
$GPRMC,095030.40,A,2234.03471125,N,11431.92619218,E,0.039,233.0,041224,3.4,W,D*2F
$GNVTG,130.083,T,133.512,M,0.04020,N,0.07444,K,D*33
$GNHDT,236.3792,T*13
$GPGGA,095030.60,2234.03470980,N,11431.92619402,E,4,25,0.6,3.3869,M,-1.3414,M,01,0000*7A
$GPRMC,095030.60,A,2234.03470980,N,11431.92619402,E,0.040,130.1,041224,3.4,W,D*29
$GNVTG,217.122,T,220.551,M,0.02004,N,0.03711,K,D*3E
$GNHDT,236.1838,T*1E
$GPGGA,095030.80,2234.03470891,N,11431.92619330,E,4,25,0.6,3.3909,M,-1.3414,M,00,0000*75
$GPRMC,095030.80,A,2234.03470891,N,11431.92619330,E,0.020,217.1,041224,3.4,W,D*20
$GNVTG,247.638,T,251.068,M,0.09225,N,0.17084,K,D*3A
$GNHDT,236.1922,T*14
$GPGGA,095031.00,2234.03470696,N,11431.92618818,E,4,25,0.6,3.3965,M,-1.3414,M,01,0000*7E
$GPRMC,095031.00,A,2234.03470696,N,11431.92618818,E,0.092,247.6,041224,3.4,W,D*2B
$GNVTG,150.002,T,153.432,M,0.07711,N,0.14280,K,D*33
$GNHDT,236.1606,T*1D
$GPGGA,095031.20,2234.03470323,N,11431.92619049,E,4,25,0.6,3.3822,M,-1.3414,M,01,0000*78
$GPRMC,095031.20,A,2234.03470323,N,11431.92619049,E,0.077,150.0,041224,3.4,W,D*27
$GNVTG,198.288,T,201.717,M,0.07798,N,0.14441,K,D*3D
$GNHDT,236.4742,T*19
$GPGGA,095031.40,2234.03469911,N,11431.92618902,E,4,26,0.6,3.3778,M,-1.3414,M,01,0000*79
$GPRMC,095031.40,A,2234.03469911,N,11431.92618902,E,0.078,198.3,041224,3.4,W,D*2D
$GNVTG,337.478,T,340.907,M,0.01620,N,0.03000,K,D*3B
$GNHDT,235.9613,T*12
$GPGGA,095031.60,2234.03469994,N,11431.92618865,E,4,26,0.6,3.3783,M,-1.3414,M,01,0000*72
$GPRMC,095031.60,A,2234.03469994,N,11431.92618865,E,0.016,337.5,041224,3.4,W,D*2B
$GNVTG,272.870,T,276.300,M,0.08264,N,0.15304,K,D*3B
$GNHDT,235.6782,T*14
$GPGGA,095031.80,2234.03470017,N,11431.92618370,E,4,26,0.6,3.3716,M,-1.3414,M,00,0000*74
$GPRMC,095031.80,A,2234.03470017,N,11431.92618370,E,0.083,272.9,041224,3.4,W,D*20
$GNVTG,151.088,T,154.518,M,0.00765,N,0.01417,K,D*36
$GNHDT,235.7765,T*1C
$GPGGA,095032.00,2234.03469980,N,11431.92618392,E,4,26,0.6,3.3725,M,-1.3414,M,01,0000*7D
$GPRMC,095032.00,A,2234.03469980,N,11431.92618392,E,0.008,151.1,041224,3.4,W,D*21
$GNVTG,354.226,T,357.656,M,0.05516,N,0.10216,K,D*3B
$GNHDT,235.8106,T*10
$GPGGA,095032.20,2234.03470286,N,11431.92618359,E,4,19,0.7,3.3195,M,-1.3414,M,01,0000*7D
$GPRMC,095032.20,A,2234.03470286,N,11431.92618359,E,0.055,354.2,041224,3.4,W,D*2D
$GNVTG,244.718,T,248.148,M,0.04285,N,0.07936,K,D*37
$GNHDT,235.5136,T*1E
$GPGGA,095032.40,2234.03470184,N,11431.92618126,E,4,19,0.7,3.3591,M,-1.3414,M,01,0000*70
$GPRMC,095032.40,A,2234.03470184,N,11431.92618126,E,0.043,244.7,041224,3.4,W,D*22
$GNVTG,246.651,T,250.081,M,0.06047,N,0.11198,K,D*31
$GNHDT,234.3735,T*1C
$GPGGA,095032.60,2234.03470050,N,11431.92617793,E,4,19,0.7,3.3513,M,-1.3414,M,01,0000*77
$GPRMC,095032.60,A,2234.03470050,N,11431.92617793,E,0.060,246.7,041224,3.4,W,D*2C
$GNVTG,175.771,T,179.201,M,0.12585,N,0.23308,K,D*37
$BDHDT,235.7423,T*12
$GPGGA,095032.80,2234.03469350,N,11431.92617849,E,4,19,0.7,3.3865,M,-1.3414,M,00,0000*77
$GPRMC,095032.80,A,2234.03469350,N,11431.92617849,E,0.126,175.8,041224,3.4,W,D*2E
$GNVTG,217.525,T,220.954,M,0.06403,N,0.11858,K,D*32
$BDHDT,235.8537,T*19
$GPGGA,095033.00,2234.03469067,N,11431.92617614,E,4,21,0.7,3.4134,M,-1.3414,M,01,0000*7F
$GPRMC,095033.00,A,2234.03469067,N,11431.92617614,E,0.064,217.5,041224,3.4,W,D*2B
$GNVTG,290.716,T,294.145,M,0.05157,N,0.09551,K,D*32
$BDHDT,234.9845,T*11
$GPGGA,095033.20,2234.03469169,N,11431.92617325,E,4,21,0.7,3.4307,M,-1.3414,M,01,0000*77
$GPRMC,095033.20,A,2234.03469169,N,11431.92617325,E,0.052,290.7,041224,3.4,W,D*29
$GNVTG,26.171,T,29.600,M,0.10309,N,0.19092,K,D*3E
$GNHDT,235.4715,T*18
$GPGGA,095033.40,2234.03469685,N,11431.92617598,E,4,21,0.7,3.3974,M,-1.3414,M,01,0000*7D
$GPRMC,095033.40,A,2234.03469685,N,11431.92617598,E,0.103,26.2,041224,3.4,W,D*15
$GNVTG,76.160,T,79.590,M,0.03077,N,0.05698,K,D*3D
$GNHDT,235.7193,T*13
$GPGGA,095033.60,2234.03469726,N,11431.92617777,E,4,21,0.7,3.4026,M,-1.3414,M,00,0000*7C
$GPRMC,095033.60,A,2234.03469726,N,11431.92617777,E,0.031,76.2,041224,3.4,W,D*19
$GNVTG,87.052,T,90.481,M,0.05960,N,0.11038,K,D*35
$GNHDT,235.1136,T*1A
$GPGGA,095033.80,2234.03469743,N,11431.92618134,E,4,20,0.7,3.3875,M,-1.3414,M,00,0000*77
$GPRMC,095033.80,A,2234.03469743,N,11431.92618134,E,0.060,87.1,041224,3.4,W,D*13
$GNVTG,214.413,T,217.842,M,0.06134,N,0.11360,K,D*36
$GNHDT,235.4548,T*12
$GPGGA,095034.00,2234.03469461,N,11431.92617926,E,4,21,0.7,3.4050,M,-1.3414,M,01,0000*77
$GPRMC,095034.00,A,2234.03469461,N,11431.92617926,E,0.061,214.4,041224,3.4,W,D*27
$GNVTG,103.311,T,106.740,M,0.15186,N,0.28125,K,D*3A
$GNHDT,235.9397,T*1B
$GPGGA,095034.20,2234.03469266,N,11431.92618813,E,4,26,0.6,3.3930,M,-1.3414,M,01,0000*72
$GPRMC,095034.20,A,2234.03469266,N,11431.92618813,E,0.152,103.3,041224,3.4,W,D*2F
$GNVTG,226.355,T,229.784,M,0.07533,N,0.13951,K,D*32
$GNHDT,235.3246,T*1C
$GPGGA,095034.40,2234.03468976,N,11431.92618486,E,4,25,0.6,3.3942,M,-1.3414,M,01,0000*79
$GPRMC,095034.40,A,2234.03468976,N,11431.92618486,E,0.075,226.4,041224,3.4,W,D*25
$GNVTG,319.848,T,323.277,M,0.06680,N,0.12370,K,D*38
$GNHDT,235.4489,T*1E
$GPGGA,095034.60,2234.03469261,N,11431.92618228,E,4,25,0.6,3.3805,M,-1.3414,M,00,0000*76
$GPRMC,095034.60,A,2234.03469261,N,11431.92618228,E,0.067,319.8,041224,3.4,W,D*2B
$GNVTG,222.774,T,226.203,M,0.00888,N,0.01645,K,D*37
$GNHDT,235.1702,T*1B
$GPGGA,095034.80,2234.03469224,N,11431.92618191,E,4,25,0.6,3.3792,M,-1.3414,M,00,0000*79
$GPRMC,095034.80,A,2234.03469224,N,11431.92618191,E,0.009,222.8,041224,3.4,W,D*24
$GNVTG,147.934,T,151.363,M,0.04023,N,0.07450,K,D*34
$GNHDT,234.9818,T*16
$GPGGA,095035.00,2234.03469034,N,11431.92618320,E,4,25,0.6,3.3713,M,-1.3414,M,01,0000*73
$GPRMC,095035.00,A,2234.03469034,N,11431.92618320,E,0.040,147.9,041224,3.4,W,D*2A
$GNVTG,207.232,T,210.662,M,0.05813,N,0.10765,K,D*35
$GNHDT,235.2518,T*11
$GPGGA,095035.20,2234.03468746,N,11431.92618160,E,4,26,0.6,3.4094,M,-1.3414,M,01,0000*78
$GPRMC,095035.20,A,2234.03468746,N,11431.92618160,E,0.058,207.2,041224,3.4,W,D*28
$GNVTG,28.318,T,31.748,M,0.05168,N,0.09571,K,D*31
$GNHDT,235.6104,T*1C
$GPGGA,095035.40,2234.03469000,N,11431.92618307,E,4,26,0.6,3.3800,M,-1.3414,M,01,0000*7B
$GPRMC,095035.40,A,2234.03469000,N,11431.92618307,E,0.052,28.3,041224,3.4,W,D*1D
$GNVTG,219.106,T,222.535,M,0.08612,N,0.15950,K,D*31
$GNHDT,235.3324,T*19
$GPGGA,095035.60,2234.03468627,N,11431.92617981,E,4,26,0.6,3.3937,M,-1.3414,M,00,0000*74
$GPRMC,095035.60,A,2234.03468627,N,11431.92617981,E,0.086,219.1,041224,3.4,W,D*2D
$GNVTG,326.929,T,330.359,M,0.03099,N,0.05740,K,D*37
$GNHDT,235.1592,T*10
$GPGGA,095035.80,2234.03468772,N,11431.92617880,E,4,26,0.6,3.3925,M,-1.3414,M,00,0000*78
$GPRMC,095035.80,A,2234.03468772,N,11431.92617880,E,0.031,326.9,041224,3.4,W,D*2B
$GNVTG,207.743,T,211.172,M,0.08127,N,0.15052,K,D*34
$GNHDT,235.1207,T*1B
$GPGGA,095036.00,2234.03468371,N,11431.92617652,E,4,25,0.6,3.4073,M,-1.3414,M,01,0000*7A
$GPRMC,095036.00,A,2234.03468371,N,11431.92617652,E,0.081,207.7,041224,3.4,W,D*21
$GNVTG,270.602,T,274.032,M,0.11367,N,0.21052,K,D*3F
$GNHDT,234.9442,T*15
$GPGGA,095036.20,2234.03468378,N,11431.92616970,E,4,26,0.6,3.4049,M,-1.3414,M,01,0000*75
$GPRMC,095036.20,A,2234.03468378,N,11431.92616970,E,0.114,270.6,041224,3.4,W,D*28
$GNVTG,122.179,T,125.608,M,0.02869,N,0.05313,K,D*3F
$GNHDT,234.9489,T*12
$GPGGA,095036.40,2234.03468293,N,11431.92617116,E,4,26,0.6,3.3939,M,-1.3414,M,01,0000*77
$GPRMC,095036.40,A,2234.03468293,N,11431.92617116,E,0.029,122.2,041224,3.4,W,D*2C
$GNVTG,222.413,T,225.842,M,0.04063,N,0.07525,K,D*33
$GNHDT,235.0998,T*17
$GPGGA,095036.60,2234.03468125,N,11431.92616951,E,4,26,0.6,3.4026,M,-1.3414,M,01,0000*71
$GPRMC,095036.60,A,2234.03468125,N,11431.92616951,E,0.041,222.4,041224,3.4,W,D*21
$GNVTG,242.403,T,245.832,M,0.01964,N,0.03638,K,D*35
$GNHDT,234.8241,T*11
$GPGGA,095036.80,2234.03468075,N,11431.92616847,E,4,26,0.6,3.3878,M,-1.3414,M,01,0000*79
$GPRMC,095036.80,A,2234.03468075,N,11431.92616847,E,0.020,242.4,041224,3.4,W,D*2C
$GNVTG,329.930,T,333.360,M,0.02535,N,0.04696,K,D*30
$GNHDT,234.8018,T*1F
$GPGGA,095037.00,2234.03468197,N,11431.92616771,E,4,26,0.6,3.3723,M,-1.3414,M,02,0000*75
$GPRMC,095037.00,A,2234.03468197,N,11431.92616771,E,0.025,329.9,041224,3.4,W,D*26
$GNVTG,83.703,T,87.133,M,0.11467,N,0.21236,K,D*38
$GNHDT,235.0385,T*11
$GPGGA,095037.20,2234.03468267,N,11431.92617455,E,4,26,0.6,3.3749,M,-1.3414,M,02,0000*73
$GPRMC,095037.20,A,2234.03468267,N,11431.92617455,E,0.115,83.7,041224,3.4,W,D*13
$GNVTG,301.851,T,305.280,M,0.12226,N,0.22643,K,D*3E
$GNHDT,234.9775,T*12
$GPGGA,095037.40,2234.03468627,N,11431.92616831,E,4,26,0.6,3.3635,M,-1.3414,M,02,0000*70
$GPRMC,095037.40,A,2234.03468627,N,11431.92616831,E,0.122,301.9,041224,3.4,W,D*29
$GNVTG,222.806,T,226.236,M,0.04920,N,0.09112,K,D*31
$GNHDT,235.1428,T*10
$GPGGA,095037.60,2234.03468426,N,11431.92616631,E,4,26,0.6,3.3645,M,-1.3414,M,02,0000*78
$GPRMC,095037.60,A,2234.03468426,N,11431.92616631,E,0.049,222.8,041224,3.4,W,D*2B
$GNVTG,113.823,T,117.253,M,0.06660,N,0.12335,K,D*31
$GNHDT,234.9429,T*18
$GPGGA,095037.80,2234.03468276,N,11431.92616997,E,4,26,0.6,3.3745,M,-1.3414,M,00,0000*75
$GPRMC,095037.80,A,2234.03468276,N,11431.92616997,E,0.067,113.8,041224,3.4,W,D*28
$GNVTG,306.009,T,309.439,M,0.00660,N,0.01223,K,D*32
$GNHDT,234.7809,T*18
$GPGGA,095038.00,2234.03468297,N,11431.92616964,E,4,26,0.6,3.3833,M,-1.3414,M,01,0000*7E
$GPRMC,095038.00,A,2234.03468297,N,11431.92616964,E,0.007,306.0,041224,3.4,W,D*24
$GNVTG,125.248,T,128.678,M,0.06140,N,0.11371,K,D*34
$GNHDT,234.9087,T*18
$GPGGA,095038.20,2234.03468100,N,11431.92617265,E,4,26,0.6,3.3884,M,-1.3414,M,01,0000*76
$GPRMC,095038.20,A,2234.03468100,N,11431.92617265,E,0.061,125.2,041224,3.4,W,D*21
$GNVTG,137.810,T,141.240,M,0.02292,N,0.04246,K,D*39
$GNHDT,234.9589,T*13
$GPGGA,095038.40,2234.03468005,N,11431.92617358,E,4,26,0.6,3.3910,M,-1.3414,M,01,0000*77
$GPRMC,095038.40,A,2234.03468005,N,11431.92617358,E,0.023,137.8,041224,3.4,W,D*23
$GNVTG,114.748,T,118.178,M,0.03579,N,0.06627,K,D*3C
$GNHDT,234.9884,T*13
$GPGGA,095038.60,2234.03467921,N,11431.92617553,E,4,26,0.6,3.3880,M,-1.3414,M,01,0000*70
$GPRMC,095038.60,A,2234.03467921,N,11431.92617553,E,0.036,114.7,041224,3.4,W,D*26
$GNVTG,350.699,T,354.128,M,0.05640,N,0.10445,K,D*32
$GNHDT,234.7888,T*11
$GPGGA,095038.80,2234.03468232,N,11431.92617498,E,4,26,0.6,3.3840,M,-1.3414,M,00,0000*73
$GPRMC,095038.80,A,2234.03468232,N,11431.92617498,E,0.056,350.7,041224,3.4,W,D*2C
$GNVTG,281.012,T,284.442,M,0.06648,N,0.12311,K,D*30
$GNHDT,235.0185,T*13
$GPGGA,095039.00,2234.03468303,N,11431.92617107,E,4,26,0.6,3.3706,M,-1.3414,M,01,0000*76
$GPRMC,095039.00,A,2234.03468303,N,11431.92617107,E,0.066,281.0,041224,3.4,W,D*2C
$GNVTG,98.773,T,102.202,M,0.11436,N,0.21180,K,D*02
$GNHDT,234.8042,T*10
$GPGGA,095039.20,2234.03468205,N,11431.92617785,E,4,26,0.6,3.3814,M,-1.3414,M,01,0000*73
$GPRMC,095039.20,A,2234.03468205,N,11431.92617785,E,0.114,98.8,041224,3.4,W,D*13
$GNVTG,351.850,T,355.279,M,0.06055,N,0.11213,K,D*3B
$GNHDT,234.7139,T*12
$GPGGA,095039.40,2234.03468539,N,11431.92617733,E,4,26,0.6,3.3957,M,-1.3414,M,01,0000*76
$GPRMC,095039.40,A,2234.03468539,N,11431.92617733,E,0.061,351.8,041224,3.4,W,D*25
$GNVTG,141.271,T,144.700,M,0.03233,N,0.05988,K,D*33
$GNHDT,234.7701,T*1F
$GPGGA,095039.60,2234.03468399,N,11431.92617855,E,4,26,0.6,3.3857,M,-1.3414,M,00,0000*77
$GPRMC,095039.60,A,2234.03468399,N,11431.92617855,E,0.032,141.3,041224,3.4,W,D*2A
$GNVTG,303.568,T,306.997,M,0.06784,N,0.12564,K,D*38
$GNHDT,234.8516,T*14
$GPGGA,095039.80,2234.03468608,N,11431.92617516,E,4,26,0.6,3.3834,M,-1.3414,M,00,0000*7B
$GPRMC,095039.80,A,2234.03468608,N,11431.92617516,E,0.068,303.6,041224,3.4,W,D*2D
$GNVTG,342.982,T,346.412,M,0.03542,N,0.06560,K,D*3D
$GNHDT,234.8440,T*16
$GPGGA,095040.00,2234.03468797,N,11431.92617453,E,4,26,0.6,3.3798,M,-1.3414,M,01,0000*72
$GPRMC,095040.00,A,2234.03468797,N,11431.92617453,E,0.035,343.0,041224,3.4,W,D*26
$GNVTG,130.326,T,133.756,M,0.10654,N,0.19731,K,D*33
$GNHDT,235.0174,T*1D
$GPGGA,095040.20,2234.03468412,N,11431.92617941,E,4,26,0.6,3.3896,M,-1.3414,M,01,0000*71
$GPRMC,095040.20,A,2234.03468412,N,11431.92617941,E,0.107,130.3,041224,3.4,W,D*21
$GNVTG,340.117,T,343.546,M,0.03498,N,0.06477,K,D*3F
$GNHDT,235.0322,T*1C
$GPGGA,095040.40,2234.03468596,N,11431.92617869,E,4,26,0.6,3.3837,M,-1.3414,M,01,0000*7A
$GPRMC,095040.40,A,2234.03468596,N,11431.92617869,E,0.035,340.1,041224,3.4,W,D*26
$GNVTG,43.954,T,47.384,M,0.05242,N,0.09709,K,D*3D
$GNHDT,234.8411,T*12
$GPGGA,095040.60,2234.03468806,N,11431.92618088,E,4,26,0.6,3.3824,M,-1.3414,M,01,0000*76
$GPRMC,095040.60,A,2234.03468806,N,11431.92618088,E,0.052,44.0,041224,3.4,W,D*1F
$GNVTG,334.909,T,338.338,M,0.04198,N,0.07775,K,D*3A
$GNHDT,234.8486,T*1C
$GPGGA,095040.80,2234.03469018,N,11431.92617981,E,4,26,0.6,3.3865,M,-1.3414,M,00,0000*75
$GPRMC,095040.80,A,2234.03469018,N,11431.92617981,E,0.042,334.9,041224,3.4,W,D*24
$GNVTG,17.266,T,20.696,M,0.03123,N,0.05784,K,D*3A
$GNHDT,234.8966,T*1F
$GPGGA,095041.00,2234.03469184,N,11431.92618037,E,4,26,0.6,3.3906,M,-1.3414,M,01,0000*76
$GPRMC,095041.00,A,2234.03469184,N,11431.92618037,E,0.031,17.3,041224,3.4,W,D*1E
$GNVTG,314.054,T,317.484,M,0.03206,N,0.05937,K,D*3D
$GNHDT,235.0138,T*15
$GPGGA,095041.20,2234.03469309,N,11431.92617898,E,4,26,0.6,3.3869,M,-1.3414,M,01,0000*79
$GPRMC,095041.20,A,2234.03469309,N,11431.92617898,E,0.032,314.1,041224,3.4,W,D*28
$GNVTG,308.863,T,312.292,M,0.10618,N,0.19665,K,D*34
$GNHDT,234.6940,T*15
$GPGGA,095041.40,2234.03469680,N,11431.92617402,E,4,26,0.6,3.3812,M,-1.3414,M,01,0000*78
$GPRMC,095041.40,A,2234.03469680,N,11431.92617402,E,0.106,308.9,041224,3.4,W,D*26
$GNVTG,115.814,T,119.244,M,0.06918,N,0.12813,K,D*34
$GNHDT,234.8342,T*13
$GPGGA,095041.60,2234.03469512,N,11431.92617776,E,4,26,0.6,3.3967,M,-1.3414,M,01,0000*71
$GPRMC,095041.60,A,2234.03469512,N,11431.92617776,E,0.069,115.8,041224,3.4,W,D*2B
$GNVTG,235.923,T,239.352,M,0.02029,N,0.03758,K,D*38
$GNHDT,235.0718,T*11
$GPGGA,095041.80,2234.03469449,N,11431.92617675,E,4,26,0.6,3.3884,M,-1.3414,M,00,0000*7F
$GPRMC,095041.80,A,2234.03469449,N,11431.92617675,E,0.020,235.9,041224,3.4,W,D*25
$GNVTG,1.676,T,5.106,M,0.05651,N,0.10466,K,D*3E
$GNHDT,234.8875,T*1C
$GPGGA,095042.00,2234.03469764,N,11431.92617685,E,4,26,0.6,3.3868,M,-1.3414,M,01,0000*74
$GPRMC,095042.00,A,2234.03469764,N,11431.92617685,E,0.057,1.7,041224,3.4,W,D*26
$GNVTG,65.704,T,69.134,M,0.00291,N,0.00540,K,D*3A
$GNHDT,235.0189,T*1F
$GPGGA,095042.20,2234.03469770,N,11431.92617701,E,4,26,0.6,3.3982,M,-1.3414,M,01,0000*7B
$GPRMC,095042.20,A,2234.03469770,N,11431.92617701,E,0.003,65.7,041224,3.4,W,D*1F
$GNVTG,163.205,T,166.635,M,0.05644,N,0.10452,K,D*3B
$GNHDT,234.8860,T*18
$GPGGA,095042.40,2234.03469469,N,11431.92617799,E,4,26,0.6,3.4065,M,-1.3414,M,01,0000*70
$GPRMC,095042.40,A,2234.03469469,N,11431.92617799,E,0.056,163.2,041224,3.4,W,D*21
$GNVTG,117.396,T,120.825,M,0.04062,N,0.07522,K,D*3D
$GNHDT,235.2943,T*13
$GPGGA,095042.60,2234.03469365,N,11431.92618015,E,4,26,0.6,3.4092,M,-1.3414,M,01,0000*7D
$GPRMC,095042.60,A,2234.03469365,N,11431.92618015,E,0.041,117.4,041224,3.4,W,D*27
$GNVTG,336.453,T,339.882,M,0.05405,N,0.10010,K,D*33
$GNHDT,235.3029,T*17
$GPGGA,095042.80,2234.03469641,N,11431.92617886,E,4,26,0.6,3.3914,M,-1.3414,M,00,0000*7C
$GPRMC,095042.80,A,2234.03469641,N,11431.92617886,E,0.054,336.5,041224,3.4,W,D*23
$GNVTG,115.218,T,118.647,M,0.03266,N,0.06049,K,D*31
$GNHDT,235.1925,T*10
$GPGGA,095043.00,2234.03469563,N,11431.92618063,E,4,26,0.6,3.4041,M,-1.3414,M,01,0000*75
$GPRMC,095043.00,A,2234.03469563,N,11431.92618063,E,0.033,115.2,041224,3.4,W,D*20
$GNVTG,330.173,T,333.603,M,0.07302,N,0.13523,K,D*3B
$GNHDT,234.9158,T*1B
$GPGGA,095043.20,2234.03469917,N,11431.92617845,E,4,26,0.6,3.3921,M,-1.3414,M,01,0000*73
$GPRMC,095043.20,A,2234.03469917,N,11431.92617845,E,0.073,330.2,041224,3.4,W,D*2F
$GNVTG,13.162,T,16.592,M,0.02554,N,0.04730,K,D*30
$GNHDT,235.3280,T*16
$GPGGA,095043.40,2234.03470055,N,11431.92617880,E,4,26,0.6,3.3805,M,-1.3414,M,01,0000*7C
$GPRMC,095043.40,A,2234.03470055,N,11431.92617880,E,0.026,13.2,041224,3.4,W,D*15
$GNVTG,12.676,T,16.105,M,0.06824,N,0.12637,K,D*36
$GNHDT,235.2405,T*1C
$GPGGA,095043.60,2234.03470426,N,11431.92617970,E,4,26,0.6,3.3752,M,-1.3414,M,01,0000*7D
$GPRMC,095043.60,A,2234.03470426,N,11431.92617970,E,0.068,12.7,041224,3.4,W,D*17
$GNVTG,250.951,T,254.380,M,0.05660,N,0.10481,K,D*33
$GNHDT,235.2560,T*1E
$GPGGA,095043.80,2234.03470323,N,11431.92617649,E,4,26,0.6,3.3896,M,-1.3414,M,01,0000*73
$GPRMC,095043.80,A,2234.03470323,N,11431.92617649,E,0.057,251.0,041224,3.4,W,D*20
$GNVTG,326.657,T,330.087,M,0.04444,N,0.08230,K,D*3D
$GNHDT,235.4014,T*1E
$GPGGA,095044.00,2234.03470530,N,11431.92617502,E,4,26,0.6,3.3910,M,-1.3414,M,02,0000*78
$GPRMC,095044.00,A,2234.03470530,N,11431.92617502,E,0.044,326.7,041224,3.4,W,D*23
$GNVTG,294.983,T,298.412,M,0.05359,N,0.09926,K,D*3F
$GNHDT,235.1399,T*1D
$GPGGA,095044.20,2234.03470657,N,11431.92617210,E,4,26,0.6,3.3914,M,-1.3414,M,02,0000*78
$GPRMC,095044.20,A,2234.03470657,N,11431.92617210,E,0.054,295.0,041224,3.4,W,D*28
$GNVTG,333.035,T,336.464,M,0.10149,N,0.18796,K,D*31
$GNHDT,235.1744,T*19
$GPGGA,095044.40,2234.03471161,N,11431.92616934,E,4,26,0.6,3.3645,M,-1.3414,M,02,0000*7A
$GPRMC,095044.40,A,2234.03471161,N,11431.92616934,E,0.101,333.0,041224,3.4,W,D*2D
$GNVTG,108.051,T,111.480,M,0.13181,N,0.24411,K,D*30
$GNHDT,235.5312,T*1A
$GPGGA,095044.60,2234.03470933,N,11431.92617686,E,4,26,0.6,3.3845,M,-1.3414,M,02,0000*7F
$GPRMC,095044.60,A,2234.03470933,N,11431.92617686,E,0.132,108.1,041224,3.4,W,D*2D
$GNVTG,95.753,T,99.183,M,0.02443,N,0.04525,K,D*38
$GNHDT,235.4093,T*11
$GPGGA,095044.80,2234.03470919,N,11431.92617832,E,4,26,0.6,3.3927,M,-1.3414,M,00,0000*7F
$GPRMC,095044.80,A,2234.03470919,N,11431.92617832,E,0.024,95.8,041224,3.4,W,D*10
$GNVTG,66.032,T,69.461,M,0.06257,N,0.11588,K,D*36
$GNHDT,235.6661,T*18
$GPGGA,095045.00,2234.03471061,N,11431.92618176,E,4,26,0.6,3.3756,M,-1.3414,M,01,0000*7E
$GPRMC,095045.00,A,2234.03471061,N,11431.92618176,E,0.063,66.0,041224,3.4,W,D*1F
$GNVTG,306.488,T,309.918,M,0.02673,N,0.04951,K,D*3A
$GNHDT,235.6534,T*1B
$GPGGA,095045.20,2234.03471150,N,11431.92618047,E,4,26,0.6,3.3677,M,-1.3414,M,01,0000*7E
$GPRMC,095045.20,A,2234.03471150,N,11431.92618047,E,0.027,306.5,041224,3.4,W,D*2D
$GNVTG,88.872,T,92.302,M,0.14055,N,0.26029,K,D*35
$GNHDT,235.7895,T*1C
$GPGGA,095045.40,2234.03471165,N,11431.92618890,E,4,26,0.6,3.3649,M,-1.3414,M,01,0000*71
$GPRMC,095045.40,A,2234.03471165,N,11431.92618890,E,0.141,88.9,041224,3.4,W,D*17
$GNVTG,140.529,T,143.958,M,0.05655,N,0.10473,K,D*33
$GNHDT,236.1488,T*19
$GPGGA,095045.60,2234.03470922,N,11431.92619106,E,4,26,0.6,3.3741,M,-1.3414,M,01,0000*77
$GPRMC,095045.60,A,2234.03470922,N,11431.92619106,E,0.057,140.5,041224,3.4,W,D*27
$GNVTG,341.522,T,344.951,M,0.07727,N,0.14311,K,D*36
$GNHDT,235.8643,T*16
$GPGGA,095045.80,2234.03471330,N,11431.92618959,E,4,26,0.6,3.3755,M,-1.3414,M,00,0000*76
$GPRMC,095045.80,A,2234.03471330,N,11431.92618959,E,0.077,341.5,041224,3.4,W,D*23
$GNVTG,97.824,T,101.253,M,0.02176,N,0.04029,K,D*01
$GNHDT,236.0226,T*1A
$GPGGA,095046.00,2234.03471314,N,11431.92619088,E,4,26,0.6,3.3822,M,-1.3414,M,01,0000*71
$GPRMC,095046.00,A,2234.03471314,N,11431.92619088,E,0.022,97.8,041224,3.4,W,D*1F
$GNVTG,356.835,T,0.265,M,0.06915,N,0.12806,K,D*31
$GNHDT,236.0645,T*1B
$GPGGA,095046.20,2234.03471699,N,11431.92619065,E,4,26,0.6,3.3730,M,-1.3414,M,01,0000*7C
$GPRMC,095046.20,A,2234.03471699,N,11431.92619065,E,0.069,356.8,041224,3.4,W,D*2F
$GNVTG,314.217,T,317.646,M,0.09474,N,0.17545,K,D*37
$GNHDT,236.2706,T*1F
$GPGGA,095046.40,2234.03472067,N,11431.92618658,E,4,26,0.6,3.3691,M,-1.3414,M,01,0000*7D
$GPRMC,095046.40,A,2234.03472067,N,11431.92618658,E,0.095,314.2,041224,3.4,W,D*2B
$GNVTG,94.726,T,98.156,M,0.09316,N,0.17254,K,D*3D
$GNHDT,236.4473,T*18
$GPGGA,095046.60,2234.03472024,N,11431.92619215,E,4,26,0.6,3.3813,M,-1.3414,M,01,0000*70
$GPRMC,095046.60,A,2234.03472024,N,11431.92619215,E,0.093,94.7,041224,3.4,W,D*1A
$GNVTG,330.595,T,334.025,M,0.03214,N,0.05952,K,D*3D
$GNHDT,236.2607,T*1F
$GPGGA,095046.80,2234.03472180,N,11431.92619120,E,4,26,0.6,3.3859,M,-1.3414,M,00,0000*7B
$GPRMC,095046.80,A,2234.03472180,N,11431.92619120,E,0.032,330.6,041224,3.4,W,D*29
$GNVTG,114.891,T,118.321,M,0.07036,N,0.13030,K,D*37
$GNHDT,236.3717,T*1E
$GPGGA,095047.00,2234.03472015,N,11431.92619503,E,4,25,0.6,3.3849,M,-1.3414,M,01,0000*79
$GPRMC,095047.00,A,2234.03472015,N,11431.92619503,E,0.070,114.9,041224,3.4,W,D*25
$GNVTG,342.185,T,345.615,M,0.05740,N,0.10630,K,D*33
$GNHDT,236.2200,T*1C
$GPGGA,095047.20,2234.03472320,N,11431.92619398,E,4,25,0.6,3.3741,M,-1.3414,M,01,0000*7D
$GPRMC,095047.20,A,2234.03472320,N,11431.92619398,E,0.057,342.2,041224,3.4,W,D*29
$GNVTG,49.597,T,53.026,M,0.01951,N,0.03613,K,D*37
$GNHDT,236.5760,T*18
$GPGGA,095047.40,2234.03472390,N,11431.92619487,E,4,25,0.6,3.3835,M,-1.3414,M,01,0000*75
$GPRMC,095047.40,A,2234.03472390,N,11431.92619487,E,0.020,49.6,041224,3.4,W,D*11
$GNVTG,129.723,T,133.152,M,0.11037,N,0.20441,K,D*34
$GNHDT,236.4275,T*18
$GPGGA,095047.60,2234.03471997,N,11431.92619997,E,4,26,0.6,3.4037,M,-1.3414,M,01,0000*7B
$GPRMC,095047.60,A,2234.03471997,N,11431.92619997,E,0.110,129.7,041224,3.4,W,D*25
$GNVTG,26.496,T,29.926,M,0.01955,N,0.03621,K,D*3F
$GNHDT,236.6865,T*11
$GPGGA,095047.80,2234.03472095,N,11431.92620049,E,4,26,0.6,3.3947,M,-1.3414,M,00,0000*75
$GPRMC,095047.80,A,2234.03472095,N,11431.92620049,E,0.020,26.5,041224,3.4,W,D*1D
$GNVTG,52.532,T,55.962,M,0.06456,N,0.11957,K,D*3C
$GNHDT,236.6803,T*11
$GPGGA,095048.00,2234.03472314,N,11431.92620357,E,4,25,0.6,3.3950,M,-1.3414,M,01,0000*70
$GPRMC,095048.00,A,2234.03472314,N,11431.92620357,E,0.065,52.5,041224,3.4,W,D*1E
$GNVTG,66.592,T,70.021,M,0.05141,N,0.09521,K,D*3C
$GNHDT,236.9933,T*1C
$GPGGA,095048.20,2234.03472428,N,11431.92620640,E,4,25,0.6,3.3929,M,-1.3414,M,01,0000*77
$GPRMC,095048.20,A,2234.03472428,N,11431.92620640,E,0.051,66.6,041224,3.4,W,D*14
$GNVTG,300.176,T,303.605,M,0.01490,N,0.02760,K,D*37
$GNHDT,236.7124,T*1C
$GPGGA,095048.40,2234.03472469,N,11431.92620563,E,4,25,0.6,3.3998,M,-1.3414,M,01,0000*7C
$GPRMC,095048.40,A,2234.03472469,N,11431.92620563,E,0.015,300.2,041224,3.4,W,D*22
$GNVTG,87.268,T,90.698,M,0.02149,N,0.03980,K,D*39
$GNHDT,236.6081,T*13
$GPGGA,095048.60,2234.03472475,N,11431.92620691,E,4,25,0.6,3.4038,M,-1.3414,M,01,0000*79
$GPRMC,095048.60,A,2234.03472475,N,11431.92620691,E,0.021,87.3,041224,3.4,W,D*19
$GNVTG,150.683,T,154.113,M,0.04226,N,0.07827,K,D*3A
$GNHDT,236.9073,T*11
$GPGGA,095048.80,2234.03472270,N,11431.92620816,E,4,25,0.6,3.4082,M,-1.3414,M,00,0000*75
$GPRMC,095048.80,A,2234.03472270,N,11431.92620816,E,0.042,150.7,041224,3.4,W,D*2F
$GNVTG,299.792,T,303.222,M,0.05153,N,0.09544,K,D*3A
$GNHDT,236.7317,T*1E
$GPGGA,095049.00,2234.03472412,N,11431.92620547,E,4,25,0.6,3.4024,M,-1.3414,M,01,0000*7A
$GPRMC,095049.00,A,2234.03472412,N,11431.92620547,E,0.052,299.8,041224,3.4,W,D*25
$GNVTG,64.116,T,67.546,M,0.02208,N,0.04089,K,D*37
$GNHDT,236.8277,T*16
$GPGGA,095049.20,2234.03472466,N,11431.92620666,E,4,25,0.6,3.3934,M,-1.3414,M,01,0000*74
$GPRMC,095049.20,A,2234.03472466,N,11431.92620666,E,0.022,64.1,041224,3.4,W,D*1A
$GNVTG,313.534,T,316.963,M,0.02874,N,0.05322,K,D*3C
$GNHDT,236.4706,T*19
$GPGGA,095049.40,2234.03472576,N,11431.92620541,E,4,25,0.6,3.3832,M,-1.3414,M,01,0000*73
$GPRMC,095049.40,A,2234.03472576,N,11431.92620541,E,0.029,313.5,041224,3.4,W,D*26
$GNVTG,51.127,T,54.557,M,0.06574,N,0.12176,K,D*3D
$GNHDT,236.8929,T*16
$GPGGA,095049.60,2234.03472806,N,11431.92620849,E,4,26,0.6,3.3800,M,-1.3414,M,01,0000*7C
$GPRMC,095049.60,A,2234.03472806,N,11431.92620849,E,0.066,51.1,041224,3.4,W,D*11
$GNVTG,1.004,T,4.434,M,0.04799,N,0.08887,K,D*36
$GNHDT,236.8560,T*17
$GPGGA,095049.80,2234.03473074,N,11431.92620854,E,4,26,0.6,3.3804,M,-1.3414,M,00,0000*77
$GPRMC,095049.80,A,2234.03473074,N,11431.92620854,E,0.048,1.0,041224,3.4,W,D*27
$GNVTG,319.148,T,322.577,M,0.03257,N,0.06032,K,D*3C
$GNHDT,236.7045,T*1A
$GPGGA,095050.00,2234.03473211,N,11431.92620726,E,4,26,0.6,3.3936,M,-1.3414,M,01,0000*7D
$GPRMC,095050.00,A,2234.03473211,N,11431.92620726,E,0.033,319.1,041224,3.4,W,D*2B
$GNVTG,291.671,T,295.101,M,0.04738,N,0.08775,K,D*39
$GNHDT,236.9372,T*13
$GPGGA,095050.20,2234.03473309,N,11431.92620461,E,4,26,0.6,3.3847,M,-1.3414,M,01,0000*70
$GPRMC,095050.20,A,2234.03473309,N,11431.92620461,E,0.047,291.7,041224,3.4,W,D*25
$GNVTG,36.597,T,40.027,M,0.05173,N,0.09580,K,D*33
$GNHDT,236.7286,T*17
$GPGGA,095050.40,2234.03473540,N,11431.92620647,E,4,26,0.6,3.3793,M,-1.3414,M,01,0000*7D
$GPRMC,095050.40,A,2234.03473540,N,11431.92620647,E,0.052,36.6,041224,3.4,W,D*14
$GNVTG,244.945,T,248.375,M,0.06103,N,0.11302,K,D*38
$GNHDT,236.6923,T*12
$GPGGA,095050.60,2234.03473396,N,11431.92620315,E,4,26,0.6,3.3823,M,-1.3414,M,01,0000*74
$GPRMC,095050.60,A,2234.03473396,N,11431.92620315,E,0.061,244.9,041224,3.4,W,D*21
$GNVTG,320.523,T,323.953,M,0.07043,N,0.13043,K,D*35
$GNHDT,236.8339,T*1D
$GPGGA,095050.80,2234.03473699,N,11431.92620046,E,4,26,0.6,3.3722,M,-1.3414,M,00,0000*7A
$GPRMC,095050.80,A,2234.03473699,N,11431.92620046,E,0.070,320.5,041224,3.4,W,D*2F
$GNVTG,69.098,T,72.528,M,0.05669,N,0.10498,K,D*34
$GNHDT,237.0269,T*10
$GPGGA,095051.00,2234.03473812,N,11431.92620364,E,4,25,0.6,3.3890,M,-1.3414,M,01,0000*79
$GPRMC,095051.00,A,2234.03473812,N,11431.92620364,E,0.057,69.1,041224,3.4,W,D*17
$GNVTG,12.666,T,16.095,M,0.07861,N,0.14559,K,D*32
$GNHDT,236.8973,T*19
$GPGGA,095051.20,2234.03474240,N,11431.92620467,E,4,25,0.6,3.3643,M,-1.3414,M,01,0000*75
$GPRMC,095051.20,A,2234.03474240,N,11431.92620467,E,0.079,12.7,041224,3.4,W,D*1D
$GNVTG,54.099,T,57.529,M,0.04473,N,0.08283,K,D*30
$GNHDT,237.2154,T*1F
$GPGGA,095051.40,2234.03474386,N,11431.92620685,E,4,25,0.6,3.3677,M,-1.3414,M,01,0000*71
$GPRMC,095051.40,A,2234.03474386,N,11431.92620685,E,0.045,54.1,041224,3.4,W,D*15
$GNVTG,74.521,T,77.950,M,0.04173,N,0.07728,K,D*3A
$GNHDT,237.3138,T*14
$GPGGA,095051.60,2234.03474448,N,11431.92620926,E,4,24,0.6,3.3680,M,-1.3414,M,01,0000*79
$GPRMC,095051.60,A,2234.03474448,N,11431.92620926,E,0.042,74.5,041224,3.4,W,D*15
$GNVTG,297.908,T,301.337,M,0.11455,N,0.21214,K,D*30
$GNHDT,236.9380,T*1E
$GPGGA,095051.80,2234.03474747,N,11431.92620319,E,4,25,0.6,3.3602,M,-1.3414,M,00,0000*77
$GPRMC,095051.80,A,2234.03474747,N,11431.92620319,E,0.115,297.9,041224,3.4,W,D*21
$GNVTG,121.447,T,124.877,M,0.05495,N,0.10177,K,D*3F
$GNHDT,237.0042,T*1B
$GPGGA,095052.00,2234.03474587,N,11431.92620600,E,4,25,0.6,3.3700,M,-1.3414,M,01,0000*7D
$GPRMC,095052.00,A,2234.03474587,N,11431.92620600,E,0.055,121.4,041224,3.4,W,D*2F
$GNVTG,279.947,T,283.377,M,0.03388,N,0.06275,K,D*32
$GNHDT,237.0086,T*13
$GPGGA,095052.20,2234.03474620,N,11431.92620400,E,4,25,0.6,3.3648,M,-1.3414,M,01,0000*7E
$GPRMC,095052.20,A,2234.03474620,N,11431.92620400,E,0.034,279.9,041224,3.4,W,D*25
$GNVTG,151.383,T,154.812,M,0.05770,N,0.10687,K,D*33
$GNHDT,237.0591,T*10
$GPGGA,095052.40,2234.03474337,N,11431.92620565,E,4,25,0.6,3.4007,M,-1.3414,M,01,0000*73
$GPRMC,095052.40,A,2234.03474337,N,11431.92620565,E,0.058,151.4,041224,3.4,W,D*2C
$GNVTG,43.750,T,47.179,M,0.03913,N,0.07247,K,D*3F
$GNHDT,237.0733,T*1A
$GPGGA,095052.60,2234.03474495,N,11431.92620728,E,4,24,0.6,3.3933,M,-1.3414,M,01,0000*7D
$GPRMC,095052.60,A,2234.03474495,N,11431.92620728,E,0.039,43.7,041224,3.4,W,D*1C
$GNVTG,73.788,T,77.217,M,0.04862,N,0.09005,K,D*3B
$GNHDT,237.3407,T*1D
$GPGGA,095052.80,2234.03474570,N,11431.92621008,E,4,25,0.6,3.3887,M,-1.3414,M,00,0000*73
$GPRMC,095052.80,A,2234.03474570,N,11431.92621008,E,0.049,73.8,041224,3.4,W,D*17
$GNVTG,330.478,T,333.908,M,0.06777,N,0.12551,K,D*32
$GNHDT,237.1662,T*1E
$GPGGA,095053.00,2234.03474899,N,11431.92620808,E,4,25,0.6,3.3948,M,-1.3414,M,01,0000*7A
$GPRMC,095053.00,A,2234.03474899,N,11431.92620808,E,0.068,330.5,041224,3.4,W,D*27
$GNVTG,46.769,T,50.199,M,0.07562,N,0.14005,K,D*30
$GNHDT,237.3886,T*18
$GPGGA,095053.20,2234.03475188,N,11431.92621138,E,4,25,0.6,3.3953,M,-1.3414,M,01,0000*71
$GPRMC,095053.20,A,2234.03475188,N,11431.92621138,E,0.076,46.8,041224,3.4,W,D*16
$GNVTG,331.538,T,334.968,M,0.04499,N,0.08332,K,D*3E
$GNHDT,237.2408,T*13
$GPGGA,095053.40,2234.03475408,N,11431.92621010,E,4,25,0.6,3.3814,M,-1.3414,M,01,0000*73
$GPRMC,095053.40,A,2234.03475408,N,11431.92621010,E,0.045,331.5,041224,3.4,W,D*28
$GNVTG,312.535,T,315.965,M,0.04403,N,0.08154,K,D*3D
$GNHDT,237.4665,T*1C
$GPGGA,095053.60,2234.03475574,N,11431.92620815,E,4,25,0.6,3.3707,M,-1.3414,M,01,0000*7A
$GPRMC,095053.60,A,2234.03475574,N,11431.92620815,E,0.044,312.5,041224,3.4,W,D*2C
$GNVTG,341.841,T,345.270,M,0.03836,N,0.07104,K,D*38
$GNHDT,237.4345,T*1B
$GPGGA,095053.80,2234.03475777,N,11431.92620743,E,4,25,0.6,3.3783,M,-1.3414,M,00,0000*74
$GPRMC,095053.80,A,2234.03475777,N,11431.92620743,E,0.038,341.8,041224,3.4,W,D*2F
$GNVTG,188.928,T,192.358,M,0.03862,N,0.07152,K,D*30
$GNHDT,237.6669,T*12
$GPGGA,095054.00,2234.03475565,N,11431.92620707,E,4,25,0.6,3.3733,M,-1.3414,M,01,0000*70
$GPRMC,095054.00,A,2234.03475565,N,11431.92620707,E,0.039,188.9,041224,3.4,W,D*26
$GNVTG,13.032,T,16.462,M,0.08581,N,0.15891,K,D*3C
$GNHDT,237.6650,T*18
$GPGGA,095054.20,2234.03476031,N,11431.92620823,E,4,25,0.6,3.3621,M,-1.3414,M,01,0000*7E
$GPRMC,095054.20,A,2234.03476031,N,11431.92620823,E,0.086,13.0,041224,3.4,W,D*14
$GNVTG,124.920,T,128.350,M,0.17676,N,0.32737,K,D*3A
$GNHDT,237.7314,T*1C
$GPGGA,095054.40,2234.03475467,N,11431.92621693,E,4,24,0.6,3.4049,M,-1.3414,M,01,0000*76
$GPRMC,095054.40,A,2234.03475467,N,11431.92621693,E,0.177,124.9,041224,3.4,W,D*21
$GNVTG,87.269,T,90.698,M,0.07099,N,0.13148,K,D*3C
$GNHDT,237.6984,T*1E
$GPGGA,095054.60,2234.03475486,N,11431.92622119,E,4,25,0.6,3.4098,M,-1.3414,M,01,0000*70
$GPRMC,095054.60,A,2234.03475486,N,11431.92622119,E,0.071,87.3,041224,3.4,W,D*1F
$GNVTG,286.290,T,289.719,M,0.04462,N,0.08264,K,D*3F
$GNHDT,237.7518,T*16
$GPGGA,095054.80,2234.03475555,N,11431.92621862,E,4,25,0.6,3.4031,M,-1.3414,M,00,0000*75
$GPRMC,095054.80,A,2234.03475555,N,11431.92621862,E,0.045,286.3,041224,3.4,W,D*2C
$GNVTG,58.034,T,61.463,M,0.01744,N,0.03231,K,D*31
$GNHDT,237.7017,T*1C
$GPGGA,095055.00,2234.03475607,N,11431.92621951,E,4,25,0.6,3.4081,M,-1.3414,M,01,0000*73
$GPRMC,095055.00,A,2234.03475607,N,11431.92621951,E,0.017,58.0,041224,3.4,W,D*15
$GNVTG,325.295,T,328.724,M,0.03548,N,0.06572,K,D*36
$GNHDT,237.4287,T*14
$GPGGA,095055.20,2234.03475769,N,11431.92621830,E,4,25,0.6,3.4068,M,-1.3414,M,01,0000*79
$GPRMC,095055.20,A,2234.03475769,N,11431.92621830,E,0.035,325.3,041224,3.4,W,D*22
$GNVTG,225.713,T,229.142,M,0.03262,N,0.06041,K,D*30
$GNHDT,237.5533,T*1D
$GPGGA,095055.40,2234.03475643,N,11431.92621689,E,4,25,0.6,3.4010,M,-1.3414,M,01,0000*75
$GPRMC,095055.40,A,2234.03475643,N,11431.92621689,E,0.033,225.7,041224,3.4,W,D*22
$GNVTG,300.265,T,303.695,M,0.02680,N,0.04964,K,D*33
$GNHDT,237.5982,T*1B
$GPGGA,095055.60,2234.03475718,N,11431.92621550,E,4,25,0.6,3.3914,M,-1.3414,M,01,0000*75
$GPRMC,095055.60,A,2234.03475718,N,11431.92621550,E,0.027,300.3,041224,3.4,W,D*2F
$GNVTG,21.115,T,24.545,M,0.03393,N,0.06285,K,D*3F
$GNHDT,237.8926,T*18
$GPGGA,095055.80,2234.03475894,N,11431.92621624,E,4,25,0.6,3.3802,M,-1.3414,M,01,0000*76
$GPRMC,095055.80,A,2234.03475894,N,11431.92621624,E,0.034,21.1,041224,3.4,W,D*1A
$GNVTG,327.607,T,331.036,M,0.06635,N,0.12289,K,D*3D
$GNHDT,237.6556,T*1D
$GPGGA,095056.00,2234.03476207,N,11431.92621410,E,4,26,0.6,3.3872,M,-1.3414,M,02,0000*7C
$GPRMC,095056.00,A,2234.03476207,N,11431.92621410,E,0.066,327.6,041224,3.4,W,D*22
$GNVTG,338.342,T,341.772,M,0.03868,N,0.07163,K,D*37
$GNHDT,237.7844,T*12
$GPGGA,095056.20,2234.03476407,N,11431.92621325,E,4,26,0.6,3.3856,M,-1.3414,M,02,0000*7F
$GPRMC,095056.20,A,2234.03476407,N,11431.92621325,E,0.039,338.3,041224,3.4,W,D*26
$GNVTG,272.778,T,276.208,M,0.03536,N,0.06549,K,D*33
$GNHDT,237.6170,T*1D
$GPGGA,095056.40,2234.03476417,N,11431.92621113,E,4,26,0.6,3.3730,M,-1.3414,M,02,0000*70
$GPRMC,095056.40,A,2234.03476417,N,11431.92621113,E,0.035,272.8,041224,3.4,W,D*2E
$GNVTG,17.856,T,21.286,M,0.01725,N,0.03194,K,D*34
$GNHDT,237.7624,T*1A
$GPGGA,095056.60,2234.03476508,N,11431.92621144,E,4,26,0.6,3.3811,M,-1.3414,M,02,0000*73
$GPRMC,095056.60,A,2234.03476508,N,11431.92621144,E,0.017,17.9,041224,3.4,W,D*11
$GNVTG,131.434,T,134.863,M,0.06383,N,0.11821,K,D*36
$GNHDT,238.0871,T*1C
$GPGGA,095056.80,2234.03476273,N,11431.92621432,E,4,26,0.6,3.3788,M,-1.3414,M,00,0000*7F
$GPRMC,095056.80,A,2234.03476273,N,11431.92621432,E,0.064,131.4,041224,3.4,W,D*2C
$GNVTG,301.850,T,305.279,M,0.05447,N,0.10088,K,D*3E
$GNHDT,237.7434,T*19
$GPGGA,095057.00,2234.03476433,N,11431.92621154,E,4,26,0.6,3.3740,M,-1.3414,M,01,0000*74
$GPRMC,095057.00,A,2234.03476433,N,11431.92621154,E,0.054,301.8,041224,3.4,W,D*2C
$GNVTG,200.909,T,204.338,M,0.04815,N,0.08918,K,D*34
$GNHDT,237.7268,T*16
$GPGGA,095057.20,2234.03476182,N,11431.92621051,E,4,26,0.6,3.3764,M,-1.3414,M,01,0000*7B
$GPRMC,095057.20,A,2234.03476182,N,11431.92621051,E,0.048,200.9,041224,3.4,W,D*29
$GNVTG,112.122,T,115.551,M,0.08469,N,0.15684,K,D*32
$GNHDT,237.7907,T*14
$GPGGA,095057.40,2234.03476004,N,11431.92621522,E,4,26,0.6,3.3631,M,-1.3414,M,01,0000*72
$GPRMC,095057.40,A,2234.03476004,N,11431.92621522,E,0.085,112.1,041224,3.4,W,D*28
$GNVTG,84.715,T,88.144,M,0.04882,N,0.09042,K,D*3F
$GNHDT,238.0197,T*1D
$GPGGA,095057.60,2234.03476029,N,11431.92621814,E,4,26,0.6,3.3668,M,-1.3414,M,01,0000*7B
$GPRMC,095057.60,A,2234.03476029,N,11431.92621814,E,0.049,84.7,041224,3.4,W,D*15
$GNVTG,316.157,T,319.587,M,0.01054,N,0.01952,K,D*31
$GNHDT,237.9540,T*15
$GPGGA,095057.80,2234.03476072,N,11431.92621770,E,4,26,0.6,3.3586,M,-1.3414,M,00,0000*74
$GPRMC,095057.80,A,2234.03476072,N,11431.92621770,E,0.011,316.2,041224,3.4,W,D*28
$GNVTG,290.331,T,293.761,M,0.01157,N,0.02143,K,D*3C
$GNHDT,237.8306,T*10
$GPGGA,095058.00,2234.03476094,N,11431.92621705,E,4,26,0.6,3.3511,M,-1.3414,M,01,0000*76
$GPRMC,095058.00,A,2234.03476094,N,11431.92621705,E,0.012,290.3,041224,3.4,W,D*28
$GNVTG,68.699,T,72.128,M,0.06500,N,0.12038,K,D*35
$GNHDT,237.9596,T*1E
$GPGGA,095058.20,2234.03476226,N,11431.92622068,E,4,26,0.6,3.3463,M,-1.3414,M,01,0000*74
$GPRMC,095058.20,A,2234.03476226,N,11431.92622068,E,0.065,68.7,041224,3.4,W,D*1F
$GNVTG,224.032,T,227.462,M,0.11105,N,0.20566,K,D*39
$GNHDT,237.8431,T*13
$GPGGA,095058.40,2234.03475781,N,11431.92621605,E,4,26,0.6,3.3678,M,-1.3414,M,01,0000*7F
$GPRMC,095058.40,A,2234.03475781,N,11431.92621605,E,0.111,224.0,041224,3.4,W,D*23
$GNVTG,272.901,T,276.331,M,0.02820,N,0.05223,K,D*3B
$GNHDT,237.8835,T*1B
$GPGGA,095058.60,2234.03475789,N,11431.92621436,E,4,26,0.6,3.3855,M,-1.3414,M,01,0000*76
$GPRMC,095058.60,A,2234.03475789,N,11431.92621436,E,0.028,272.9,041224,3.4,W,D*2A
$GNVTG,251.816,T,255.245,M,0.03941,N,0.07299,K,D*3A
$GNHDT,237.8389,T*17
$GPGGA,095058.80,2234.03475720,N,11431.92621211,E,4,26,0.6,3.3909,M,-1.3414,M,00,0000*71
$GPRMC,095058.80,A,2234.03475720,N,11431.92621211,E,0.039,251.8,041224,3.4,W,D*24
$GNVTG,57.709,T,61.138,M,0.04401,N,0.08150,K,D*34
$GNHDT,237.8518,T*19
$GPGGA,095059.00,2234.03475851,N,11431.92621434,E,4,26,0.6,3.3818,M,-1.3414,M,01,0000*70
$GPRMC,095059.00,A,2234.03475851,N,11431.92621434,E,0.044,57.7,041224,3.4,W,D*14
$GNVTG,247.195,T,250.624,M,0.02537,N,0.04698,K,D*33
$GNHDT,237.7393,T*13
$GPGGA,095059.20,2234.03475796,N,11431.92621294,E,4,26,0.6,3.3872,M,-1.3414,M,01,0000*76
$GPRMC,095059.20,A,2234.03475796,N,11431.92621294,E,0.025,247.2,041224,3.4,W,D*2F
$GNVTG,343.334,T,346.763,M,0.08579,N,0.15888,K,D*34
$GNHDT,237.5439,T*16
$GPGGA,095059.40,2234.03476255,N,11431.92621146,E,4,26,0.6,3.3873,M,-1.3414,M,01,0000*74
$GPRMC,095059.40,A,2234.03476255,N,11431.92621146,E,0.086,343.3,041224,3.4,W,D*21
$GNVTG,119.769,T,123.199,M,0.15172,N,0.28099,K,D*32
$GNHDT,237.7600,T*1C
$GPGGA,095059.60,2234.03475835,N,11431.92621937,E,4,26,0.6,3.3957,M,-1.3414,M,01,0000*70
$GPRMC,095059.60,A,2234.03475835,N,11431.92621937,E,0.152,119.8,041224,3.4,W,D*2C
$GNVTG,305.283,T,308.713,M,0.04947,N,0.09162,K,D*3B
$GNHDT,237.7225,T*1F
$GPGGA,095059.80,2234.03475994,N,11431.92621694,E,4,26,0.6,3.3933,M,-1.3414,M,01,0000*70
$GPRMC,095059.80,A,2234.03475994,N,11431.92621694,E,0.049,305.3,041224,3.4,W,D*21
$GNVTG,124.163,T,127.593,M,0.01365,N,0.02527,K,D*33
$GNHDT,237.5706,T*19
$GPGGA,095100.00,2234.03475951,N,11431.92621762,E,4,26,0.6,3.3975,M,-1.3414,M,02,0000*75
$GPRMC,095100.00,A,2234.03475951,N,11431.92621762,E,0.014,124.2,041224,3.4,W,D*2D
$GNVTG,5.571,T,9.001,M,0.02906,N,0.05381,K,D*34
$GNHDT,237.8915,T*18
$GPGGA,095100.20,2234.03476112,N,11431.92621779,E,4,26,0.6,3.3863,M,-1.3414,M,02,0000*77
$GPRMC,095100.20,A,2234.03476112,N,11431.92621779,E,0.029,5.6,041224,3.4,W,D*21
$GNVTG,282.982,T,286.411,M,0.01511,N,0.02798,K,D*3B
$GNHDT,237.7490,T*17
$GPGGA,095100.40,2234.03476131,N,11431.92621691,E,4,26,0.6,3.3868,M,-1.3414,M,02,0000*7C
$GPRMC,095100.40,A,2234.03476131,N,11431.92621691,E,0.015,283.0,041224,3.4,W,D*24
$GNVTG,276.615,T,280.044,M,0.05066,N,0.09383,K,D*37
$GNHDT,237.6335,T*1E
$GPGGA,095100.60,2234.03476164,N,11431.92621389,E,4,26,0.6,3.3959,M,-1.3414,M,01,0000*72
$GPRMC,095100.60,A,2234.03476164,N,11431.92621389,E,0.051,276.6,041224,3.4,W,D*26
$GNVTG,310.018,T,313.448,M,0.09413,N,0.17433,K,D*37
$GNHDT,237.5392,T*10
$GPGGA,095100.80,2234.03476501,N,11431.92620956,E,4,26,0.6,3.3799,M,-1.3414,M,00,0000*71
$GPRMC,095100.80,A,2234.03476501,N,11431.92620956,E,0.094,310.0,041224,3.4,W,D*28
$GNVTG,124.853,T,128.282,M,0.04826,N,0.08937,K,D*3F
$GNHDT,237.7465,T*1D
$GPGGA,095101.00,2234.03476348,N,11431.92621194,E,4,26,0.6,3.4014,M,-1.3414,M,01,0000*70
$GPRMC,095101.00,A,2234.03476348,N,11431.92621194,E,0.048,124.9,041224,3.4,W,D*20
$GNVTG,302.156,T,305.585,M,0.05959,N,0.11036,K,D*30
$GNHDT,237.8135,T*12
$GPGGA,095101.20,2234.03476524,N,11431.92620891,E,4,26,0.6,3.4008,M,-1.3414,M,01,0000*7E
$GPRMC,095101.20,A,2234.03476524,N,11431.92620891,E,0.060,302.2,041224,3.4,W,D*24
$GNVTG,130.644,T,134.073,M,0.10168,N,0.18831,K,D*33
$GNHDT,237.4988,T*10
$GPGGA,095101.40,2234.03476155,N,11431.92621354,E,4,26,0.6,3.3970,M,-1.3414,M,01,0000*78
$GPRMC,095101.40,A,2234.03476155,N,11431.92621354,E,0.102,130.6,041224,3.4,W,D*21
$GNVTG,311.364,T,314.793,M,0.01246,N,0.02308,K,D*39
$GNHDT,237.5642,T*18
$GPGGA,095101.60,2234.03476201,N,11431.92621298,E,4,26,0.6,3.3861,M,-1.3414,M,01,0000*78
$GPRMC,095101.60,A,2234.03476201,N,11431.92621298,E,0.012,311.4,041224,3.4,W,D*23
$GNVTG,129.737,T,133.167,M,0.06087,N,0.11272,K,D*3E
$GNHDT,237.9404,T*14
$GPGGA,095101.80,2234.03475984,N,11431.92621579,E,4,26,0.6,3.3920,M,-1.3414,M,00,0000*7E
$GPRMC,095101.80,A,2234.03475984,N,11431.92621579,E,0.061,129.7,041224,3.4,W,D*2E
$GNVTG,160.114,T,163.544,M,0.05015,N,0.09287,K,D*3F
$GNHDT,237.4353,T*1C
$GPGGA,095102.00,2234.03475721,N,11431.92621681,E,4,26,0.6,3.3964,M,-1.3414,M,01,0000*71
$GPRMC,095102.00,A,2234.03475721,N,11431.92621681,E,0.050,160.1,041224,3.4,W,D*29
$GNVTG,163.065,T,166.495,M,0.08949,N,0.16574,K,D*3B
$GNHDT,237.8250,T*12
$GPGGA,095102.20,2234.03475244,N,11431.92621838,E,4,26,0.6,3.3975,M,-1.3414,M,01,0000*79
$GPRMC,095102.20,A,2234.03475244,N,11431.92621838,E,0.089,163.1,041224,3.4,W,D*26
$GNVTG,311.595,T,315.025,M,0.12558,N,0.23257,K,D*38
$GNHDT,237.6404,T*1B
$GPGGA,095102.40,2234.03475709,N,11431.92621274,E,4,26,0.6,3.3894,M,-1.3414,M,01,0000*7F
$GPRMC,095102.40,A,2234.03475709,N,11431.92621274,E,0.126,311.6,041224,3.4,W,D*2A
$GNVTG,163.043,T,166.472,M,0.02843,N,0.05266,K,D*31
$GNHDT,237.6525,T*19
$GPGGA,095102.60,2234.03475557,N,11431.92621324,E,4,26,0.6,3.3878,M,-1.3414,M,01,0000*72
$GPRMC,095102.60,A,2234.03475557,N,11431.92621324,E,0.028,163.0,041224,3.4,W,D*2B
$GNVTG,311.030,T,314.459,M,0.06463,N,0.11969,K,D*37
$GNHDT,237.6979,T*1C
$GPGGA,095102.80,2234.03475794,N,11431.92621031,E,4,26,0.6,3.3780,M,-1.3414,M,00,0000*7F
$GPRMC,095102.80,A,2234.03475794,N,11431.92621031,E,0.065,311.0,041224,3.4,W,D*21
$GNVTG,200.906,T,204.335,M,0.02870,N,0.05314,K,D*38
$GNHDT,237.8904,T*18
$GPGGA,095103.00,2234.03475644,N,11431.92620970,E,4,26,0.6,3.3731,M,-1.3414,M,01,0000*7C
$GPRMC,095103.00,A,2234.03475644,N,11431.92620970,E,0.029,200.9,041224,3.4,W,D*29
$GNVTG,242.333,T,245.763,M,0.01217,N,0.02255,K,D*3B
$GNHDT,237.8215,T*13
$GPGGA,095103.20,2234.03475613,N,11431.92620905,E,4,26,0.6,3.3666,M,-1.3414,M,01,0000*7D
$GPRMC,095103.20,A,2234.03475613,N,11431.92620905,E,0.012,242.3,041224,3.4,W,D*2F
$GNVTG,69.966,T,73.396,M,0.04354,N,0.08064,K,D*3A
$GNHDT,237.6083,T*10
$GPGGA,095103.40,2234.03475696,N,11431.92621150,E,4,26,0.6,3.3800,M,-1.3414,M,01,0000*71
$GPRMC,095103.40,A,2234.03475696,N,11431.92621150,E,0.044,70.0,041224,3.4,W,D*1E
$GNVTG,170.073,T,173.503,M,0.02179,N,0.04035,K,D*36
$GNHDT,237.7555,T*1F
$GPGGA,095103.60,2234.03475576,N,11431.92621173,E,4,26,0.6,3.3879,M,-1.3414,M,01,0000*71
$GPRMC,095103.60,A,2234.03475576,N,11431.92621173,E,0.022,170.1,041224,3.4,W,D*20
$GNVTG,81.000,T,84.429,M,0.02086,N,0.03863,K,D*30
$GNHDT,237.9547,T*12
$GPGGA,095103.80,2234.03475594,N,11431.92621297,E,4,26,0.6,3.3891,M,-1.3414,M,00,0000*7D
$GPRMC,095103.80,A,2234.03475594,N,11431.92621297,E,0.021,81.0,041224,3.4,W,D*16
$GNVTG,249.716,T,253.145,M,0.07899,N,0.14628,K,D*35
$GNHDT,237.6716,T*1B
$GPGGA,095104.00,2234.03475442,N,11431.92620852,E,4,26,0.6,3.3936,M,-1.3414,M,01,0000*77
$GPRMC,095104.00,A,2234.03475442,N,11431.92620852,E,0.079,249.7,041224,3.4,W,D*2D
$GNVTG,71.757,T,75.187,M,0.02806,N,0.05197,K,D*31
$GNHDT,237.4918,T*19
$GPGGA,095104.20,2234.03475491,N,11431.92621012,E,4,26,0.6,3.3747,M,-1.3414,M,01,0000*7E
$GPRMC,095104.20,A,2234.03475491,N,11431.92621012,E,0.028,71.8,041224,3.4,W,D*1E
$GNVTG,161.333,T,164.762,M,0.06664,N,0.12341,K,D*3A
$GNHDT,237.8719,T*1A
$GPGGA,095104.40,2234.03475139,N,11431.92621140,E,4,26,0.6,3.3877,M,-1.3414,M,01,0000*75
$GPRMC,095104.40,A,2234.03475139,N,11431.92621140,E,0.067,161.3,041224,3.4,W,D*29
$GNVTG,34.558,T,37.988,M,0.03012,N,0.05579,K,D*34
$GNHDT,237.7307,T*1E
$GPGGA,095104.60,2234.03475277,N,11431.92621242,E,4,26,0.6,3.3707,M,-1.3414,M,01,0000*77
$GPRMC,095104.60,A,2234.03475277,N,11431.92621242,E,0.030,34.6,041224,3.4,W,D*15
$GNVTG,331.105,T,334.535,M,0.01390,N,0.02574,K,D*35
$GNHDT,237.4535,T*1A
$GPGGA,095104.80,2234.03475345,N,11431.92621202,E,4,26,0.6,3.3666,M,-1.3414,M,00,0000*7A
$GPRMC,095104.80,A,2234.03475345,N,11431.92621202,E,0.014,331.1,041224,3.4,W,D*28
$GNVTG,121.848,T,125.278,M,0.06007,N,0.11125,K,D*32
$GNHDT,237.5183,T*12
$GPGGA,095105.00,2234.03475168,N,11431.92621508,E,4,26,0.6,3.3681,M,-1.3414,M,01,0000*7B
$GPRMC,095105.00,A,2234.03475168,N,11431.92621508,E,0.060,121.8,041224,3.4,W,D*28
$GNVTG,303.424,T,306.853,M,0.04286,N,0.07938,K,D*3C
$GNHDT,237.7358,T*14
$GPGGA,095105.20,2234.03475300,N,11431.92621294,E,4,26,0.6,3.3831,M,-1.3414,M,01,0000*72
$GPRMC,095105.20,A,2234.03475300,N,11431.92621294,E,0.043,303.4,041224,3.4,W,D*2B
$GNVTG,158.218,T,161.647,M,0.03966,N,0.07346,K,D*30
$GNHDT,237.6058,T*16
$GPGGA,095105.40,2234.03475094,N,11431.92621382,E,4,26,0.6,3.3920,M,-1.3414,M,01,0000*7D
$GPRMC,095105.40,A,2234.03475094,N,11431.92621382,E,0.040,158.2,041224,3.4,W,D*2C
$GNVTG,186.474,T,189.903,M,0.03437,N,0.06366,K,D*3C
$GNHDT,237.6722,T*1C
$GPGGA,095105.60,2234.03474904,N,11431.92621359,E,4,26,0.6,3.3928,M,-1.3414,M,01,0000*70
$GPRMC,095105.60,A,2234.03474904,N,11431.92621359,E,0.034,186.5,041224,3.4,W,D*2E
$GNVTG,303.307,T,306.736,M,0.07051,N,0.13058,K,D*37
$GNHDT,237.5011,T*18
$GPGGA,095105.80,2234.03475120,N,11431.92621005,E,4,26,0.6,3.3884,M,-1.3414,M,00,0000*7D
$GPRMC,095105.80,A,2234.03475120,N,11431.92621005,E,0.071,303.3,041224,3.4,W,D*2D
$GNVTG,325.397,T,328.827,M,0.05253,N,0.09729,K,D*31
$GNHDT,237.5981,T*18
$GPGGA,095106.00,2234.03475361,N,11431.92620826,E,4,26,0.6,3.3839,M,-1.3414,M,01,0000*7E
$GPRMC,095106.00,A,2234.03475361,N,11431.92620826,E,0.053,325.4,041224,3.4,W,D*2A
$GNVTG,167.353,T,170.783,M,0.02143,N,0.03969,K,D*36
$GNHDT,237.4702,T*1C
$GPGGA,095106.20,2234.03475244,N,11431.92620854,E,4,26,0.6,3.3801,M,-1.3414,M,01,0000*74
$GPRMC,095106.20,A,2234.03475244,N,11431.92620854,E,0.021,167.4,041224,3.4,W,D*2A
$GNVTG,348.887,T,352.316,M,0.05917,N,0.10958,K,D*3F
$GNHDT,237.4525,T*1B
$GPGGA,095106.40,2234.03475568,N,11431.92620786,E,4,26,0.6,3.3935,M,-1.3414,M,01,0000*7D
$GPRMC,095106.40,A,2234.03475568,N,11431.92620786,E,0.059,348.9,041224,3.4,W,D*28
$GNVTG,163.652,T,167.082,M,0.03286,N,0.06085,K,D*33
$GNHDT,237.2951,T*12
$GPGGA,095106.60,2234.03475392,N,11431.92620841,E,4,26,0.6,3.3915,M,-1.3414,M,01,0000*7A
$GPRMC,095106.60,A,2234.03475392,N,11431.92620841,E,0.033,163.7,041224,3.4,W,D*24
$GNVTG,128.994,T,132.423,M,0.09551,N,0.17688,K,D*3A
$GNHDT,237.7466,T*1E
$GPGGA,095106.80,2234.03475057,N,11431.92621287,E,4,26,0.6,3.4060,M,-1.3414,M,00,0000*72
$GPRMC,095106.80,A,2234.03475057,N,11431.92621287,E,0.096,129.0,041224,3.4,W,D*27
$GNVTG,332.371,T,335.800,M,0.03148,N,0.05831,K,D*33
$GNHDT,237.5866,T*10
$GPGGA,095107.00,2234.03475213,N,11431.92621199,E,4,26,0.6,3.4141,M,-1.3414,M,01,0000*76
$GPRMC,095107.00,A,2234.03475213,N,11431.92621199,E,0.031,332.4,041224,3.4,W,D*21
$GNVTG,254.427,T,257.856,M,0.06026,N,0.11160,K,D*34
$GNHDT,237.4264,T*19
$GPGGA,095107.20,2234.03475123,N,11431.92620851,E,4,26,0.6,3.3995,M,-1.3414,M,01,0000*7E
$GPRMC,095107.20,A,2234.03475123,N,11431.92620851,E,0.060,254.4,041224,3.4,W,D*2A
$GNVTG,45.296,T,48.726,M,0.03621,N,0.06705,K,D*39
$GNHDT,237.1883,T*1F
$GPGGA,095107.40,2234.03475265,N,11431.92621005,E,4,26,0.6,3.3990,M,-1.3414,M,01,0000*74
$GPRMC,095107.40,A,2234.03475265,N,11431.92621005,E,0.036,45.3,041224,3.4,W,D*13
$GNVTG,120.045,T,123.475,M,0.02361,N,0.04372,K,D*38
$GNHDT,237.5630,T*1D
$GPGGA,095107.60,2234.03475199,N,11431.92621128,E,4,26,0.6,3.3896,M,-1.3414,M,01,0000*7F
$GPRMC,095107.60,A,2234.03475199,N,11431.92621128,E,0.024,120.0,041224,3.4,W,D*2D
$GNVTG,142.202,T,145.632,M,0.02996,N,0.05548,K,D*30
$GNHDT,237.1418,T*11
$GPGGA,095107.80,2234.03475067,N,11431.92621238,E,4,26,0.6,3.3889,M,-1.3414,M,00,0000*7C
$GPRMC,095107.80,A,2234.03475067,N,11431.92621238,E,0.030,142.2,041224,3.4,W,D*22
$GNVTG,325.927,T,329.357,M,0.01304,N,0.02416,K,D*3E
$GNHDT,237.5590,T*14
$GPGGA,095108.00,2234.03475127,N,11431.92621194,E,4,26,0.6,3.3820,M,-1.3414,M,01,0000*79
$GPRMC,095108.00,A,2234.03475127,N,11431.92621194,E,0.013,325.9,041224,3.4,W,D*2C
$GNVTG,215.334,T,218.763,M,0.00823,N,0.01523,K,D*3F
$GNHDT,237.3805,T*13
$GPGGA,095108.20,2234.03475089,N,11431.92621166,E,4,26,0.6,3.3807,M,-1.3414,M,01,0000*76
$GPRMC,095108.20,A,2234.03475089,N,11431.92621166,E,0.008,215.3,041224,3.4,W,D*24
$GNVTG,158.863,T,162.293,M,0.04030,N,0.07464,K,D*32
$GNHDT,237.3392,T*16
$GPGGA,095108.40,2234.03474880,N,11431.92621253,E,4,26,0.6,3.3943,M,-1.3414,M,01,0000*74
$GPRMC,095108.40,A,2234.03474880,N,11431.92621253,E,0.040,158.9,041224,3.4,W,D*2B
$GNVTG,303.066,T,306.496,M,0.03768,N,0.06979,K,D*3D
$GNHDT,237.1727,T*1E
$GPGGA,095108.60,2234.03474995,N,11431.92621063,E,4,26,0.6,3.3927,M,-1.3414,M,01,0000*70
$GPRMC,095108.60,A,2234.03474995,N,11431.92621063,E,0.038,303.1,041224,3.4,W,D*26
$GNVTG,246.757,T,250.186,M,0.03163,N,0.05858,K,D*32
$GNHDT,237.5153,T*1F
$GPGGA,095108.80,2234.03474925,N,11431.92620889,E,4,26,0.6,3.3960,M,-1.3414,M,00,0000*7A
$GPRMC,095108.80,A,2234.03474925,N,11431.92620889,E,0.032,246.8,041224,3.4,W,D*2D
$GNVTG,267.383,T,270.813,M,0.07095,N,0.13139,K,D*3E
$GNHDT,237.2501,T*1B
$GPGGA,095109.00,2234.03474907,N,11431.92620463,E,4,26,0.6,3.3960,M,-1.3414,M,01,0000*7A
$GPRMC,095109.00,A,2234.03474907,N,11431.92620463,E,0.071,267.4,041224,3.4,W,D*24
$GNVTG,127.745,T,131.175,M,0.03049,N,0.05646,K,D*35
$GNHDT,237.3689,T*19
$GPGGA,095109.20,2234.03474803,N,11431.92620608,E,4,26,0.6,3.3944,M,-1.3414,M,01,0000*74
$GPRMC,095109.20,A,2234.03474803,N,11431.92620608,E,0.030,127.7,041224,3.4,W,D*2D
$GNVTG,79.789,T,83.219,M,0.03929,N,0.07277,K,D*35
$GNHDT,237.1707,T*1C
$GPGGA,095109.40,2234.03474842,N,11431.92620840,E,4,26,0.6,3.3786,M,-1.3414,M,01,0000*75
$GPRMC,095109.40,A,2234.03474842,N,11431.92620840,E,0.039,79.8,041224,3.4,W,D*10
$GNVTG,359.256,T,2.686,M,0.03573,N,0.06617,K,D*38
$GNHDT,237.6006,T*1D
$GPGGA,095109.60,2234.03475041,N,11431.92620837,E,4,26,0.6,3.3679,M,-1.3414,M,01,0000*7C
$GPRMC,095109.60,A,2234.03475041,N,11431.92620837,E,0.036,359.3,041224,3.4,W,D*2D
$GNVTG,181.894,T,185.323,M,0.04384,N,0.08119,K,D*31
$GNHDT,237.4426,T*19
$GPGGA,095109.80,2234.03474797,N,11431.92620829,E,4,26,0.6,3.3823,M,-1.3414,M,00,0000*70
$GPRMC,095109.80,A,2234.03474797,N,11431.92620829,E,0.044,181.9,041224,3.4,W,D*29
$GNVTG,107.470,T,110.900,M,0.04341,N,0.08040,K,D*3A
$GNHDT,237.0810,T*14
$GPGGA,095110.00,2234.03474724,N,11431.92621077,E,4,26,0.6,3.3804,M,-1.3414,M,01,0000*7E
$GPRMC,095110.00,A,2234.03474724,N,11431.92621077,E,0.043,107.5,041224,3.4,W,D*26
$GNVTG,192.251,T,195.681,M,0.05054,N,0.09360,K,D*3E
$GNHDT,237.4968,T*1E
$GPGGA,095110.20,2234.03474449,N,11431.92621013,E,4,26,0.6,3.3899,M,-1.3414,M,01,0000*72
$GPRMC,095110.20,A,2234.03474449,N,11431.92621013,E,0.051,192.3,041224,3.4,W,D*27
$GNVTG,205.328,T,208.758,M,0.10914,N,0.20212,K,D*38
$GNHDT,237.2213,T*1F
$GPGGA,095110.40,2234.03473899,N,11431.92620733,E,4,26,0.6,3.4015,M,-1.3414,M,01,0000*7D
$GPRMC,095110.40,A,2234.03473899,N,11431.92620733,E,0.109,205.3,041224,3.4,W,D*22
$GNVTG,114.862,T,118.291,M,0.02789,N,0.05165,K,D*31
$GNHDT,237.2706,T*1E
$GPGGA,095110.60,2234.03473833,N,11431.92620885,E,4,26,0.6,3.3904,M,-1.3414,M,01,0000*73
$GPRMC,095110.60,A,2234.03473833,N,11431.92620885,E,0.028,114.9,041224,3.4,W,D*29
$GNVTG,251.060,T,254.490,M,0.03841,N,0.07113,K,D*3C
$GNHDT,237.2578,T*15
$GPGGA,095110.80,2234.03473764,N,11431.92620667,E,4,26,0.6,3.3844,M,-1.3414,M,00,0000*76
$GPRMC,095110.80,A,2234.03473764,N,11431.92620667,E,0.038,251.1,041224,3.4,W,D*23
$GNVTG,20.191,T,23.621,M,0.01741,N,0.03223,K,D*34
$GNHDT,237.2227,T*18
$GPGGA,095111.00,2234.03473855,N,11431.92620703,E,4,26,0.6,3.3799,M,-1.3414,M,01,0000*7F
$GPRMC,095111.00,A,2234.03473855,N,11431.92620703,E,0.017,20.2,041224,3.4,W,D*1E
$GNVTG,43.568,T,46.997,M,0.01785,N,0.03305,K,D*3F
$GNHDT,237.3076,T*1F
$GPGGA,095111.20,2234.03473927,N,11431.92620776,E,4,26,0.6,3.3809,M,-1.3414,M,01,0000*7D
$GPRMC,095111.20,A,2234.03473927,N,11431.92620776,E,0.018,43.6,041224,3.4,W,D*14
$GNVTG,150.458,T,153.887,M,0.05432,N,0.10060,K,D*32
$GNHDT,237.1303,T*1C
$GPGGA,095111.40,2234.03473664,N,11431.92620937,E,4,26,0.6,3.3780,M,-1.3414,M,01,0000*76
$GPRMC,095111.40,A,2234.03473664,N,11431.92620937,E,0.054,150.5,041224,3.4,W,D*29
$GNVTG,237.617,T,241.047,M,0.07784,N,0.14416,K,D*30
$GNHDT,237.3644,T*18
$GPGGA,095111.60,2234.03473431,N,11431.92620543,E,4,26,0.6,3.3839,M,-1.3414,M,01,0000*74
$GPRMC,095111.60,A,2234.03473431,N,11431.92620543,E,0.078,237.6,041224,3.4,W,D*29
$GNVTG,336.776,T,340.206,M,0.00633,N,0.01172,K,D*38
$GNHDT,237.2719,T*10
$GPGGA,095111.80,2234.03473464,N,11431.92620528,E,4,26,0.6,3.3937,M,-1.3414,M,00,0000*79
$GPRMC,095111.80,A,2234.03473464,N,11431.92620528,E,0.006,336.8,041224,3.4,W,D*2D
$GNVTG,251.150,T,254.579,M,0.04997,N,0.09255,K,D*3A
$GNHDT,236.9096,T*1A
$GPGGA,095112.00,2234.03473374,N,11431.92620244,E,4,26,0.6,3.3835,M,-1.3414,M,01,0000*7B
$GPRMC,095112.00,A,2234.03473374,N,11431.92620244,E,0.050,251.1,041224,3.4,W,D*27
$GNVTG,190.675,T,194.104,M,0.03310,N,0.06129,K,D*30
$GNHDT,237.1162,T*19
$GPGGA,095112.20,2234.03473192,N,11431.92620207,E,4,26,0.6,3.4033,M,-1.3414,M,01,0000*7D
$GPRMC,095112.20,A,2234.03473192,N,11431.92620207,E,0.033,190.7,041224,3.4,W,D*25
$GNVTG,19.192,T,22.621,M,0.01713,N,0.03173,K,D*3D
$GNHDT,237.3542,T*1D
$GPGGA,095112.40,2234.03473282,N,11431.92620241,E,4,26,0.6,3.3986,M,-1.3414,M,01,0000*7B
$GPRMC,095112.40,A,2234.03473282,N,11431.92620241,E,0.017,19.2,041224,3.4,W,D*10
$GNVTG,129.787,T,133.216,M,0.04604,N,0.08527,K,D*30
$GNHDT,237.1909,T*1C
$GPGGA,095112.60,2234.03473118,N,11431.92620453,E,4,26,0.6,3.4060,M,-1.3414,M,01,0000*7A
$GPRMC,095112.60,A,2234.03473118,N,11431.92620453,E,0.046,129.8,041224,3.4,W,D*2B
$GNVTG,333.431,T,336.861,M,0.05191,N,0.09613,K,D*35
$GNHDT,236.9025,T*12
$GPGGA,095112.80,2234.03473377,N,11431.92620314,E,4,26,0.6,3.3956,M,-1.3414,M,00,0000*71
$GPRMC,095112.80,A,2234.03473377,N,11431.92620314,E,0.052,333.4,041224,3.4,W,D*2A
$GNVTG,344.563,T,347.993,M,0.07143,N,0.13230,K,D*3A
$GNHDT,237.1320,T*1D
$GPGGA,095113.00,2234.03473761,N,11431.92620200,E,4,26,0.6,3.3732,M,-1.3414,M,01,0000*72
$GPRMC,095113.00,A,2234.03473761,N,11431.92620200,E,0.071,344.6,041224,3.4,W,D*27
$GNVTG,132.432,T,135.862,M,0.10913,N,0.20211,K,D*3C
$GNHDT,236.9305,T*13
$GPGGA,095113.20,2234.03473350,N,11431.92620683,E,4,26,0.6,3.3933,M,-1.3414,M,01,0000*76
$GPRMC,095113.20,A,2234.03473350,N,11431.92620683,E,0.109,132.4,041224,3.4,W,D*23
$GNVTG,47.531,T,50.961,M,0.02061,N,0.03817,K,D*3F
$GNHDT,237.0867,T*14
$GPGGA,095113.40,2234.03473428,N,11431.92620774,E,4,26,0.6,3.4062,M,-1.3414,M,01,0000*7B
$GPRMC,095113.40,A,2234.03473428,N,11431.92620774,E,0.021,47.5,041224,3.4,W,D*1D
$GNVTG,0.323,T,3.752,M,0.02768,N,0.05127,K,D*33
$GNHDT,237.1468,T*16
$GPGGA,095113.60,2234.03473582,N,11431.92620775,E,4,26,0.6,3.4007,M,-1.3414,M,00,0000*7B
$GPRMC,095113.60,A,2234.03473582,N,11431.92620775,E,0.028,0.3,041224,3.4,W,D*23
$GNVTG,113.574,T,117.003,M,0.05501,N,0.10188,K,D*38
$GNHDT,236.8093,T*1E
$GPGGA,095113.80,2234.03473460,N,11431.92621078,E,4,26,0.6,3.4193,M,-1.3414,M,00,0000*7F
$GPRMC,095113.80,A,2234.03473460,N,11431.92621078,E,0.055,113.6,041224,3.4,W,D*27
$GNVTG,151.020,T,154.450,M,0.05712,N,0.10579,K,D*35
$GNHDT,237.0808,T*1D
$GPGGA,095114.00,2234.03473181,N,11431.92621244,E,4,26,0.6,3.4272,M,-1.3414,M,01,0000*7A
$GPRMC,095114.00,A,2234.03473181,N,11431.92621244,E,0.057,151.0,041224,3.4,W,D*2D
$GNVTG,309.702,T,313.132,M,0.09628,N,0.17830,K,D*3E
$GNHDT,236.9493,T*1B
$GPGGA,095114.20,2234.03473524,N,11431.92620799,E,4,26,0.6,3.4210,M,-1.3414,M,01,0000*73
$GPRMC,095114.20,A,2234.03473524,N,11431.92620799,E,0.096,309.7,041224,3.4,W,D*25
$GNVTG,291.678,T,295.108,M,0.09400,N,0.17410,K,D*32
$GNHDT,236.7032,T*1A
$GPGGA,095114.40,2234.03473718,N,11431.92620275,E,4,26,0.6,3.4127,M,-1.3414,M,01,0000*78
$GPRMC,095114.40,A,2234.03473718,N,11431.92620275,E,0.094,291.7,041224,3.4,W,D*2B
$GNVTG,0.763,T,4.193,M,0.02448,N,0.04533,K,D*3E
$GNHDT,236.7672,T*18
$GPGGA,095114.60,2234.03473854,N,11431.92620277,E,4,26,0.6,3.4022,M,-1.3414,M,01,0000*7B
$GPRMC,095114.60,A,2234.03473854,N,11431.92620277,E,0.024,0.8,041224,3.4,W,D*22
$GNVTG,297.162,T,300.591,M,0.02517,N,0.04661,K,D*3B
$GNHDT,236.5771,T*18
$GPGGA,095114.80,2234.03473918,N,11431.92620143,E,4,26,0.6,3.4000,M,-1.3414,M,00,0000*79
$GPRMC,095114.80,A,2234.03473918,N,11431.92620143,E,0.025,297.2,041224,3.4,W,D*26
$GNVTG,98.408,T,101.837,M,0.06374,N,0.11805,K,D*02
$GNHDT,236.8107,T*12
$GPGGA,095115.00,2234.03473866,N,11431.92620521,E,4,26,0.6,3.3874,M,-1.3414,M,01,0000*75
$GPRMC,095115.00,A,2234.03473866,N,11431.92620521,E,0.064,98.4,041224,3.4,W,D*19
$GNVTG,281.972,T,285.402,M,0.06687,N,0.12385,K,D*34
$GNHDT,236.8297,T*18
$GPGGA,095115.20,2234.03473943,N,11431.92620128,E,4,26,0.6,3.3902,M,-1.3414,M,01,0000*7C
$GPRMC,095115.20,A,2234.03473943,N,11431.92620128,E,0.067,282.0,041224,3.4,W,D*2E
$GNVTG,83.591,T,87.020,M,0.02369,N,0.04388,K,D*3A
$GNHDT,237.0256,T*1C
$GPGGA,095115.40,2234.03473958,N,11431.92620270,E,4,26,0.6,3.3637,M,-1.3414,M,01,0000*77
$GPRMC,095115.40,A,2234.03473958,N,11431.92620270,E,0.024,83.6,041224,3.4,W,D*1E
$GNVTG,282.262,T,285.691,M,0.11336,N,0.20994,K,D*37
$GNHDT,236.8938,T*16
$GPGGA,095115.60,2234.03474092,N,11431.92619605,E,4,26,0.6,3.3838,M,-1.3414,M,00,0000*71
$GPRMC,095115.60,A,2234.03474092,N,11431.92619605,E,0.113,282.3,041224,3.4,W,D*2B
$GNVTG,80.511,T,83.941,M,0.03477,N,0.06440,K,D*33
$GNHDT,236.6800,T*12
$GPGGA,095115.80,2234.03474124,N,11431.92619811,E,4,26,0.6,3.3877,M,-1.3414,M,00,0000*73
$GPRMC,095115.80,A,2234.03474124,N,11431.92619811,E,0.035,80.5,041224,3.4,W,D*11
$GNVTG,42.939,T,46.368,M,0.02657,N,0.04920,K,D*3B
$GNHDT,236.5979,T*1E
$GPGGA,095116.00,2234.03474233,N,11431.92619919,E,4,26,0.6,3.3977,M,-1.3414,M,01,0000*74
$GPRMC,095116.00,A,2234.03474233,N,11431.92619919,E,0.027,42.9,041224,3.4,W,D*17
$GNVTG,262.550,T,265.980,M,0.09035,N,0.16732,K,D*30
$GNHDT,236.8036,T*11
$GPGGA,095116.20,2234.03474167,N,11431.92619382,E,4,26,0.6,3.3999,M,-1.3414,M,01,0000*7C
$GPRMC,095116.20,A,2234.03474167,N,11431.92619382,E,0.090,262.6,041224,3.4,W,D*2C
$GNVTG,166.226,T,169.656,M,0.03671,N,0.06798,K,D*37
$GNHDT,236.7478,T*10
$GPGGA,095116.40,2234.03473969,N,11431.92619434,E,4,26,0.6,3.4081,M,-1.3414,M,01,0000*76
$GPRMC,095116.40,A,2234.03473969,N,11431.92619434,E,0.037,166.2,041224,3.4,W,D*2F
$GNVTG,32.314,T,35.743,M,0.02989,N,0.05536,K,D*36
$GNHDT,236.4853,T*16
$GPGGA,095116.60,2234.03474109,N,11431.92619530,E,4,26,0.6,3.4073,M,-1.3414,M,00,0000*74
$GPRMC,095116.60,A,2234.03474109,N,11431.92619530,E,0.030,32.3,041224,3.4,W,D*17
$GNVTG,186.996,T,190.425,M,0.02915,N,0.05399,K,D*33
$GNHDT,236.4964,T*13
$GPGGA,095116.80,2234.03473948,N,11431.92619509,E,4,26,0.6,3.4014,M,-1.3414,M,00,0000*7B
$GPRMC,095116.80,A,2234.03473948,N,11431.92619509,E,0.029,187.0,041224,3.4,W,D*2D
$GNVTG,118.922,T,122.352,M,0.02267,N,0.04199,K,D*38
$GNHDT,236.6921,T*10
$GPGGA,095117.00,2234.03473887,N,11431.92619628,E,4,26,0.6,3.4042,M,-1.3414,M,01,0000*72
$GPRMC,095117.00,A,2234.03473887,N,11431.92619628,E,0.023,118.9,041224,3.4,W,D*23
$GNVTG,126.729,T,130.158,M,0.07476,N,0.13845,K,D*36
$GNHDT,236.4991,T*19
$GPGGA,095117.20,2234.03473638,N,11431.92619987,E,4,26,0.6,3.4005,M,-1.3414,M,01,0000*73
$GPRMC,095117.20,A,2234.03473638,N,11431.92619987,E,0.075,126.7,041224,3.4,W,D*21
$GNVTG,98.665,T,102.094,M,0.06860,N,0.12704,K,D*0A
$GNHDT,236.6989,T*12
$GPGGA,095117.40,2234.03473580,N,11431.92620395,E,4,26,0.6,3.3955,M,-1.3414,M,01,0000*7D
$GPRMC,095117.40,A,2234.03473580,N,11431.92620395,E,0.069,98.7,041224,3.4,W,D*1D
$GNVTG,126.712,T,130.142,M,0.01062,N,0.01967,K,D*30
$GNHDT,236.5124,T*1E
$GPGGA,095117.60,2234.03473545,N,11431.92620446,E,4,26,0.6,3.3895,M,-1.3414,M,00,0000*73
$GPRMC,095117.60,A,2234.03473545,N,11431.92620446,E,0.011,126.7,041224,3.4,W,D*24
$GNVTG,280.716,T,284.145,M,0.03479,N,0.06443,K,D*30
$GNHDT,236.3104,T*1A
$GPGGA,095117.80,2234.03473581,N,11431.92620240,E,4,26,0.6,3.3853,M,-1.3414,M,00,0000*7F
$GPRMC,095117.80,A,2234.03473581,N,11431.92620240,E,0.035,280.7,041224,3.4,W,D*2B
$GNVTG,345.407,T,348.837,M,0.03657,N,0.06773,K,D*38
$GNHDT,236.5699,T*1F
$GPGGA,095118.00,2234.03473778,N,11431.92620185,E,4,26,0.6,3.3745,M,-1.3414,M,01,0000*7F
$GPRMC,095118.00,A,2234.03473778,N,11431.92620185,E,0.037,345.4,041224,3.4,W,D*2B
