,2234.25028073,N,11431.95935477,E,0.516,191.6,061224,3.4,W,D*2B
$GNVTG,225.254,T,228.692,M,0.25631,N,0.47469,K,D*30
$GNHDT,15.8088,T*27
$GPGGA,091829.60,2234.25027067,N,11431.95934385,E,4,23,0.6,-3.8347,M,-1.3450,M,02,0000*57
$GPRMC,091829.60,A,2234.25027067,N,11431.95934385,E,0.256,225.3,061224,3.4,W,D*22
$GNVTG,224.050,T,227.488,M,0.24053,N,0.44546,K,D*3D
$GNHDT,15.6946,T*22
$GPGGA,091829.80,2234.25026104,N,11431.95933381,E,4,23,0.6,-3.8204,M,-1.3450,M,00,0000*5B
$GPRMC,091829.80,A,2234.25026104,N,11431.95933381,E,0.241,224.0,061224,3.4,W,D*2E
$GNVTG,240.110,T,243.549,M,0.20146,N,0.37311,K,D*35
$GNHDT,15.9930,T*2C
$GPGGA,091830.00,2234.25025544,N,11431.95932332,E,4,23,0.6,-3.8197,M,-1.3450,M,01,0000*59
$GPRMC,091830.00,A,2234.25025544,N,11431.95932332,E,0.201,240.1,061224,3.4,W,D*23
$GNVTG,207.234,T,210.673,M,0.36206,N,0.67054,K,D*38
$GNHDT,15.9692,T*2B
$GPGGA,091830.20,2234.25023749,N,11431.95931338,E,4,23,0.6,-3.8260,M,-1.3450,M,01,0000*50
$GPRMC,091830.20,A,2234.25023749,N,11431.95931338,E,0.362,207.2,061224,3.4,W,D*25
$GNVTG,189.506,T,192.944,M,0.63778,N,1.18117,K,D*3A
$GNHDT,15.9996,T*20
$GPGGA,091830.40,2234.25020243,N,11431.95930705,E,4,23,0.6,-3.8471,M,-1.3450,M,01,0000*57
$GPRMC,091830.40,A,2234.25020243,N,11431.95930705,E,0.638,189.5,061224,3.4,W,D*2C
$GNVTG,199.523,T,202.961,M,0.66465,N,1.23093,K,D*3E
$GNHDT,16.3120,T*2C
$GPGGA,091830.60,2234.25016750,N,11431.95929372,E,4,23,0.6,-3.8680,M,-1.3450,M,01,0000*57
$GPRMC,091830.60,A,2234.25016750,N,11431.95929372,E,0.665,199.5,061224,3.4,W,D*29
$GNVTG,203.755,T,207.193,M,0.54298,N,1.00561,K,D*31
$GNHDT,16.6926,T*27
$GPGGA,091830.80,2234.25013980,N,11431.95928059,E,4,22,0.7,-3.8846,M,-1.3450,M,00,0000*51
$GPRMC,091830.80,A,2234.25013980,N,11431.95928059,E,0.543,203.8,061224,3.4,W,D*20
$GNVTG,213.187,T,216.625,M,0.37124,N,0.68753,K,D*3E
$GNHDT,16.9154,T*25
$GPGGA,091831.00,2234.25012248,N,11431.95926839,E,4,22,0.7,-3.8647,M,-1.3450,M,01,0000*58
$GPRMC,091831.00,A,2234.25012248,N,11431.95926839,E,0.371,213.2,061224,3.4,W,D*2B
$GNVTG,255.291,T,258.730,M,0.26164,N,0.48456,K,D*37
$GNHDT,17.4056,T*2A
$GPGGA,091831.20,2234.25011878,N,11431.95925320,E,4,22,0.7,-3.8745,M,-1.3450,M,01,0000*53
$GPRMC,091831.20,A,2234.25011878,N,11431.95925320,E,0.262,255.3,061224,3.4,W,D*23
$GNVTG,209.385,T,212.823,M,0.16540,N,0.30631,K,D*34
$GNHDT,17.4786,T*20
$GPGGA,091831.40,2234.25011074,N,11431.95924833,E,4,22,0.7,-3.8749,M,-1.3450,M,01,0000*55
$GPRMC,091831.40,A,2234.25011074,N,11431.95924833,E,0.165,209.4,061224,3.4,W,D*23
$GNVTG,215.005,T,218.444,M,0.33590,N,0.62209,K,D*37
$GNHDT,17.5406,T*2A
$GPGGA,091831.60,2234.25009540,N,11431.95923677,E,4,22,0.7,-3.8632,M,-1.3450,M,01,0000*58
$GPRMC,091831.60,A,2234.25009540,N,11431.95923677,E,0.336,215.0,061224,3.4,W,D*2E
$GNVTG,200.325,T,203.763,M,0.42247,N,0.78241,K,D*32
$GNHDT,17.4314,T*2F
$GPGGA,091831.80,2234.25007332,N,11431.95922796,E,4,22,0.7,-3.8447,M,-1.3450,M,00,0000*55
$GPRMC,091831.80,A,2234.25007332,N,11431.95922796,E,0.422,200.3,061224,3.4,W,D*27
$GNVTG,202.018,T,205.457,M,0.58277,N,1.07928,K,D*3A
$GNHDT,17.3092,T*25
$GPGGA,091832.00,2234.25004320,N,11431.95921484,E,4,22,0.7,-3.8385,M,-1.3450,M,01,0000*55
$GPRMC,091832.00,A,2234.25004320,N,11431.95921484,E,0.583,202.0,061224,3.4,W,D*24
$GNVTG,203.091,T,206.529,M,0.44079,N,0.81635,K,D*3C
$GNHDT,17.6357,T*2A
$GPGGA,091832.20,2234.25002060,N,11431.95920447,E,4,22,0.7,-3.8521,M,-1.3450,M,01,0000*50
$GPRMC,091832.20,A,2234.25002060,N,11431.95920447,E,0.441,203.1,061224,3.4,W,D*26
$GNVTG,194.109,T,197.547,M,0.41278,N,0.76448,K,D*34
$GNHDT,17.4734,T*29
$GPGGA,091832.40,2234.24999828,N,11431.95919843,E,4,22,0.7,-3.8534,M,-1.3450,M,01,0000*5E
$GPRMC,091832.40,A,2234.24999828,N,11431.95919843,E,0.413,194.1,061224,3.4,W,D*26
$GNVTG,217.316,T,220.754,M,0.27161,N,0.50302,K,D*39
$GNHDT,18.4010,T*27
$GPGGA,091832.60,2234.24998624,N,11431.95918854,E,4,23,0.6,-3.8540,M,-1.3450,M,01,0000*5B
$GPRMC,091832.60,A,2234.24998624,N,11431.95918854,E,0.272,217.3,061224,3.4,W,D*2B
$GNVTG,200.525,T,203.963,M,0.32526,N,0.60238,K,D*3A
$GNHDT,18.1571,T*20
$GPGGA,091832.80,2234.24996926,N,11431.95918170,E,4,23,0.6,-3.8506,M,-1.3450,M,00,0000*5A
$GPRMC,091832.80,A,2234.24996926,N,11431.95918170,E,0.325,200.5,061224,3.4,W,D*2A
$GNVTG,221.435,T,224.874,M,0.36733,N,0.68029,K,D*33
$GNHDT,18.5132,T*27
$GPGGA,091833.00,2234.24995390,N,11431.95916711,E,4,23,0.6,-3.8440,M,-1.3450,M,01,0000*5A
$GPRMC,091833.00,A,2234.24995390,N,11431.95916711,E,0.367,221.4,061224,3.4,W,D*2C
$GNVTG,206.871,T,210.309,M,0.50801,N,0.94083,K,D*31
$GNHDT,19.0449,T*2A
$GPGGA,091833.20,2234.24992864,N,11431.95915332,E,4,23,0.6,-3.8579,M,-1.3450,M,01,0000*52
$GPRMC,091833.20,A,2234.24992864,N,11431.95915332,E,0.508,206.9,061224,3.4,W,D*28
$GNVTG,195.970,T,199.408,M,0.47119,N,0.87264,K,D*33
$GNHDT,19.2616,T*20
$GPGGA,091833.40,2234.24990339,N,11431.95914554,E,4,23,0.6,-3.8519,M,-1.3450,M,01,0000*54
$GPRMC,091833.40,A,2234.24990339,N,11431.95914554,E,0.471,196.0,061224,3.4,W,D*24
$GNVTG,199.789,T,203.227,M,0.46665,N,0.86423,K,D*35
$GNHDT,19.2059,T*2D
$GPGGA,091833.60,2234.24987891,N,11431.95913606,E,4,23,0.6,-3.8527,M,-1.3450,M,01,0000*57
$GPRMC,091833.60,A,2234.24987891,N,11431.95913606,E,0.467,199.8,061224,3.4,W,D*2A
$GNVTG,203.024,T,206.462,M,0.36658,N,0.67891,K,D*34
$GNHDT,19.4227,T*20
$GPGGA,091833.80,2234.24986010,N,11431.95912745,E,4,23,0.6,-3.8501,M,-1.3450,M,00,0000*5B
$GPRMC,091833.80,A,2234.24986010,N,11431.95912745,E,0.367,203.0,061224,3.4,W,D*2C
$GNVTG,207.129,T,210.568,M,0.29277,N,0.54220,K,D*37
$GNHDT,19.0579,T*28
$GPGGA,091834.00,2234.24984558,N,11431.95911944,E,4,23,0.6,-3.8433,M,-1.3450,M,01,0000*52
$GPRMC,091834.00,A,2234.24984558,N,11431.95911944,E,0.293,207.1,061224,3.4,W,D*2B
$GNVTG,210.701,T,214.139,M,0.16168,N,0.29944,K,D*3B
$GNHDT,18.8991,T*2B
$GPGGA,091834.20,2234.24983783,N,11431.95911448,E,4,23,0.6,-3.8664,M,-1.3450,M,01,0000*52
$GPRMC,091834.20,A,2234.24983783,N,11431.95911448,E,0.162,210.7,061224,3.4,W,D*26
$GNVTG,198.294,T,201.732,M,0.27261,N,0.50487,K,D*3C
$GNHDT,18.9751,T*28
$GPGGA,091834.40,2234.24982340,N,11431.95910935,E,4,23,0.6,-3.8842,M,-1.3450,M,01,0000*52
$GPRMC,091834.40,A,2234.24982340,N,11431.95910935,E,0.273,198.3,061224,3.4,W,D*28
$GNVTG,203.459,T,206.898,M,0.35994,N,0.66661,K,D*3F
$GNHDT,19.3069,T*2F
$GPGGA,091834.60,2234.24980499,N,11431.95910074,E,4,23,0.6,-3.8951,M,-1.3450,M,01,0000*5E
$GPRMC,091834.60,A,2234.24980499,N,11431.95910074,E,0.360,203.5,061224,3.4,W,D*23
$GNVTG,199.711,T,203.150,M,0.45442,N,0.84158,K,D*38
$GNHDT,19.4931,T*2C
$GPGGA,091834.80,2234.24978114,N,11431.95909154,E,4,23,0.6,-3.8930,M,-1.3450,M,00,0000*5A
$GPRMC,091834.80,A,2234.24978114,N,11431.95909154,E,0.454,199.7,061224,3.4,W,D*23
$GNVTG,206.346,T,209.785,M,0.34830,N,0.64506,K,D*31
$GNHDT,20.0513,T*2E
$GPGGA,091835.00,2234.24976374,N,11431.95908227,E,4,23,0.6,-3.8800,M,-1.3450,M,01,0000*5C
$GPRMC,091835.00,A,2234.24976374,N,11431.95908227,E,0.348,206.3,061224,3.4,W,D*2D
$GNVTG,200.982,T,204.421,M,0.32849,N,0.60836,K,D*37
$GNHDT,20.4266,T*2F
$GPGGA,091835.20,2234.24974664,N,11431.95907521,E,4,24,0.6,-3.8631,M,-1.3450,M,01,0000*5D
$GPRMC,091835.20,A,2234.24974664,N,11431.95907521,E,0.328,201.0,061224,3.4,W,D*25
$GNVTG,206.581,T,210.020,M,0.17576,N,0.32551,K,D*33
$GNHDT,20.4709,T*23
$GPGGA,091835.40,2234.24973788,N,11431.95907048,E,4,24,0.6,-3.8549,M,-1.3450,M,01,0000*59
$GPRMC,091835.40,A,2234.24973788,N,11431.95907048,E,0.176,206.6,061224,3.4,W,D*25
$GNVTG,220.099,T,223.537,M,0.25446,N,0.47126,K,D*3D
$GNHDT,20.8200,T*23
$GPGGA,091835.60,2234.24972703,N,11431.95906065,E,4,23,0.6,-3.8464,M,-1.3450,M,01,0000*5E
$GPRMC,091835.60,A,2234.24972703,N,11431.95906065,E,0.254,220.1,061224,3.4,W,D*2B
$GNVTG,203.358,T,206.796,M,0.35627,N,0.65981,K,D*3D
$GNHDT,20.7319,T*25
$GPGGA,091835.80,2234.24970880,N,11431.95905217,E,4,24,0.6,-3.8461,M,-1.3450,M,00,0000*51
$GPRMC,091835.80,A,2234.24970880,N,11431.95905217,E,0.356,203.4,061224,3.4,W,D*20
$GNVTG,210.910,T,214.348,M,0.35642,N,0.66009,K,D*34
$GNHDT,20.6849,T*2A
$GPGGA,091836.00,2234.24969175,N,11431.95904118,E,4,24,0.6,-3.8617,M,-1.3450,M,01,0000*5E
$GPRMC,091836.00,A,2234.24969175,N,11431.95904118,E,0.356,210.9,061224,3.4,W,D*22
$GNVTG,200.035,T,203.474,M,0.41550,N,0.76950,K,D*32
$GNHDT,20.9349,T*2E
$GPGGA,091836.20,2234.24966999,N,11431.95903263,E,4,24,0.6,-3.8851,M,-1.3450,M,01,0000*5D
$GPRMC,091836.20,A,2234.24966999,N,11431.95903263,E,0.415,200.0,061224,3.4,W,D*25
$GNVTG,185.461,T,188.899,M,0.45538,N,0.84336,K,D*3B
$GNHDT,20.9594,T*28
$GPGGA,091836.40,2234.24964472,N,11431.95903003,E,4,24,0.6,-3.9061,M,-1.3450,M,01,0000*5F
$GPRMC,091836.40,A,2234.24964472,N,11431.95903003,E,0.455,185.5,061224,3.4,W,D*22
$GNVTG,195.168,T,198.606,M,0.24435,N,0.45254,K,D*3C
$GNHDT,21.1107,T*2F
$GPGGA,091836.60,2234.24963157,N,11431.95902619,E,4,24,0.6,-3.9120,M,-1.3450,M,01,0000*50
$GPRMC,091836.60,A,2234.24963157,N,11431.95902619,E,0.244,195.2,061224,3.4,W,D*29
$GNVTG,204.293,T,207.731,M,0.26395,N,0.48883,K,D*32
$GNHDT,21.5350,T*2B
$GPGGA,091836.80,2234.24961816,N,11431.95901968,E,4,24,0.6,-3.8835,M,-1.3450,M,00,0000*57
$GPRMC,091836.80,A,2234.24961816,N,11431.95901968,E,0.264,204.3,061224,3.4,W,D*2B
$GNVTG,189.881,T,193.319,M,0.26070,N,0.48282,K,D*3E
$GNHDT,21.0210,T*2B
$GPGGA,091837.00,2234.24960384,N,11431.95901699,E,4,25,0.6,-3.8686,M,-1.3450,M,01,0000*58
$GPRMC,091837.00,A,2234.24960384,N,11431.95901699,E,0.261,189.9,061224,3.4,W,D*2B
$GNVTG,197.083,T,200.522,M,0.18901,N,0.35005,K,D*39
$GNHDT,21.5093,T*27
$GPGGA,091837.20,2234.24959377,N,11431.95901366,E,4,25,0.6,-3.8268,M,-1.3450,M,01,0000*5D
$GPRMC,091837.20,A,2234.24959377,N,11431.95901366,E,0.189,197.1,061224,3.4,W,D*28
$GNVTG,190.083,T,193.522,M,0.19805,N,0.36679,K,D*3D
$GNHDT,21.6655,T*28
$GPGGA,091837.40,2234.24958290,N,11431.95901158,E,4,25,0.6,-3.8242,M,-1.3450,M,01,0000*55
$GPRMC,091837.40,A,2234.24958290,N,11431.95901158,E,0.198,190.1,061224,3.4,W,D*2F
$GNVTG,195.112,T,198.550,M,0.22936,N,0.42478,K,D*36
$GNHDT,21.8460,T*22
$GPGGA,091837.60,2234.24957055,N,11431.95900799,E,4,25,0.6,-3.8129,M,-1.3450,M,01,0000*57
$GPRMC,091837.60,A,2234.24957055,N,11431.95900799,E,0.229,195.1,061224,3.4,W,D*2F
$GNVTG,194.795,T,198.234,M,0.41992,N,0.77769,K,D*35
$GNHDT,21.5400,T*29
$GPGGA,091837.80,2234.24954792,N,11431.95900155,E,4,24,0.6,-3.8083,M,-1.3450,M,00,0000*51
$GPRMC,091837.80,A,2234.24954792,N,11431.95900155,E,0.420,194.8,061224,3.4,W,D*2F
$GNVTG,215.652,T,219.091,M,0.52850,N,0.97879,K,D*3F
$GNHDT,21.9880,T*21
$GPGGA,091838.00,2234.24952398,N,11431.95898306,E,4,24,0.6,-3.8082,M,-1.3450,M,01,0000*5A
$GPRMC,091838.00,A,2234.24952398,N,11431.95898306,E,0.529,215.7,061224,3.4,W,D*29
$GNVTG,212.363,T,215.801,M,0.63614,N,1.17814,K,D*3C
$GNHDT,22.2267,T*2A
$GPGGA,091838.20,2234.24949403,N,11431.95896262,E,4,24,0.6,-3.8000,M,-1.3450,M,01,0000*50
$GPRMC,091838.20,A,2234.24949403,N,11431.95896262,E,0.636,212.4,061224,3.4,W,D*20
$GNVTG,218.132,T,221.570,M,0.57308,N,1.06135,K,D*39
$GNHDT,23.1243,T*2E
$GPGGA,091838.40,2234.24946890,N,11431.95894138,E,4,24,0.6,-3.8407,M,-1.3450,M,01,0000*52
$GPRMC,091838.40,A,2234.24946890,N,11431.95894138,E,0.573,218.1,061224,3.4,W,D*2C
$GNVTG,211.493,T,214.931,M,0.48779,N,0.90338,K,D*3C
$GNHDT,23.2063,T*2D
$GPGGA,091838.60,2234.24944571,N,11431.95892608,E,4,25,0.6,-3.8582,M,-1.3450,M,01,0000*5F
$GPRMC,091838.60,A,2234.24944571,N,11431.95892608,E,0.488,211.5,061224,3.4,W,D*24
$GNVTG,219.139,T,222.578,M,0.37956,N,0.70294,K,D*37
$GNHDT,23.4214,T*29
$GPGGA,091838.80,2234.24942930,N,11431.95891170,E,4,24,0.6,-3.8794,M,-1.3450,M,01,0000*51
$GPRMC,091838.80,A,2234.24942930,N,11431.95891170,E,0.380,219.1,061224,3.4,W,D*2D
$GNVTG,219.782,T,223.220,M,0.22729,N,0.42094,K,D*3B
$GNHDT,22.8544,T*26
$GPGGA,091839.00,2234.24941956,N,11431.95890297,E,4,24,0.6,-3.8665,M,-1.3450,M,02,0000*5C
$GPRMC,091839.00,A,2234.24941956,N,11431.95890297,E,0.227,219.8,061224,3.4,W,D*29
$GNVTG,236.849,T,240.287,M,0.21438,N,0.39704,K,D*34
$GNHDT,22.8198,T*23
$GPGGA,091839.20,2234.24941303,N,11431.95889220,E,4,24,0.6,-3.8385,M,-1.3450,M,02,0000*5B
$GPRMC,091839.20,A,2234.24941303,N,11431.95889220,E,0.214,236.8,061224,3.4,W,D*28
$GNVTG,217.147,T,220.585,M,0.33367,N,0.61795,K,D*38
$GNHDT,22.4868,T*29
$GPGGA,091839.40,2234.24939820,N,11431.95888010,E,4,24,0.6,-3.8130,M,-1.3450,M,02,0000*54
$GPRMC,091839.40,A,2234.24939820,N,11431.95888010,E,0.334,217.1,061224,3.4,W,D*22
$GNVTG,203.294,T,206.732,M,0.39396,N,0.72961,K,D*39
$GNHDT,22.4299,T*2D
$GPGGA,091839.60,2234.24937803,N,11431.95887075,E,4,25,0.6,-3.8165,M,-1.3450,M,02,0000*54
$GPRMC,091839.60,A,2234.24937803,N,11431.95887075,E,0.394,203.3,061224,3.4,W,D*2E
$GNVTG,212.202,T,215.640,M,0.44996,N,0.83333,K,D*33
$GNHDT,22.8541,T*23
$GPGGA,091839.80,2234.24935680,N,11431.95885636,E,4,25,0.6,-3.8328,M,-1.3450,M,00,0000*57
$GPRMC,091839.80,A,2234.24935680,N,11431.95885636,E,0.450,212.2,061224,3.4,W,D*2A
$GNVTG,199.231,T,202.669,M,0.53391,N,0.98880,K,D*3C
$GNHDT,23.3673,T*2B
$GPGGA,091840.00,2234.24932870,N,11431.95884580,E,4,25,0.6,-3.8798,M,-1.3450,M,01,0000*56
$GPRMC,091840.00,A,2234.24932870,N,11431.95884580,E,0.534,199.2,061224,3.4,W,D*26
$GNVTG,192.221,T,195.659,M,0.37541,N,0.69526,K,D*3E
$GNHDT,23.9627,T*20
$GPGGA,091840.20,2234.24930824,N,11431.95884103,E,4,25,0.6,-3.9426,M,-1.3450,M,01,0000*5F
$GPRMC,091840.20,A,2234.24930824,N,11431.95884103,E,0.375,192.2,061224,3.4,W,D*20
$GNVTG,184.769,T,188.207,M,0.25721,N,0.47634,K,D*38
$GNHDT,23.6685,T*27
$GPGGA,091840.40,2234.24929396,N,11431.95883975,E,4,25,0.6,-3.9536,M,-1.3450,M,01,0000*5D
$GPRMC,091840.40,A,2234.24929396,N,11431.95883975,E,0.257,184.8,061224,3.4,W,D*2E
$GNVTG,188.610,T,192.048,M,0.22218,N,0.41147,K,D*34
$GNHDT,23.5392,T*27
$GPGGA,091840.60,2234.24928171,N,11431.95883775,E,4,25,0.6,-3.9548,M,-1.3450,M,01,0000*52
$GPRMC,091840.60,A,2234.24928171,N,11431.95883775,E,0.222,188.6,061224,3.4,W,D*28
$GNVTG,191.600,T,195.038,M,0.19463,N,0.36045,K,D*3C
$GNHDT,22.9139,T*29
$GPGGA,091840.80,2234.24927108,N,11431.95883540,E,4,25,0.6,-3.9212,M,-1.3450,M,00,0000*50
$GPRMC,091840.80,A,2234.24927108,N,11431.95883540,E,0.195,191.6,061224,3.4,W,D*24
$GNVTG,223.882,T,227.320,M,0.21200,N,0.39263,K,D*33
$GNHDT,23.0803,T*21
$GPGGA,091841.00,2234.24926256,N,11431.95882658,E,4,25,0.6,-3.8739,M,-1.3450,M,01,0000*57
$GPRMC,091841.00,A,2234.24926256,N,11431.95882658,E,0.212,223.9,061224,3.4,W,D*26
$GNVTG,199.740,T,203.178,M,0.16559,N,0.30667,K,D*3F
$GNHDT,23.0241,T*2D
$GPGGA,091841.20,2234.24925387,N,11431.95882322,E,4,25,0.6,-3.8372,M,-1.3450,M,01,0000*58
$GPRMC,091841.20,A,2234.24925387,N,11431.95882322,E,0.166,199.7,061224,3.4,W,D*2E
$GNVTG,213.634,T,217.073,M,0.36435,N,0.67477,K,D*3B
$GNHDT,23.5115,T*2A
$GPGGA,091841.40,2234.24923696,N,11431.95881111,E,4,24,0.6,-3.8238,M,-1.3450,M,01,0000*52
$GPRMC,091841.40,A,2234.24923696,N,11431.95881111,E,0.364,213.6,061224,3.4,W,D*2A
$GNVTG,197.678,T,201.116,M,0.40526,N,0.75055,K,D*3C
$GNHDT,23.4080,T*26
$GPGGA,091841.60,2234.24921544,N,11431.95880372,E,4,24,0.6,-3.8241,M,-1.3450,M,01,0000*56
$GPRMC,091841.60,A,2234.24921544,N,11431.95880372,E,0.405,197.7,061224,3.4,W,D*2E
$GNVTG,200.338,T,203.776,M,0.52390,N,0.97025,K,D*31
$GNHDT,23.4663,T*2D
$GPGGA,091841.80,2234.24918805,N,11431.95879279,E,4,24,0.6,-3.8489,M,-1.3450,M,00,0000*55
$GPRMC,091841.80,A,2234.24918805,N,11431.95879279,E,0.524,200.3,061224,3.4,W,D*25
$GNVTG,204.067,T,207.505,M,0.56409,N,1.04469,K,D*3A
$GNHDT,23.8105,T*26
$GPGGA,091842.00,2234.24915934,N,11431.95877899,E,4,24,0.6,-3.8874,M,-1.3450,M,01,0000*55
$GPRMC,091842.00,A,2234.24915934,N,11431.95877899,E,0.564,204.1,061224,3.4,W,D*28
$GNVTG,216.382,T,219.820,M,0.47392,N,0.87770,K,D*30
$GNHDT,23.8861,T*2D
$GPGGA,091842.20,2234.24913807,N,11431.95876211,E,4,25,0.6,-3.9212,M,-1.3450,M,01,0000*51
$GPRMC,091842.20,A,2234.24913807,N,11431.95876211,E,0.474,216.4,061224,3.4,W,D*20
$GNVTG,214.812,T,218.251,M,0.24459,N,0.45298,K,D*35
$GNHDT,23.6941,T*20
$GPGGA,091842.40,2234.24912687,N,11431.95875373,E,4,25,0.6,-3.8830,M,-1.3450,M,01,0000*5D
$GPRMC,091842.40,A,2234.24912687,N,11431.95875373,E,0.245,214.8,061224,3.4,W,D*2D
$GNVTG,252.927,T,256.365,M,0.19713,N,0.36509,K,D*34
$GNHDT,23.7336,T*2B
$GPGGA,091842.60,2234.24912365,N,11431.95874242,E,4,25,0.6,-3.8701,M,-1.3450,M,01,0000*59
$GPRMC,091842.60,A,2234.24912365,N,11431.95874242,E,0.197,252.9,061224,3.4,W,D*2B
$GNVTG,236.858,T,240.297,M,0.20918,N,0.38741,K,D*3B
$GNHDT,23.8410,T*27
$GPGGA,091842.80,2234.24911727,N,11431.95873190,E,4,25,0.6,-3.8608,M,-1.3450,M,00,0000*54
$GPRMC,091842.80,A,2234.24911727,N,11431.95873190,E,0.209,236.9,061224,3.4,W,D*29
$GNVTG,228.160,T,231.598,M,0.21825,N,0.40420,K,D*3D
$GNHDT,23.6567,T*28
$GPGGA,091843.00,2234.24910916,N,11431.95872214,E,4,25,0.6,-3.8620,M,-1.3450,M,01,0000*55
$GPRMC,091843.00,A,2234.24910916,N,11431.95872214,E,0.218,228.2,061224,3.4,W,D*27
$GNVTG,209.525,T,212.964,M,0.34897,N,0.64629,K,D*35
$GNHDT,23.7290,T*26
$GPGGA,091843.20,2234.24909223,N,11431.95871182,E,4,25,0.6,-3.8847,M,-1.3450,M,01,0000*52
$GPRMC,091843.20,A,2234.24909223,N,11431.95871182,E,0.349,209.5,061224,3.4,W,D*2E
$GNVTG,214.371,T,217.810,M,0.30750,N,0.56949,K,D*31
$GNHDT,23.6299,T*2E
$GPGGA,091843.40,2234.24907808,N,11431.95870140,E,4,25,0.6,-3.8907,M,-1.3450,M,01,0000*53
$GPRMC,091843.40,A,2234.24907808,N,11431.95870140,E,0.308,214.4,061224,3.4,W,D*22
$GNVTG,199.099,T,202.538,M,0.35249,N,0.65281,K,D*36
$GNHDT,23.7744,T*2A
$GPGGA,091843.60,2234.24905951,N,11431.95869448,E,4,25,0.6,-3.9024,M,-1.3450,M,01,0000*52
$GPRMC,091843.60,A,2234.24905951,N,11431.95869448,E,0.352,199.1,061224,3.4,W,D*26
$GNVTG,190.679,T,194.118,M,0.40154,N,0.74365,K,D*3B
$GNHDT,23.7964,T*26
$GPGGA,091843.80,2234.24903751,N,11431.95869001,E,4,25,0.6,-3.9147,M,-1.3450,M,00,0000*58
$GPRMC,091843.80,A,2234.24903751,N,11431.95869001,E,0.402,190.7,061224,3.4,W,D*24
$GNVTG,198.558,T,201.996,M,0.38687,N,0.71649,K,D*3A
$GNHDT,24.1365,T*2C
$GPGGA,091844.00,2234.24901707,N,11431.95868262,E,4,25,0.6,-3.9025,M,-1.3450,M,01,0000*54
$GPRMC,091844.00,A,2234.24901707,N,11431.95868262,E,0.387,198.6,061224,3.4,W,D*2F
$GNVTG,194.931,T,198.369,M,0.34162,N,0.63267,K,D*37
$GNHDT,24.3246,T*2E
$GPGGA,091844.20,2234.24899867,N,11431.95867734,E,4,25,0.6,-3.8715,M,-1.3450,M,01,0000*53
$GPRMC,091844.20,A,2234.24899867,N,11431.95867734,E,0.342,194.9,061224,3.4,W,D*27
$GNVTG,206.644,T,210.083,M,0.26096,N,0.48330,K,D*35
$GNHDT,24.4668,T*21
$GPGGA,091844.40,2234.24898566,N,11431.95867031,E,4,25,0.6,-3.8343,M,-1.3450,M,01,0000*5D
$GPRMC,091844.40,A,2234.24898566,N,11431.95867031,E,0.261,206.6,061224,3.4,W,D*29
$GNVTG,228.804,T,232.242,M,0.31127,N,0.57647,K,D*3A
$GNHDT,24.8990,T*25
$GPGGA,091844.60,2234.24897424,N,11431.95865625,E,4,25,0.6,-3.7819,M,-1.3450,M,01,0000*5D
$GPRMC,091844.60,A,2234.24897424,N,11431.95865625,E,0.311,228.8,061224,3.4,W,D*26
$GNVTG,217.974,T,221.412,M,0.30443,N,0.56380,K,D*38
$GNHDT,24.8727,T*27
$GPGGA,091844.80,2234.24896086,N,11431.95864501,E,4,25,0.6,-3.7629,M,-1.3450,M,01,0000*57
$GPRMC,091844.80,A,2234.24896086,N,11431.95864501,E,0.304,218.0,061224,3.4,W,D*2E
$GNVTG,218.152,T,221.590,M,0.38593,N,0.71474,K,D*3D
$GNHDT,24.8170,T*23
$GPGGA,091845.00,2234.24894394,N,11431.95863070,E,4,25,0.6,-3.7701,M,-1.3450,M,02,0000*50
$GPRMC,091845.00,A,2234.24894394,N,11431.95863070,E,0.386,218.2,061224,3.4,W,D*29
$GNVTG,211.173,T,214.611,M,0.32119,N,0.59484,K,D*32
$GNHDT,24.2000,T*2F
$GPGGA,091845.20,2234.24892862,N,11431.95862072,E,4,25,0.6,-3.8167,M,-1.3450,M,02,0000*5C
$GPRMC,091845.20,A,2234.24892862,N,11431.95862072,E,0.321,211.2,061224,3.4,W,D*28
$GNVTG,213.805,T,217.244,M,0.43602,N,0.80751,K,D*3B
$GNHDT,24.3907,T*20
$GPGGA,091845.40,2234.24890842,N,11431.95860616,E,4,25,0.6,-3.8788,M,-1.3450,M,02,0000*5B
$GPRMC,091845.40,A,2234.24890842,N,11431.95860616,E,0.436,213.8,061224,3.4,W,D*21
$GNVTG,200.925,T,204.363,M,0.39251,N,0.72693,K,D*31
$GNHDT,24.4387,T*25
$GPGGA,091845.60,2234.24888798,N,11431.95859774,E,4,25,0.6,-3.9455,M,-1.3450,M,02,0000*55
$GPRMC,091845.60,A,2234.24888798,N,11431.95859774,E,0.393,200.9,061224,3.4,W,D*26
$GNVTG,199.272,T,202.710,M,0.36473,N,0.67548,K,D*35
$GNHDT,24.5862,T*24
$GPGGA,091845.80,2234.24886879,N,11431.95859052,E,4,24,0.6,-3.9789,M,-1.3450,M,00,0000*57
$GPRMC,091845.80,A,2234.24886879,N,11431.95859052,E,0.365,199.3,061224,3.4,W,D*25
$GNVTG,200.433,T,203.872,M,0.29057,N,0.53813,K,D*37
$GNHDT,24.5274,T*29
$GPGGA,091846.00,2234.24885361,N,11431.95858443,E,4,24,0.6,-3.9731,M,-1.3450,M,01,0000*5A
$GPRMC,091846.00,A,2234.24885361,N,11431.95858443,E,0.291,200.4,061224,3.4,W,D*24
$GNVTG,199.899,T,203.338,M,0.31184,N,0.57752,K,D*35
$GNHDT,24.9291,T*2E
$GPGGA,091846.20,2234.24883726,N,11431.95857806,E,4,24,0.6,-3.9262,M,-1.3450,M,01,0000*58
$GPRMC,091846.20,A,2234.24883726,N,11431.95857806,E,0.312,199.9,061224,3.4,W,D*21
$GNVTG,215.324,T,218.763,M,0.33961,N,0.62895,K,D*3C
$GNHDT,25.4149,T*24
$GPGGA,091846.40,2234.24882182,N,11431.95856627,E,4,24,0.6,-3.8351,M,-1.3450,M,01,0000*5B
$GPRMC,091846.40,A,2234.24882182,N,11431.95856627,E,0.340,215.3,061224,3.4,W,D*28
$GNVTG,204.394,T,207.832,M,0.37225,N,0.68940,K,D*3E
$GNHDT,25.4480,T*24
$GPGGA,091846.60,2234.24880292,N,11431.95855704,E,4,25,0.6,-3.7798,M,-1.3450,M,01,0000*55
$GPRMC,091846.60,A,2234.24880292,N,11431.95855704,E,0.372,204.4,061224,3.4,W,D*2F
$GNVTG,208.783,T,212.221,M,0.37881,N,0.70156,K,D*3E
$GNHDT,25.8578,T*2E
$GPGGA,091846.80,2234.24878441,N,11431.95854609,E,4,24,0.6,-3.7444,M,-1.3450,M,00,0000*5B
$GPRMC,091846.80,A,2234.24878441,N,11431.95854609,E,0.379,208.8,061224,3.4,W,D*28
$GNVTG,225.271,T,228.709,M,0.33780,N,0.62560,K,D*37
$GNHDT,26.0595,T*26
$GPGGA,091847.00,2234.24877116,N,11431.95853169,E,4,24,0.6,-3.7409,M,-1.3450,M,01,0000*54
$GPRMC,091847.00,A,2234.24877116,N,11431.95853169,E,0.338,225.3,061224,3.4,W,D*2E
$GNVTG,227.920,T,231.358,M,0.35173,N,0.65140,K,D*3F
$GNHDT,25.7511,T*2E
$GPGGA,091847.20,2234.24875802,N,11431.95851602,E,4,23,0.6,-3.7740,M,-1.3450,M,01,0000*59
$GPRMC,091847.20,A,2234.24875802,N,11431.95851602,E,0.352,227.9,061224,3.4,W,D*2E
$GNVTG,221.972,T,225.410,M,0.37457,N,0.69370,K,D*3C
$GNHDT,25.9892,T*26
$GPGGA,091847.40,2234.24874249,N,11431.95850098,E,4,23,0.6,-3.8291,M,-1.3450,M,01,0000*59
$GPRMC,091847.40,A,2234.24874249,N,11431.95850098,E,0.375,222.0,061224,3.4,W,D*21
$GNVTG,215.566,T,219.004,M,0.52740,N,0.97674,K,D*3A
$GNHDT,25.5471,T*2B
$GPGGA,091847.60,2234.24871858,N,11431.95848257,E,4,23,0.6,-3.9123,M,-1.3450,M,01,0000*57
$GPRMC,091847.60,A,2234.24871858,N,11431.95848257,E,0.527,215.6,061224,3.4,W,D*27
$GNVTG,221.756,T,225.194,M,0.53260,N,0.98638,K,D*3A
$GNHDT,26.0155,T*2E
$GPGGA,091847.80,2234.24869643,N,11431.95846128,E,4,23,0.6,-3.9636,M,-1.3450,M,00,0000*53
$GPRMC,091847.80,A,2234.24869643,N,11431.95846128,E,0.533,221.8,061224,3.4,W,D*2D
$GNVTG,202.296,T,205.735,M,0.35165,N,0.65126,K,D*31
$GNHDT,26.1706,T*2F
$GPGGA,091848.00,2234.24867829,N,11431.95845327,E,4,23,0.6,-3.9659,M,-1.3450,M,01,0000*5E
$GPRMC,091848.00,A,2234.24867829,N,11431.95845327,E,0.352,202.3,061224,3.4,W,D*23
$GNVTG,181.262,T,184.701,M,0.22669,N,0.41984,K,D*34
$GNHDT,25.7437,T*2B
$GPGGA,091848.20,2234.24866565,N,11431.95845297,E,4,23,0.6,-3.9487,M,-1.3450,M,01,0000*53
$GPRMC,091848.20,A,2234.24866565,N,11431.95845297,E,0.227,181.3,061224,3.4,W,D*24
$GNVTG,180.994,T,184.433,M,0.05187,N,0.09606,K,D*3E
$GNHDT,25.4660,T*28
$GPGGA,091848.40,2234.24866276,N,11431.95845291,E,4,23,0.6,-3.8993,M,-1.3450,M,01,0000*5F
$GPRMC,091848.40,A,2234.24866276,N,11431.95845291,E,0.052,181.0,061224,3.4,W,D*22
$GNVTG,261.576,T,265.014,M,0.08254,N,0.15287,K,D*3F
$GNHDT,25.9773,T*26
$GPGGA,091848.60,2234.24866209,N,11431.95844801,E,4,23,0.6,-3.8324,M,-1.3450,M,01,0000*51
$GPRMC,091848.60,A,2234.24866209,N,11431.95844801,E,0.083,261.6,061224,3.4,W,D*2D
$GNVTG,211.702,T,215.140,M,0.20122,N,0.37266,K,D*39
$GNHDT,26.2595,T*24
$GPGGA,091848.80,2234.24865255,N,11431.95844166,E,4,23,0.6,-3.7592,M,-1.3450,M,00,0000*58
$GPRMC,091848.80,A,2234.24865255,N,11431.95844166,E,0.201,211.7,061224,3.4,W,D*2F
$GNVTG,205.615,T,209.053,M,0.48987,N,0.90724,K,D*32
$GNHDT,26.5877,T*22
$GPGGA,091849.00,2234.24862792,N,11431.95842895,E,4,23,0.6,-3.7482,M,-1.3450,M,01,0000*5A
$GPRMC,091849.00,A,2234.24862792,N,11431.95842895,E,0.490,205.6,061224,3.4,W,D*26
$GNVTG,194.774,T,198.212,M,0.54827,N,1.01540,K,D*3C
$GNHDT,26.7829,T*2B
$GPGGA,091849.20,2234.24859837,N,11431.95842056,E,4,23,0.6,-3.7885,M,-1.3450,M,01,0000*5C
$GPRMC,091849.20,A,2234.24859837,N,11431.95842056,E,0.548,194.8,061224,3.4,W,D*2A
$GNVTG,194.865,T,198.303,M,0.69187,N,1.28135,K,D*32
$GNHDT,26.7030,T*2B
$GPGGA,091849.40,2234.24856109,N,11431.95840991,E,4,23,0.6,-3.8496,M,-1.3450,M,01,0000*50
$GPRMC,091849.40,A,2234.24856109,N,11431.95840991,E,0.692,194.9,061224,3.4,W,D*22
$GNVTG,209.786,T,213.224,M,0.58543,N,1.08421,K,D*3F
$GNHDT,27.0155,T*2F
$GPGGA,091849.60,2234.24853276,N,11431.95839245,E,4,23,0.6,-3.9040,M,-1.3450,M,01,0000*5E
$GPRMC,091849.60,A,2234.24853276,N,11431.95839245,E,0.585,209.8,061224,3.4,W,D*21
$GNVTG,214.101,T,217.540,M,0.38124,N,0.70606,K,D*31
$GNHDT,27.2387,T*20
$GPGGA,091849.80,2234.24851516,N,11431.95837962,E,4,23,0.6,-3.9411,M,-1.3450,M,01,0000*53
$GPRMC,091849.80,A,2234.24851516,N,11431.95837962,E,0.381,214.1,061224,3.4,W,D*2B
$GNVTG,266.043,T,269.481,M,0.19087,N,0.35349,K,D*32
$GNHDT,27.0775,T*2B
$GPGGA,091850.00,2234.24851443,N,11431.95836819,E,4,23,0.6,-3.9513,M,-1.3450,M,02,0000*5E
$GPRMC,091850.00,A,2234.24851443,N,11431.95836819,E,0.191,266.0,061224,3.4,W,D*21
$GNVTG,299.448,T,302.886,M,0.12233,N,0.22656,K,D*31
$GNHDT,26.7518,T*24
$GPGGA,091850.20,2234.24851778,N,11431.95836179,E,4,24,0.6,-3.9202,M,-1.3450,M,02,0000*58
$GPRMC,091850.20,A,2234.24851778,N,11431.95836179,E,0.122,299.4,061224,3.4,W,D*2B
$GNVTG,352.346,T,355.784,M,0.07252,N,0.13431,K,D*33
$GNHDT,26.2819,T*2D
$GPGGA,091850.40,2234.24852179,N,11431.95836121,E,4,24,0.6,-3.8821,M,-1.3450,M,02,0000*5D
$GPRMC,091850.40,A,2234.24852179,N,11431.95836121,E,0.073,352.3,061224,3.4,W,D*20
$GNVTG,104.198,T,107.636,M,0.03661,N,0.06780,K,D*33
$GNHDT,25.8534,T*26
$GPGGA,091850.60,2234.24852129,N,11431.95836334,E,4,23,0.6,-3.8424,M,-1.3450,M,02,0000*52
$GPRMC,091850.60,A,2234.24852129,N,11431.95836334,E,0.037,104.2,061224,3.4,W,D*21
$GNVTG,141.187,T,144.625,M,0.25562,N,0.47341,K,D*31
$GNHDT,25.5839,T*2B
$GPGGA,091850.80,2234.24851019,N,11431.95837296,E,4,23,0.6,-3.8668,M,-1.3450,M,00,0000*5D
$GPRMC,091850.80,A,2234.24851019,N,11431.95837296,E,0.256,141.2,061224,3.4,W,D*22
$GNVTG,168.379,T,171.818,M,0.36232,N,0.67102,K,D*38
$GNHDT,25.6481,T*27
$GPGGA,091851.00,2234.24849040,N,11431.95837734,E,4,24,0.6,-3.9037,M,-1.3450,M,01,0000*57
$GPRMC,091851.00,A,2234.24849040,N,11431.95837734,E,0.362,168.4,061224,3.4,W,D*28
$GNVTG,186.104,T,189.542,M,0.50054,N,0.92699,K,D*38
$GNHDT,26.0224,T*2B
$GPGGA,091851.20,2234.24846266,N,11431.95837415,E,4,24,0.6,-3.9507,M,-1.3450,M,01,0000*5A
$GPRMC,091851.20,A,2234.24846266,N,11431.95837415,E,0.501,186.1,061224,3.4,W,D*25
$GNVTG,188.409,T,191.847,M,0.47428,N,0.87837,K,D*38
$GNHDT,26.2318,T*27
$GPGGA,091851.40,2234.24843650,N,11431.95836998,E,4,24,0.6,-3.9392,M,-1.3450,M,01,0000*5B
$GPRMC,091851.40,A,2234.24843650,N,11431.95836998,E,0.474,188.4,061224,3.4,W,D*26
$GNVTG,222.720,T,226.158,M,0.41626,N,0.77091,K,D*3A
$GNHDT,27.0025,T*29
$GPGGA,091851.60,2234.24841945,N,11431.95835303,E,4,24,0.6,-3.8939,M,-1.3450,M,01,0000*51
$GPRMC,091851.60,A,2234.24841945,N,11431.95835303,E,0.416,222.7,061224,3.4,W,D*22
$GNVTG,222.994,T,226.433,M,0.30182,N,0.55897,K,D*32
$GNHDT,26.9273,T*20
$GPGGA,091851.80,2234.24840715,N,11431.95834068,E,4,24,0.6,-3.8207,M,-1.3450,M,00,0000*5D
$GPRMC,091851.80,A,2234.24840715,N,11431.95834068,E,0.302,223.0,061224,3.4,W,D*2D
$GNVTG,249.202,T,252.640,M,0.18975,N,0.35142,K,D*33
$GNHDT,26.7605,T*2B
$GPGGA,091852.00,2234.24840339,N,11431.95833003,E,4,24,0.6,-3.7853,M,-1.3450,M,01,0000*53
$GPRMC,091852.00,A,2234.24840339,N,11431.95833003,E,0.190,249.2,061224,3.4,W,D*21
$GNVTG,271.108,T,274.546,M,0.18687,N,0.34609,K,D*3B
$GNHDT,27.0409,T*23
$GPGGA,091852.20,2234.24840359,N,11431.95831882,E,4,23,0.6,-3.7695,M,-1.3450,M,01,0000*57
$GPRMC,091852.20,A,2234.24840359,N,11431.95831882,E,0.187,271.1,061224,3.4,W,D*28
$GNVTG,255.037,T,258.475,M,0.21020,N,0.38929,K,D*3F
$GNHDT,27.0048,T*22
$GPGGA,091852.40,2234.24840057,N,11431.95830663,E,4,23,0.6,-3.7915,M,-1.3450,M,01,0000*5B
$GPRMC,091852.40,A,2234.24840057,N,11431.95830663,E,0.210,255.0,061224,3.4,W,D*29
$GNVTG,206.558,T,209.996,M,0.32651,N,0.60470,K,D*3F
$GNHDT,26.2870,T*22
$GPGGA,091852.60,2234.24838428,N,11431.95829786,E,4,23,0.6,-3.8435,M,-1.3450,M,01,0000*58
$GPRMC,091852.60,A,2234.24838428,N,11431.95829786,E,0.327,206.6,061224,3.4,W,D*2F
$GNVTG,211.605,T,215.043,M,0.48657,N,0.90112,K,D*3B
$GNHDT,26.4409,T*26
$GPGGA,091852.80,2234.24836118,N,11431.95828256,E,4,23,0.6,-3.8778,M,-1.3450,M,01,0000*5D
$GPRMC,091852.80,A,2234.24836118,N,11431.95828256,E,0.487,211.6,061224,3.4,W,D*2B
$GNVTG,204.464,T,207.902,M,0.65235,N,1.20814,K,D*3F
$GNHDT,26.6075,T*2B
$GPGGA,091853.00,2234.24832808,N,11431.95826634,E,4,23,0.6,-3.8978,M,-1.3450,M,02,0000*5B
$GPRMC,091853.00,A,2234.24832808,N,11431.95826634,E,0.652,204.5,061224,3.4,W,D*2D
$GNVTG,212.348,T,215.787,M,0.62731,N,1.16177,K,D*3E
$GNHDT,27.1353,T*2A
$GPGGA,091853.20,2234.24829854,N,11431.95824619,E,4,23,0.6,-3.8751,M,-1.3450,M,02,0000*52
$GPRMC,091853.20,A,2234.24829854,N,11431.95824619,E,0.627,212.3,061224,3.4,W,D*22
$GNVTG,212.542,T,215.981,M,0.51693,N,0.95735,K,D*39
$GNHDT,27.4438,T*25
$GPGGA,091853.40,2234.24827424,N,11431.95822950,E,4,23,0.6,-3.8442,M,-1.3450,M,02,0000*54
$GPRMC,091853.40,A,2234.24827424,N,11431.95822950,E,0.517,212.5,061224,3.4,W,D*23
$GNVTG,219.569,T,223.008,M,0.42078,N,0.77929,K,D*38
$GNHDT,27.7900,T*20
$GPGGA,091853.60,2234.24825616,N,11431.95821341,E,4,23,0.6,-3.7701,M,-1.3450,M,02,0000*55
$GPRMC,091853.60,A,2234.24825616,N,11431.95821341,E,0.421,219.6,061224,3.4,W,D*25
$GNVTG,241.104,T,244.542,M,0.31582,N,0.58490,K,D*36
$GNHDT,28.5488,T*20
$GPGGA,091853.80,2234.24824765,N,11431.95819682,E,4,23,0.6,-3.7217,M,-1.3450,M,02,0000*5C
$GPRMC,091853.80,A,2234.24824765,N,11431.95819682,E,0.316,241.1,061224,3.4,W,D*27
$GNVTG,243.487,T,246.925,M,0.25266,N,0.46794,K,D*35
$GNHDT,28.4303,T*25
$GPGGA,091854.00,2234.24824137,N,11431.95818324,E,4,23,0.6,-3.7063,M,-1.3450,M,03,0000*5A
$GPRMC,091854.00,A,2234.24824137,N,11431.95818324,E,0.253,243.5,061224,3.4,W,D*27
$GNVTG,243.448,T,246.886,M,0.34357,N,0.63628,K,D*3C
$GNHDT,28.6467,T*22
$GPGGA,091854.20,2234.24823280,N,11431.95816480,E,4,23,0.6,-3.7189,M,-1.3450,M,03,0000*52
$GPRMC,091854.20,A,2234.24823280,N,11431.95816480,E,0.344,243.4,061224,3.4,W,D*2C
$GNVTG,222.829,T,226.268,M,0.48788,N,0.90356,K,D*31
$GNHDT,28.6320,T*26
$GPGGA,091854.40,2234.24821286,N,11431.95814489,E,4,23,0.6,-3.7640,M,-1.3450,M,03,0000*59
$GPRMC,091854.40,A,2234.24821286,N,11431.95814489,E,0.488,222.8,061224,3.4,W,D*29
$GNVTG,219.779,T,223.218,M,0.55685,N,1.03129,K,D*30
$GNHDT,28.5036,T*21
$GPGGA,091854.60,2234.24818900,N,11431.95812350,E,4,23,0.6,-3.8387,M,-1.3450,M,03,0000*50
$GPRMC,091854.60,A,2234.24818900,N,11431.95812350,E,0.557,219.8,061224,3.4,W,D*2A
$GNVTG,222.812,T,226.250,M,0.68260,N,1.26418,K,D*32
$GNHDT,29.1942,T*2E
$GPGGA,091854.80,2234.24816109,N,11431.95809565,E,4,23,0.6,-3.9049,M,-1.3450,M,00,0000*58
$GPRMC,091854.80,A,2234.24816109,N,11431.95809565,E,0.683,222.8,061224,3.4,W,D*23
$GNVTG,218.198,T,221.637,M,0.46053,N,0.85290,K,D*32
$GNHDT,29.3507,T*21
$GPGGA,091855.00,2234.24814091,N,11431.95807856,E,4,23,0.6,-3.9515,M,-1.3450,M,01,0000*5D
$GPRMC,091855.00,A,2234.24814091,N,11431.95807856,E,0.461,218.2,061224,3.4,W,D*26
$GNVTG,229.164,T,232.603,M,0.25619,N,0.47445,K,D*3B
$GNHDT,28.8706,T*28
$GPGGA,091855.20,2234.24813157,N,11431.95806692,E,4,23,0.6,-3.9650,M,-1.3450,M,01,0000*56
$GPRMC,091855.20,A,2234.24813157,N,11431.95806692,E,0.256,229.2,061224,3.4,W,D*2F
$GNVTG,231.640,T,235.079,M,0.04795,N,0.08880,K,D*37
$GNHDT,28.5070,T*23
$GPGGA,091855.40,2234.24812991,N,11431.95806467,E,4,23,0.6,-3.9354,M,-1.3450,M,01,0000*5A
$GPRMC,091855.40,A,2234.24812991,N,11431.95806467,E,0.048,231.6,061224,3.4,W,D*22
$GNVTG,326.519,T,329.958,M,0.10665,N,0.19751,K,D*31
$GNHDT,28.9019,T*20
$GPGGA,091855.60,2234.24813487,N,11431.95806114,E,4,23,0.6,-3.8866,M,-1.3450,M,01,0000*59
$GPRMC,091855.60,A,2234.24813487,N,11431.95806114,E,0.107,326.5,061224,3.4,W,D*24
$GNVTG,261.599,T,265.038,M,0.10347,N,0.19162,K,D*3E
$GNHDT,29.3482,T*2D
$GPGGA,091855.80,2234.24813403,N,11431.95805499,E,4,23,0.6,-3.8446,M,-1.3450,M,00,0000*57
$GPRMC,091855.80,A,2234.24813403,N,11431.95805499,E,0.103,261.6,061224,3.4,W,D*20
$GNVTG,186.939,T,190.377,M,0.23723,N,0.43935,K,D*30
$GNHDT,29.2386,T*2F
$GPGGA,091856.00,2234.24812090,N,11431.95805327,E,4,23,0.6,-3.8194,M,-1.3450,M,01,0000*5A
$GPRMC,091856.00,A,2234.24812090,N,11431.95805327,E,0.237,186.9,061224,3.4,W,D*27
$GNVTG,193.539,T,196.978,M,0.39078,N,0.72373,K,D*33
$GNHDT,29.3303,T*23
$GPGGA,091856.20,2234.24809972,N,11431.95804778,E,4,23,0.6,-3.8354,M,-1.3450,M,01,0000*56
$GPRMC,091856.20,A,2234.24809972,N,11431.95804778,E,0.391,193.5,061224,3.4,W,D*20
$GNVTG,201.418,T,204.856,M,0.46372,N,0.85881,K,D*33
$GNHDT,29.6960,T*29
$GPGGA,091856.40,2234.24807566,N,11431.95803762,E,4,23,0.6,-3.8476,M,-1.3450,M,01,0000*5C
$GPRMC,091856.40,A,2234.24807566,N,11431.95803762,E,0.464,201.4,061224,3.4,W,D*29
$GNVTG,197.113,T,200.551,M,0.56078,N,1.03856,K,D*32
$GNHDT,29.5314,T*23
$GPGGA,091856.60,2234.24804578,N,11431.95802771,E,4,23,0.6,-3.9113,M,-1.3450,M,01,0000*56
$GPRMC,091856.60,A,2234.24804578,N,11431.95802771,E,0.561,197.1,061224,3.4,W,D*29
$GNVTG,204.753,T,208.191,M,0.40479,N,0.74967,K,D*39
$GNHDT,30.2504,T*2B
$GPGGA,091856.80,2234.24802529,N,11431.95801754,E,4,23,0.6,-3.9270,M,-1.3450,M,00,0000*59
$GPRMC,091856.80,A,2234.24802529,N,11431.95801754,E,0.405,204.8,061224,3.4,W,D*22
$GNVTG,212.899,T,216.337,M,0.27971,N,0.51802,K,D*37
$GNHDT,30.8020,T*22
$GPGGA,091857.00,2234.24801219,N,11431.95800842,E,4,23,0.6,-3.9557,M,-1.3450,M,01,0000*5D
$GPRMC,091857.00,A,2234.24801219,N,11431.95800842,E,0.280,212.9,061224,3.4,W,D*28
$GNVTG,123.224,T,126.662,M,0.22555,N,0.41772,K,D*39
$GNHDT,30.2829,T*29
$GPGGA,091857.20,2234.24800530,N,11431.95801974,E,4,23,0.6,-3.9459,M,-1.3450,M,01,0000*58
$GPRMC,091857.20,A,2234.24800530,N,11431.95801974,E,0.226,123.2,061224,3.4,W,D*24
$GNVTG,40.009,T,43.448,M,0.11662,N,0.21599,K,D*3E
$GNHDT,30.4557,T*2B
$GPGGA,091857.40,2234.24801028,N,11431.95802424,E,4,22,0.7,-3.9251,M,-1.3450,M,01,0000*56
$GPRMC,091857.40,A,2234.24801028,N,11431.95802424,E,0.117,40.0,061224,3.4,W,D*13
$GNVTG,93.003,T,96.441,M,0.09264,N,0.17158,K,D*3C
$GNHDT,30.1846,T*23
$GPGGA,091857.60,2234.24801001,N,11431.95802980,E,4,22,0.7,-3.9003,M,-1.3450,M,01,0000*59
$GPRMC,091857.60,A,2234.24801001,N,11431.95802980,E,0.093,93.0,061224,3.4,W,D*1A
$GNVTG,193.081,T,196.520,M,0.12572,N,0.23284,K,D*3F
$GNHDT,30.4793,T*21
$GPGGA,091857.80,2234.24800319,N,11431.95802809,E,4,22,0.7,-3.8690,M,-1.3450,M,00,0000*50
$GPRMC,091857.80,A,2234.24800319,N,11431.95802809,E,0.126,193.1,061224,3.4,W,D*20
$GNVTG,173.163,T,176.601,M,0.37356,N,0.69183,K,D*3F
$GNHDT,30.1875,T*23
$GPGGA,091858.00,2234.24798251,N,11431.95803076,E,4,22,0.7,-3.8781,M,-1.3450,M,01,0000*55
$GPRMC,091858.00,A,2234.24798251,N,11431.95803076,E,0.374,173.2,061224,3.4,W,D*2D
$GNVTG,185.997,T,189.435,M,0.45072,N,0.83474,K,D*39
$GNHDT,29.9554,T*2D
$GPGGA,091858.20,2234.24795752,N,11431.95802793,E,4,22,0.7,-3.8877,M,-1.3450,M,01,0000*57
$GPRMC,091858.20,A,2234.24795752,N,11431.95802793,E,0.451,186.0,061224,3.4,W,D*21
$GNVTG,189.198,T,192.637,M,0.38706,N,0.71683,K,D*31
$GNHDT,30.1798,T*2F
$GPGGA,091858.40,2234.24793622,N,11431.95802422,E,4,22,0.7,-3.9239,M,-1.3450,M,01,0000*59
$GPRMC,091858.40,A,2234.24793622,N,11431.95802422,E,0.387,189.2,061224,3.4,W,D*2F
$GNVTG,198.659,T,202.097,M,0.26714,N,0.49474,K,D*30
$GNHDT,30.9874,T*2A
$GPGGA,091858.60,2234.24792211,N,11431.95801909,E,4,22,0.7,-3.9294,M,-1.3450,M,01,0000*5E
$GPRMC,091858.60,A,2234.24792211,N,11431.95801909,E,0.267,198.7,061224,3.4,W,D*25
$GNVTG,212.312,T,215.750,M,0.24521,N,0.45413,K,D*3A
$GNHDT,31.0274,T*28
$GPGGA,091858.80,2234.24791056,N,11431.95801122,E,4,23,0.7,-3.9039,M,-1.3450,M,01,0000*57
$GPRMC,091858.80,A,2234.24791056,N,11431.95801122,E,0.245,212.3,061224,3.4,W,D*2D
$GNVTG,245.816,T,249.255,M,0.16261,N,0.30115,K,D*3D
$GNHDT,31.1981,T*28
$GPGGA,091859.00,2234.24790684,N,11431.95800232,E,4,23,0.7,-3.8551,M,-1.3450,M,02,0000*5C
$GPRMC,091859.00,A,2234.24790684,N,11431.95800232,E,0.163,245.8,061224,3.4,W,D*21
$GNVTG,240.480,T,243.919,M,0.26202,N,0.48526,K,D*3F
$GNHDT,30.9568,T*2A
$GPGGA,091859.20,2234.24789965,N,11431.95798863,E,4,23,0.7,-3.8139,M,-1.3450,M,02,0000*5C
$GPRMC,091859.20,A,2234.24789965,N,11431.95798863,E,0.262,240.5,061224,3.4,W,D*21
$GNVTG,224.888,T,228.327,M,0.32440,N,0.60080,K,D*35
$GNHDT,30.9721,T*25
$GPGGA,091859.40,2234.24788683,N,11431.95797489,E,4,23,0.7,-3.7541,M,-1.3450,M,02,0000*5F
$GPRMC,091859.40,A,2234.24788683,N,11431.95797489,E,0.324,224.9,061224,3.4,W,D*2B
$GNVTG,214.696,T,218.134,M,0.37191,N,0.68878,K,D*3F
$GNHDT,30.6154,T*2E
$GPGGA,091859.60,2234.24786979,N,11431.95796218,E,4,23,0.7,-3.7406,M,-1.3450,M,02,0000*54
$GPRMC,091859.60,A,2234.24786979,N,11431.95796218,E,0.372,214.7,061224,3.4,W,D*2C
$GNVTG,224.442,T,227.881,M,0.44159,N,0.81783,K,D*30
$GNHDT,30.5808,T*2D
$GPGGA,091859.80,2234.24785221,N,11431.95794362,E,4,23,0.7,-3.7474,M,-1.3450,M,00,0000*56
$GPRMC,091859.80,A,2234.24785221,N,11431.95794362,E,0.442,224.4,061224,3.4,W,D*2D
$GNVTG,213.933,T,217.372,M,0.51736,N,0.95816,K,D*36
$GNHDT,30.8222,T*22
$GPGGA,091900.00,2234.24782828,N,11431.95792628,E,4,23,0.7,-3.7955,M,-1.3450,M,01,0000*55
$GPRMC,091900.00,A,2234.24782828,N,11431.95792628,E,0.517,213.9,061224,3.4,W,D*29
$GNVTG,209.069,T,212.507,M,0.53314,N,0.98738,K,D*32
$GNHDT,30.7497,T*25
$GPGGA,091900.20,2234.24780231,N,11431.95791074,E,4,23,0.7,-3.8286,M,-1.3450,M,01,0000*51
$GPRMC,091900.20,A,2234.24780231,N,11431.95791074,E,0.533,209.1,061224,3.4,W,D*22
$GNVTG,234.690,T,238.129,M,0.40417,N,0.74852,K,D*3B
$GNHDT,30.8175,T*23
$GPGGA,091900.40,2234.24778928,N,11431.95789094,E,4,23,0.7,-3.8507,M,-1.3450,M,01,0000*5A
$GPRMC,091900.40,A,2234.24778928,N,11431.95789094,E,0.404,234.7,061224,3.4,W,D*2A
$GNVTG,236.640,T,240.078,M,0.26071,N,0.48284,K,D*34
$GNHDT,30.6796,T*26
$GPGGA,091900.60,2234.24778129,N,11431.95787787,E,4,23,0.7,-3.8328,M,-1.3450,M,01,0000*51
$GPRMC,091900.60,A,2234.24778129,N,11431.95787787,E,0.261,236.6,061224,3.4,W,D*2C
$GNVTG,229.414,T,232.852,M,0.24619,N,0.45594,K,D*3D
$GNHDT,30.4946,T*27
$GPGGA,091900.80,2234.24777236,N,11431.95786664,E,4,23,0.7,-3.7795,M,-1.3450,M,01,0000*5D
$GPRMC,091900.80,A,2234.24777236,N,11431.95786664,E,0.246,229.4,061224,3.4,W,D*24
$GNVTG,247.144,T,250.582,M,0.45363,N,0.84013,K,D*39
$GNHDT,31.5399,T*2F
$GPGGA,091901.00,2234.24776254,N,11431.95784155,E,4,24,0.7,-3.7348,M,-1.3450,M,02,0000*56
$GPRMC,091901.00,A,2234.24776254,N,11431.95784155,E,0.454,247.1,061224,3.4,W,D*27
$GNVTG,224.195,T,227.633,M,0.55875,N,1.03480,K,D*34
$GNHDT,31.9652,T*21
$GPGGA,091901.20,2234.24774021,N,11431.95781817,E,4,24,0.7,-3.7008,M,-1.3450,M,02,0000*5B
$GPRMC,091901.20,A,2234.24774021,N,11431.95781817,E,0.559,224.2,061224,3.4,W,D*27
$GNVTG,227.276,T,230.714,M,0.69515,N,1.28742,K,D*3B
$GNHDT,32.2511,T*2D
$GPGGA,091901.40,2234.24771391,N,11431.95778752,E,4,24,0.7,-3.7100,M,-1.3450,M,02,0000*51
$GPRMC,091901.40,A,2234.24771391,N,11431.95778752,E,0.695,227.3,061224,3.4,W,D*25
$GNVTG,217.893,T,221.331,M,0.62197,N,1.15189,K,D*30
$GNHDT,31.8879,T*27
$GPGGA,091901.60,2234.24768655,N,11431.95776459,E,4,24,0.7,-3.7628,M,-1.3450,M,02,0000*5D
$GPRMC,091901.60,A,2234.24768655,N,11431.95776459,E,0.622,217.9,061224,3.4,W,D*21
$GNVTG,227.525,T,230.964,M,0.59840,N,1.10824,K,D*39
$GNHDT,32.3169,T*27
$GPGGA,091901.80,2234.24766402,N,11431.95773809,E,4,24,0.7,-3.8553,M,-1.3450,M,00,0000*53
$GPRMC,091901.80,A,2234.24766402,N,11431.95773809,E,0.598,227.5,061224,3.4,W,D*20
$GNVTG,231.937,T,235.375,M,0.31215,N,0.57811,K,D*3E
$GNHDT,32.3009,T*20
$GPGGA,091902.00,2234.24765330,N,11431.95772334,E,4,24,0.7,-3.9373,M,-1.3450,M,01,0000*5D
$GPRMC,091902.00,A,2234.24765330,N,11431.95772334,E,0.312,231.9,061224,3.4,W,D*25
$GNVTG,237.802,T,241.240,M,0.18093,N,0.33508,K,D*3B
$GNHDT,31.8885,T*24
$GPGGA,091902.20,2234.24764792,N,11431.95771415,E,4,24,0.7,-3.9898,M,-1.3450,M,01,0000*5B
$GPRMC,091902.20,A,2234.24764792,N,11431.95771415,E,0.181,237.8,061224,3.4,W,D*22
$GNVTG,256.652,T,260.090,M,0.17943,N,0.33231,K,D*3D
$GNHDT,31.8731,T*24
$GPGGA,091902.40,2234.24764561,N,11431.95770367,E,4,24,0.7,-3.9585,M,-1.3450,M,01,0000*51
$GPRMC,091902.40,A,2234.24764561,N,11431.95770367,E,0.179,256.7,061224,3.4,W,D*26
$GNVTG,196.043,T,199.482,M,0.16386,N,0.30347,K,D*37
$GNHDT,31.2899,T*23
$GPGGA,091902.60,2234.24763683,N,11431.95770095,E,4,24,0.7,-3.9295,M,-1.3450,M,01,0000*53
$GPRMC,091902.60,A,2234.24763683,N,11431.95770095,E,0.164,196.0,061224,3.4,W,D*26
$GNVTG,213.894,T,217.333,M,0.16006,N,0.29643,K,D*31
$GNHDT,31.7103,T*2C
$GPGGA,091902.80,2234.24762943,N,11431.95769559,E,4,24,0.7,-3.8965,M,-1.3450,M,00,0000*56
$GPRMC,091902.80,A,2234.24762943,N,11431.95769559,E,0.160,213.9,061224,3.4,W,D*24
$GNVTG,150.842,T,154.281,M,0.19957,N,0.36960,K,D*30
$GNHDT,31.7171,T*29
$GPGGA,091903.00,2234.24761971,N,11431.95770143,E,4,24,0.7,-3.8666,M,-1.3450,M,01,0000*57
$GPRMC,091903.00,A,2234.24761971,N,11431.95770143,E,0.200,150.8,061224,3.4,W,D*28
$GNVTG,182.352,T,185.790,M,0.23320,N,0.43188,K,D*33
$GNHDT,31.9212,T*21
$GPGGA,091903.20,2234.24760672,N,11431.95770086,E,4,24,0.7,-3.8626,M,-1.3450,M,01,0000*54
$GPRMC,091903.20,A,2234.24760672,N,11431.95770086,E,0.233,182.4,061224,3.4,W,D*2C
$GNVTG,207.595,T,211.034,M,0.25156,N,0.46589,K,D*32
$GNHDT,32.3529,T*27
$GPGGA,091903.40,2234.24759429,N,11431.95769386,E,4,24,0.7,-3.8804,M,-1.3450,M,01,0000*51
$GPRMC,091903.40,A,2234.24759429,N,11431.95769386,E,0.252,207.6,061224,3.4,W,D*2C
$GNVTG,189.108,T,192.546,M,0.47462,N,0.87899,K,D*38
$GNHDT,32.5068,T*21
$GPGGA,091903.60,2234.24756817,N,11431.95768935,E,4,24,0.7,-3.8919,M,-1.3450,M,01,0000*53
$GPRMC,091903.60,A,2234.24756817,N,11431.95768935,E,0.475,189.1,061224,3.4,W,D*22
$GNVTG,199.420,T,202.859,M,0.48801,N,0.90379,K,D*3A
$GNHDT,32.9688,T*25
$GPGGA,091903.80,2234.24754251,N,11431.95767961,E,4,24,0.7,-3.9035,M,-1.3450,M,00,0000*5E
$GPRMC,091903.80,A,2234.24754251,N,11431.95767961,E,0.488,199.4,061224,3.4,W,D*2E
$GNVTG,208.738,T,212.176,M,0.43854,N,0.81218,K,D*33
$GNHDT,33.4109,T*27
$GPGGA,091904.00,2234.24752107,N,11431.95766696,E,4,24,0.7,-3.9071,M,-1.3450,M,01,0000*50
$GPRMC,091904.00,A,2234.24752107,N,11431.95766696,E,0.439,208.7,061224,3.4,W,D*23
$GNVTG,180.752,T,184.190,M,0.37242,N,0.68972,K,D*36
$GNHDT,32.5869,T*28
$GPGGA,091904.20,2234.24750032,N,11431.95766666,E,4,24,0.7,-3.8692,M,-1.3450,M,01,0000*52
$GPRMC,091904.20,A,2234.24750032,N,11431.95766666,E,0.372,180.8,061224,3.4,W,D*2F
$GNVTG,220.334,T,223.772,M,0.13462,N,0.24932,K,D*31
$GNHDT,32.6959,T*29
$GPGGA,091904.40,2234.24749459,N,11431.95766143,E,4,24,0.7,-3.8522,M,-1.3450,M,01,0000*5D
$GPRMC,091904.40,A,2234.24749459,N,11431.95766143,E,0.135,220.3,061224,3.4,W,D*2B
$GNVTG,335.712,T,339.151,M,0.15237,N,0.28219,K,D*37
$GNHDT,33.0705,T*29
$GPGGA,091904.60,2234.24750234,N,11431.95765767,E,4,24,0.7,-3.8292,M,-1.3450,M,01,0000*55
$GPRMC,091904.60,A,2234.24750234,N,11431.95765767,E,0.152,335.7,061224,3.4,W,D*2F
$GNVTG,187.416,T,190.854,M,0.01832,N,0.03393,K,D*36
$GNHDT,32.8116,T*24
$GPGGA,091904.80,2234.24750132,N,11431.95765753,E,4,24,0.7,-3.8186,M,-1.3450,M,00,0000*5E
$GPRMC,091904.80,A,2234.24750132,N,11431.95765753,E,0.018,187.4,061224,3.4,W,D*24
$GNVTG,207.107,T,210.546,M,0.24030,N,0.44503,K,D*3C
$GNHDT,32.9947,T*29
$GPGGA,091905.00,2234.24748940,N,11431.95765096,E,4,24,0.7,-3.8358,M,-1.3450,M,01,0000*5D
$GPRMC,091905.00,A,2234.24748940,N,11431.95765096,E,0.240,207.1,061224,3.4,W,D*26
$GNVTG,209.190,T,212.629,M,0.46794,N,0.86662,K,D*33
$GNHDT,33.0713,T*2E
$GPGGA,091905.20,2234.24746663,N,11431.95763726,E,4,24,0.7,-3.8632,M,-1.3450,M,01,0000*5C
$GPRMC,091905.20,A,2234.24746663,N,11431.95763726,E,0.468,209.2,061224,3.4,W,D*2F
$GNVTG,196.060,T,199.498,M,0.64975,N,1.20333,K,D*3D
$GNHDT,33.0681,T*24
$GPGGA,091905.40,2234.24743182,N,11431.95762647,E,4,24,0.7,-3.8817,M,-1.3450,M,01,0000*59
$GPRMC,091905.40,A,2234.24743182,N,11431.95762647,E,0.650,196.1,061224,3.4,W,D*2C
$GNVTG,197.236,T,200.675,M,0.55450,N,1.02693,K,D*38
$GNHDT,33.3552,T*2A
$GPGGA,091905.60,2234.24740229,N,11431.95761660,E,4,24,0.7,-3.9036,M,-1.3451,M,01,0000*57
$GPRMC,091905.60,A,2234.24740229,N,11431.95761660,E,0.554,197.2,061224,3.4,W,D*2C
$GNVTG,204.375,T,207.814,M,0.36222,N,0.67083,K,D*3A
$GNHDT,33.7863,T*21
$GPGGA,091905.80,2234.24738390,N,11431.95760763,E,4,24,0.7,-3.8895,M,-1.3451,M,00,0000*57
$GPRMC,091905.80,A,2234.24738390,N,11431.95760763,E,0.362,204.4,061224,3.4,W,D*21
$GNVTG,246.038,T,249.476,M,0.16141,N,0.29893,K,D*33
$GNHDT,33.8774,T*27
$GPGGA,091906.00,2234.24738025,N,11431.95759878,E,4,24,0.7,-3.8525,M,-1.3451,M,01,0000*59
$GPRMC,091906.00,A,2234.24738025,N,11431.95759878,E,0.161,246.0,061224,3.4,W,D*2B
$GNVTG,258.088,T,261.526,M,0.10926,N,0.20236,K,D*3A
$GNHDT,34.2871,T*20
$GPGGA,091906.20,2234.24737899,N,11431.95759236,E,4,24,0.7,-3.7968,M,-1.3451,M,01,0000*51
$GPRMC,091906.20,A,2234.24737899,N,11431.95759236,E,0.109,258.1,061224,3.4,W,D*29
$GNVTG,243.427,T,246.865,M,0.18124,N,0.33565,K,D*3F
$GNHDT,34.2192,T*24
$GPGGA,091906.40,2234.24737447,N,11431.95758263,E,4,24,0.7,-3.7839,M,-1.3451,M,01,0000*5C
$GPRMC,091906.40,A,2234.24737447,N,11431.95758263,E,0.181,243.4,061224,3.4,W,D*2E
$GNVTG,222.738,T,226.177,M,0.36142,N,0.66934,K,D*3D
$GNHDT,34.3193,T*24
$GPGGA,091906.60,2234.24735967,N,11431.95756791,E,4,24,0.7,-3.7865,M,-1.3450,M,01,0000*5D
$GPRMC,091906.60,A,2234.24735967,N,11431.95756791,E,0.361,222.7,061224,3.4,W,D*2F
$GNVTG,206.732,T,210.171,M,0.60453,N,1.11958,K,D*3F
$GNHDT,34.0689,T*2B
$GPGGA,091906.80,2234.24732957,N,11431.95755158,E,4,24,0.7,-3.8036,M,-1.3450,M,01,0000*56
$GPRMC,091906.80,A,2234.24732957,N,11431.95755158,E,0.605,206.7,061224,3.4,W,D*24
$GNVTG,205.862,T,209.300,M,0.60608,N,1.12246,K,D*31
$GNHDT,33.6722,T*2A
$GPGGA,091907.00,2234.24729917,N,11431.95753571,E,4,24,0.7,-3.8197,M,-1.3450,M,02,0000*51
$GPRMC,091907.00,A,2234.24729917,N,11431.95753571,E,0.606,205.9,061224,3.4,W,D*24
$GNVTG,212.308,T,215.746,M,0.53329,N,0.98766,K,D*39
$GNHDT,34.1520,T*2A
$GPGGA,091907.20,2234.24727404,N,11431.95751861,E,4,24,0.7,-3.8477,M,-1.3450,M,02,0000*57
$GPRMC,091907.20,A,2234.24727404,N,11431.95751861,E,0.533,212.3,061224,3.4,W,D*20
$GNVTG,214.292,T,217.731,M,0.40540,N,0.75080,K,D*38
$GNHDT,34.1520,T*2A
$GPGGA,091907.40,2234.24725537,N,11431.95750489,E,4,24,0.7,-3.8425,M,-1.3450,M,02,0000*5E
$GPRMC,091907.40,A,2234.24725537,N,11431.95750489,E,0.405,214.3,061224,3.4,W,D*2C
$GNVTG,240.467,T,243.905,M,0.23237,N,0.43035,K,D*34
$GNHDT,34.0311,T*2F
$GPGGA,091907.60,2234.24724899,N,11431.95749276,E,4,24,0.7,-3.8169,M,-1.3450,M,02,0000*57
$GPRMC,091907.60,A,2234.24724899,N,11431.95749276,E,0.232,240.5,061224,3.4,W,D*2D
$GNVTG,262.312,T,265.750,M,0.29107,N,0.53906,K,D*39
$GNHDT,34.6884,T*2E
$GPGGA,091907.80,2234.24724682,N,11431.95747544,E,4,24,0.7,-3.7988,M,-1.3450,M,00,0000*5F
$GPRMC,091907.80,A,2234.24724682,N,11431.95747544,E,0.291,262.3,061224,3.4,W,D*20
$GNVTG,227.005,T,230.443,M,0.21268,N,0.39388,K,D*3E
$GNHDT,34.5177,T*28
$GPGGA,091908.00,2234.24723873,N,11431.95746611,E,4,24,0.7,-3.7720,M,-1.3450,M,01,0000*50
$GPRMC,091908.00,A,2234.24723873,N,11431.95746611,E,0.213,227.0,061224,3.4,W,D*2A
$GNVTG,253.816,T,257.254,M,0.34397,N,0.63703,K,D*3B
$GNHDT,34.6391,T*21
$GPGGA,091908.20,2234.24723339,N,11431.95744628,E,4,24,0.7,-3.7835,M,-1.3450,M,01,0000*54
$GPRMC,091908.20,A,2234.24723339,N,11431.95744628,E,0.344,253.8,061224,3.4,W,D*2D
$GNVTG,214.625,T,218.063,M,0.44511,N,0.82434,K,D*3C
$GNHDT,34.4714,T*2A
$GPGGA,091908.40,2234.24721297,N,11431.95743110,E,4,24,0.7,-3.8118,M,-1.3450,M,01,0000*57
$GPRMC,091908.40,A,2234.24721297,N,11431.95743110,E,0.445,214.6,061224,3.4,W,D*2C
$GNVTG,212.654,T,216.093,M,0.48412,N,0.89659,K,D*31
$GNHDT,34.5124,T*2E
$GPGGA,091908.60,2234.24719024,N,11431.95741542,E,4,24,0.7,-3.8870,M,-1.3450,M,01,0000*52
$GPRMC,091908.60,A,2234.24719024,N,11431.95741542,E,0.484,212.7,061224,3.4,W,D*24
$GNVTG,202.007,T,205.446,M,0.41365,N,0.76609,K,D*35
$GNHDT,34.2655,T*28
$GPGGA,091908.80,2234.24716886,N,11431.95740611,E,4,24,0.7,-3.9284,M,-1.3450,M,00,0000*56
$GPRMC,091908.80,A,2234.24716886,N,11431.95740611,E,0.414,202.0,061224,3.4,W,D*2E
$GNVTG,216.296,T,219.735,M,0.23198,N,0.42963,K,D*30
$GNHDT,34.2707,T*2E
$GPGGA,091909.00,2234.24715844,N,11431.95739787,E,4,23,0.7,-3.9229,M,-1.3450,M,01,0000*53
$GPRMC,091909.00,A,2234.24715844,N,11431.95739787,E,0.232,216.3,061224,3.4,W,D*2E
$GNVTG,217.789,T,221.228,M,0.08930,N,0.16538,K,D*38
$GNHDT,33.7516,T*2E
$GPGGA,091909.20,2234.24715451,N,11431.95739458,E,4,23,0.7,-3.9017,M,-1.3450,M,01,0000*57
$GPRMC,091909.20,A,2234.24715451,N,11431.95739458,E,0.089,217.8,061224,3.4,W,D*2D
$GNVTG,299.673,T,303.112,M,0.10247,N,0.18978,K,D*35
$GNHDT,33.6611,T*2B
$GPGGA,091909.40,2234.24715734,N,11431.95738924,E,4,23,0.7,-3.8576,M,-1.3450,M,01,0000*55
$GPRMC,091909.40,A,2234.24715734,N,11431.95738924,E,0.102,299.7,061224,3.4,W,D*27
$GNVTG,298.209,T,301.647,M,0.16680,N,0.30891,K,D*3D
$GNHDT,33.9477,T*26
$GPGGA,091909.60,2234.24716173,N,11431.95738042,E,4,23,0.7,-3.8164,M,-1.3450,M,01,0000*5F
$GPRMC,091909.60,A,2234.24716173,N,11431.95738042,E,0.167,298.2,061224,3.4,W,D*2D
$GNVTG,211.853,T,215.291,M,0.21450,N,0.39725,K,D*30
$GNHDT,34.5405,T*28
$GPGGA,091909.80,2234.24715157,N,11431.95737362,E,4,23,0.7,-3.8156,M,-1.3450,M,00,0000*5A
$GPRMC,091909.80,A,2234.24715157,N,11431.95737362,E,0.214,211.9,061224,3.4,W,D*25
$GNVTG,213.850,T,217.288,M,0.51181,N,0.94787,K,D*3A
$GNHDT,34.7794,T*21
$GPGGA,091910.00,2234.24712788,N,11431.95735651,E,4,23,0.7,-3.8177,M,-1.3450,M,01,0000*5C
$GPRMC,091910.00,A,2234.24712788,N,11431.95735651,E,0.512,213.9,061224,3.4,W,D*22
$GNVTG,204.942,T,208.381,M,0.58572,N,1.08476,K,D*30
$GNHDT,34.8050,T*21
$GPGGA,091910.20,2234.24709827,N,11431.95734168,E,4,23,0.7,-3.8444,M,-1.3450,M,01,0000*57
$GPRMC,091910.20,A,2234.24709827,N,11431.95734168,E,0.586,204.9,061224,3.4,W,D*27
$GNVTG,200.300,T,203.739,M,0.59759,N,1.10674,K,D*37
$GNHDT,34.7840,T*27
$GPGGA,091910.40,2234.24706703,N,11431.95732924,E,4,23,0.7,-3.8752,M,-1.3450,M,01,0000*55
$GPRMC,091910.40,A,2234.24706703,N,11431.95732924,E,0.598,200.3,061224,3.4,W,D*20
$GNVTG,202.496,T,205.934,M,0.39699,N,0.73523,K,D*36
$GNHDT,34.7440,T*2B
$GPGGA,091910.60,2234.24704658,N,11431.95732012,E,4,23,0.7,-3.8889,M,-1.3450,M,01,0000*5F
$GPRMC,091910.60,A,2234.24704658,N,11431.95732012,E,0.397,202.5,061224,3.4,W,D*2E
$GNVTG,214.320,T,217.759,M,0.04730,N,0.08760,K,D*38
$GNHDT,33.8897,T*25
$GPGGA,091910.80,2234.24704440,N,11431.95731852,E,4,23,0.7,-3.8875,M,-1.3450,M,00,0000*57
$GPRMC,091910.80,A,2234.24704440,N,11431.95731852,E,0.047,214.3,061224,3.4,W,D*2B
$GNVTG,331.024,T,334.463,M,0.11971,N,0.22171,K,D*32
$GNHDT,33.6013,T*2F
$GPGGA,091911.00,2234.24705024,N,11431.95731504,E,4,23,0.7,-3.8893,M,-1.3450,M,01,0000*5E
$GPRMC,091911.00,A,2234.24705024,N,11431.95731504,E,0.120,331.0,061224,3.4,W,D*2E
$GNVTG,71.758,T,75.197,M,0.06411,N,0.11873,K,D*37
$GNHDT,33.3106,T*2F
$GPGGA,091911.20,2234.24705136,N,11431.95731869,E,4,23,0.7,-3.8778,M,-1.3450,M,01,0000*52
$GPRMC,091911.20,A,2234.24705136,N,11431.95731869,E,0.064,71.8,061224,3.4,W,D*16
$GNVTG,213.310,T,216.749,M,0.13435,N,0.24881,K,D*32
$GNHDT,33.3454,T*2D
$GPGGA,091911.40,2234.24704510,N,11431.95731426,E,4,23,0.7,-3.8887,M,-1.3450,M,01,0000*5D
$GPRMC,091911.40,A,2234.24704510,N,11431.95731426,E,0.134,213.3,061224,3.4,W,D*2F
$GNVTG,180.542,T,183.980,M,0.45783,N,0.84790,K,D*36
$GNHDT,33.3364,T*29
$GPGGA,091911.60,2234.24701958,N,11431.95731400,E,4,23,0.7,-3.8910,M,-1.3450,M,01,0000*51
$GPRMC,091911.60,A,2234.24701958,N,11431.95731400,E,0.458,180.5,061224,3.4,W,D*2C
$GNVTG,181.980,T,185.418,M,0.62391,N,1.15547,K,D*3C
$GNHDT,33.5793,T*23
$GPGGA,091911.80,2234.24698482,N,11431.95731271,E,4,23,0.7,-3.8866,M,-1.3450,M,00,0000*55
$GPRMC,091911.80,A,2234.24698482,N,11431.95731271,E,0.624,182.0,061224,3.4,W,D*27
$GNVTG,189.857,T,193.296,M,0.51057,N,0.94558,K,D*37
$GNHDT,33.6150,T*29
$GPGGA,091912.00,2234.24695678,N,11431.95730746,E,4,22,0.7,-3.8895,M,-1.3450,M,01,0000*58
$GPRMC,091912.00,A,2234.24695678,N,11431.95730746,E,0.511,189.9,061224,3.4,W,D*21
$GNVTG,208.467,T,211.905,M,0.27236,N,0.50441,K,D*3F
$GNHDT,34.0375,T*2D
$GPGGA,091912.20,2234.24694343,N,11431.95729967,E,4,23,0.7,-3.8596,M,-1.3450,M,01,0000*5C
$GPRMC,091912.20,A,2234.24694343,N,11431.95729967,E,0.272,208.5,061224,3.4,W,D*2E
$GNVTG,208.672,T,212.111,M,0.20477,N,0.37923,K,D*3B
$GNHDT,33.9405,T*23
$GPGGA,091912.40,2234.24693341,N,11431.95729377,E,4,23,0.7,-3.8243,M,-1.3450,M,01,0000*5B
$GPRMC,091912.40,A,2234.24693341,N,11431.95729377,E,0.205,208.7,061224,3.4,W,D*24
$GNVTG,202.877,T,206.315,M,0.23479,N,0.43483,K,D*30
$GNHDT,33.6467,T*28
$GPGGA,091912.60,2234.24692135,N,11431.95728829,E,4,23,0.7,-3.8261,M,-1.3450,M,01,0000*58
$GPRMC,091912.60,A,2234.24692135,N,11431.95728829,E,0.235,202.9,061224,3.4,W,D*20
$GNVTG,194.102,T,197.541,M,0.23296,N,0.43143,K,D*35
$GNHDT,33.4948,T*2A
$GPGGA,091912.80,2234.24690876,N,11431.95728489,E,4,23,0.7,-3.8392,M,-1.3450,M,00,0000*50
$GPRMC,091912.80,A,2234.24690876,N,11431.95728489,E,0.233,194.1,061224,3.4,W,D*26
$GNVTG,198.082,T,201.520,M,0.38999,N,0.72226,K,D*37
$GNHDT,33.6734,T*2D
$GPGGA,091913.00,2234.24688809,N,11431.95727762,E,4,23,0.7,-3.8752,M,-1.3450,M,01,0000*58
$GPRMC,091913.00,A,2234.24688809,N,11431.95727762,E,0.390,198.1,061224,3.4,W,D*23
$GNVTG,181.803,T,185.241,M,0.41206,N,0.76314,K,D*36
$GNHDT,33.2664,T*2D
$GPGGA,091913.20,2234.24686513,N,11431.95727684,E,4,22,0.7,-3.8831,M,-1.3450,M,01,0000*50
$GPRMC,091913.20,A,2234.24686513,N,11431.95727684,E,0.412,181.8,061224,3.4,W,D*2C
$GNVTG,213.587,T,217.025,M,0.26360,N,0.48819,K,D*3C
$GNHDT,33.4683,T*22
$GPGGA,091913.40,2234.24685289,N,11431.95726809,E,4,23,0.7,-3.8787,M,-1.3450,M,01,0000*58
$GPRMC,091913.40,A,2234.24685289,N,11431.95726809,E,0.264,213.6,061224,3.4,W,D*26
$GNVTG,201.716,T,205.155,M,0.23216,N,0.42996,K,D*39
$GNHDT,33.3922,T*21
$GPGGA,091913.60,2234.24684087,N,11431.95726293,E,4,23,0.7,-3.8566,M,-1.3450,M,01,0000*53
$GPRMC,091913.60,A,2234.24684087,N,11431.95726293,E,0.232,201.7,061224,3.4,W,D*21
$GNVTG,212.897,T,216.335,M,0.25584,N,0.47381,K,D*38
$GNHDT,33.4810,T*26
$GPGGA,091913.80,2234.24682889,N,11431.95725459,E,4,23,0.7,-3.8398,M,-1.3450,M,00,0000*58
$GPRMC,091913.80,A,2234.24682889,N,11431.95725459,E,0.256,212.9,061224,3.4,W,D*22
$GNVTG,188.570,T,192.008,M,0.31602,N,0.58527,K,D*32
$GNHDT,33.2932,T*21
$GPGGA,091914.00,2234.24681147,N,11431.95725177,E,4,22,0.7,-3.8500,M,-1.3450,M,01,0000*51
$GPRMC,091914.00,A,2234.24681147,N,11431.95725177,E,0.316,188.6,061224,3.4,W,D*26
$GNVTG,186.690,T,190.129,M,0.31482,N,0.58304,K,D*3C
$GNHDT,33.0756,T*2F
$GPGGA,091914.20,2234.24679404,N,11431.95724956,E,4,23,0.7,-3.8466,M,-1.3450,M,01,0000*5C
$GPRMC,091914.20,A,2234.24679404,N,11431.95724956,E,0.315,186.7,061224,3.4,W,D*27
$GNVTG,190.998,T,194.436,M,0.31544,N,0.58419,K,D*33
$GNHDT,33.1831,T*20
$GPGGA,091914.40,2234.24677678,N,11431.95724595,E,4,23,0.7,-3.8430,M,-1.3450,M,01,0000*5D
$GPRMC,091914.40,A,2234.24677678,N,11431.95724595,E,0.315,191.0,061224,3.4,W,D*24
$GNVTG,195.018,T,198.456,M,0.27825,N,0.51531,K,D*32
$GNHDT,33.0370,T*2F
$GPGGA,091914.60,2234.24676180,N,11431.95724162,E,4,24,0.7,-3.8488,M,-1.3450,M,01,0000*56
$GPRMC,091914.60,A,2234.24676180,N,11431.95724162,E,0.278,195.0,061224,3.4,W,D*25
$GNVTG,207.726,T,211.164,M,0.30627,N,0.56722,K,D*3B
$GNHDT,33.1775,T*2F
$GPGGA,091914.80,2234.24674668,N,11431.95723307,E,4,24,0.7,-3.8415,M,-1.3450,M,00,0000*58
$GPRMC,091914.80,A,2234.24674668,N,11431.95723307,E,0.306,207.7,061224,3.4,W,D*29
$GNVTG,217.981,T,221.420,M,0.30789,N,0.57021,K,D*3F
$GNHDT,33.1789,T*2C
$GPGGA,091915.00,2234.24673315,N,11431.95722170,E,4,23,0.7,-3.8332,M,-1.3450,M,01,0000*5E
$GPRMC,091915.00,A,2234.24673315,N,11431.95722170,E,0.308,218.0,061224,3.4,W,D*2C
$GNVTG,216.503,T,219.942,M,0.30853,N,0.57140,K,D*34
$GNHDT,33.7209,T*27
$GPGGA,091915.20,2234.24671933,N,11431.95721068,E,4,24,0.7,-3.8231,M,-1.3450,M,01,0000*5E
$GPRMC,091915.20,A,2234.24671933,N,11431.95721068,E,0.309,216.5,061224,3.4,W,D*23
$GNVTG,189.325,T,192.763,M,0.42207,N,0.78167,K,D*38
$GNHDT,33.2150,T*2D
$GPGGA,091915.40,2234.24669611,N,11431.95720657,E,4,23,0.7,-3.8114,M,-1.3450,M,01,0000*56
$GPRMC,091915.40,A,2234.24669611,N,11431.95720657,E,0.422,189.3,061224,3.4,W,D*25
$GNVTG,201.039,T,204.478,M,0.42248,N,0.78243,K,D*3E
$GNHDT,32.8331,T*23
$GPGGA,091915.60,2234.24667413,N,11431.95719747,E,4,24,0.7,-3.8382,M,-1.3450,M,01,0000*5A
$GPRMC,091915.60,A,2234.24667413,N,11431.95719747,E,0.422,201.0,061224,3.4,W,D*23
$GNVTG,202.302,T,205.740,M,0.35056,N,0.64925,K,D*34
$GNHDT,32.4666,T*28
$GPGGA,091915.80,2234.24665605,N,11431.95718948,E,4,24,0.7,-3.8356,M,-1.3450,M,00,0000*5B
$GPRMC,091915.80,A,2234.24665605,N,11431.95718948,E,0.351,202.3,061224,3.4,W,D*29
$GNVTG,216.954,T,220.392,M,0.30000,N,0.55560,K,D*3D
$GNHDT,32.7555,T*28
$GPGGA,091916.00,2234.24664268,N,11431.95717866,E,4,24,0.7,-3.8330,M,-1.3450,M,01,0000*5D
$GPRMC,091916.00,A,2234.24664268,N,11431.95717866,E,0.300,217.0,061224,3.4,W,D*2D
$GNVTG,204.212,T,207.650,M,0.19669,N,0.36427,K,D*3C
$GNHDT,32.7343,T*29
$GPGGA,091916.20,2234.24663268,N,11431.95717382,E,4,24,0.7,-3.8477,M,-1.3450,M,01,0000*5D
$GPRMC,091916.20,A,2234.24663268,N,11431.95717382,E,0.197,204.2,061224,3.4,W,D*25
$GNVTG,207.082,T,210.521,M,0.23052,N,0.42691,K,D*3C
$GNHDT,32.9770,T*23
$GPGGA,091916.40,2234.24662124,N,11431.95716752,E,4,24,0.7,-3.8573,M,-1.3451,M,01,0000*5D
$GPRMC,091916.40,A,2234.24662124,N,11431.95716752,E,0.231,207.1,061224,3.4,W,D*2E
$GNVTG,188.119,T,191.558,M,0.34034,N,0.63032,K,D*35
$GNHDT,32.5636,T*2C
$GPGGA,091916.60,2234.24660246,N,11431.95716463,E,4,24,0.7,-3.8776,M,-1.3451,M,01,0000*5C
$GPRMC,091916.60,A,2234.24660246,N,11431.95716463,E,0.340,188.1,061224,3.4,W,D*2B
$GNVTG,196.626,T,200.065,M,0.34675,N,0.64218,K,D*3F
$GNHDT,32.8994,T*26
$GPGGA,091916.80,2234.24658393,N,11431.95715868,E,4,24,0.7,-3.8802,M,-1.3451,M,01,0000*58
$GPRMC,091916.80,A,2234.24658393,N,11431.95715868,E,0.347,196.6,061224,3.4,W,D*2C
$GNVTG,205.049,T,208.488,M,0.31612,N,0.58545,K,D*32
$GNHDT,33.2143,T*2F
$GPGGA,091917.00,2234.24656797,N,11431.95715064,E,4,24,0.7,-3.8629,M,-1.3451,M,02,0000*5F
$GPRMC,091917.00,A,2234.24656797,N,11431.95715064,E,0.316,205.0,061224,3.4,W,D*24
$GNVTG,204.015,T,207.453,M,0.32293,N,0.59807,K,D*37
$GNHDT,33.2901,T*21
$GPGGA,091917.20,2234.24655153,N,11431.95714275,E,4,24,0.7,-3.8419,M,-1.3451,M,02,0000*52
$GPRMC,091917.20,A,2234.24655153,N,11431.95714275,E,0.323,204.0,061224,3.4,W,D*2F
$GNVTG,201.085,T,204.524,M,0.31822,N,0.58935,K,D*3B
$GNHDT,33.2614,T*2A
$GPGGA,091917.40,2234.24653497,N,11431.95713588,E,4,24,0.7,-3.8246,M,-1.3451,M,02,0000*51
$GPRMC,091917.40,A,2234.24653497,N,11431.95713588,E,0.318,201.1,061224,3.4,W,D*2C
$GNVTG,196.150,T,199.589,M,0.38201,N,0.70748,K,D*33
$GNHDT,33.4889,T*26
$GPGGA,091917.60,2234.24651452,N,11431.95712950,E,4,24,0.7,-3.8366,M,-1.3451,M,02,0000*53
$GPRMC,091917.60,A,2234.24651452,N,11431.95712950,E,0.382,196.2,061224,3.4,W,D*20
$GNVTG,186.955,T,190.394,M,0.41757,N,0.77335,K,D*3D
$GNHDT,32.9712,T*27
$GPGGA,091917.80,2234.24649141,N,11431.95712647,E,4,24,0.7,-3.8344,M,-1.3451,M,00,0000*58
