,W,D*2C
$GNVTG,150.500,T,153.938,M,0.42409,N,0.78542,K,D*3B
$GNHDT,332.2910,T*13
$GPGGA,093940.00,2234.24766582,N,11431.97229495,E,4,20,0.8,-3.7856,M,-1.3442,M,01,0000*5A
$GPRMC,093940.00,A,2234.24766582,N,11431.97229495,E,0.424,150.5,061224,3.4,W,D*22
$GNVTG,156.508,T,159.946,M,0.30072,N,0.55693,K,D*3B
$GNHDT,332.4225,T*18
$GPGGA,093940.20,2234.24765045,N,11431.97230215,E,4,20,0.8,-3.8052,M,-1.3442,M,01,0000*50
$GPRMC,093940.20,A,2234.24765045,N,11431.97230215,E,0.301,156.5,061224,3.4,W,D*2D
$GNVTG,146.526,T,149.964,M,0.34418,N,0.63743,K,D*32
$GNHDT,332.1495,T*10
$GPGGA,093940.40,2234.24763444,N,11431.97231354,E,4,20,0.8,-3.8079,M,-1.3442,M,01,0000*59
$GPRMC,093940.40,A,2234.24763444,N,11431.97231354,E,0.344,146.5,061224,3.4,W,D*2D
$GNVTG,162.591,T,166.030,M,0.31238,N,0.57852,K,D*34
$GNHDT,332.7273,T*18
$GPGGA,093940.60,2234.24761783,N,11431.97231915,E,4,22,0.7,-3.8346,M,-1.3442,M,01,0000*5C
$GPRMC,093940.60,A,2234.24761783,N,11431.97231915,E,0.312,162.6,061224,3.4,W,D*2C
$GNVTG,149.881,T,153.320,M,0.51804,N,0.95941,K,D*3B
$GNHDT,333.6100,T*1F
$GPGGA,093940.80,2234.24759285,N,11431.97233476,E,4,22,0.7,-3.8517,M,-1.3442,M,00,0000*53
$GPRMC,093940.80,A,2234.24759285,N,11431.97233476,E,0.518,149.9,061224,3.4,W,D*2A
$GNVTG,146.801,T,150.239,M,0.36475,N,0.67552,K,D*3E
$GNHDT,332.9961,T*1E
$GPGGA,093941.00,2234.24757583,N,11431.97234675,E,4,22,0.7,-3.8648,M,-1.3442,M,01,0000*5B
$GPRMC,093941.00,A,2234.24757583,N,11431.97234675,E,0.365,146.8,061224,3.4,W,D*28
$GNVTG,122.023,T,125.461,M,0.54184,N,1.00349,K,D*3E
$GNHDT,332.3530,T*1C
$GPGGA,093941.20,2234.24755981,N,11431.97237432,E,4,22,0.7,-3.8813,M,-1.3442,M,01,0000*57
$GPRMC,093941.20,A,2234.24755981,N,11431.97237432,E,0.542,122.0,061224,3.4,W,D*2D
$GNVTG,130.172,T,133.610,M,0.54254,N,1.00479,K,D*31
$GNHDT,332.6657,T*1B
$GPGGA,093941.40,2234.24754030,N,11431.97239921,E,4,22,0.7,-3.9166,M,-1.3442,M,01,0000*58
$GPRMC,093941.40,A,2234.24754030,N,11431.97239921,E,0.543,130.2,061224,3.4,W,D*28
$GNVTG,107.741,T,111.179,M,0.54488,N,1.00912,K,D*3C
$GNHDT,332.6996,T*19
$GPGGA,093941.60,2234.24753105,N,11431.97243036,E,4,22,0.7,-3.9309,M,-1.3442,M,01,0000*53
$GPRMC,093941.60,A,2234.24753105,N,11431.97243036,E,0.545,107.7,061224,3.4,W,D*2F
$GNVTG,112.754,T,116.192,M,0.47445,N,0.87869,K,D*3E
$GNHDT,332.6469,T*14
$GPGGA,093941.80,2234.24752082,N,11431.97245662,E,4,22,0.7,-3.9066,M,-1.3442,M,00,0000*58
$GPRMC,093941.80,A,2234.24752082,N,11431.97245662,E,0.474,112.8,061224,3.4,W,D*27
$GNVTG,120.998,T,124.437,M,0.58495,N,1.08334,K,D*3C
$GNHDT,333.2145,T*1A
$GPGGA,093942.00,2234.24750402,N,11431.97248672,E,4,22,0.7,-3.9005,M,-1.3442,M,01,0000*55
$GPRMC,093942.00,A,2234.24750402,N,11431.97248672,E,0.585,121.0,061224,3.4,W,D*29
$GNVTG,120.279,T,123.717,M,0.46831,N,0.86730,K,D*34
$GNHDT,332.8235,T*15
$GPGGA,093942.20,2234.24749086,N,11431.97251099,E,4,22,0.7,-3.8600,M,-1.3442,M,01,0000*5E
$GPRMC,093942.20,A,2234.24749086,N,11431.97251099,E,0.468,120.3,061224,3.4,W,D*20
$GNVTG,130.480,T,133.919,M,0.54302,N,1.00567,K,D*33
$GNHDT,332.7323,T*1C
$GPGGA,093942.40,2234.24747121,N,11431.97253579,E,4,22,0.7,-3.8769,M,-1.3442,M,01,0000*5D
$GPRMC,093942.40,A,2234.24747121,N,11431.97253579,E,0.543,130.5,061224,3.4,W,D*22
$GNVTG,106.650,T,110.088,M,0.43842,N,0.81196,K,D*32
$GNHDT,332.8699,T*17
$GPGGA,093942.60,2234.24746421,N,11431.97256100,E,4,21,0.7,-3.9002,M,-1.3442,M,01,0000*5C
$GPRMC,093942.60,A,2234.24746421,N,11431.97256100,E,0.438,106.6,061224,3.4,W,D*20
$GNVTG,100.627,T,104.066,M,0.49548,N,0.91762,K,D*30
$GNHDT,332.4136,T*19
$GPGGA,093942.80,2234.24745911,N,11431.97259023,E,4,21,0.8,-3.8951,M,-1.3442,M,00,0000*50
$GPRMC,093942.80,A,2234.24745911,N,11431.97259023,E,0.495,100.6,061224,3.4,W,D*2D
$GNVTG,125.492,T,128.930,M,0.46794,N,0.86662,K,D*34
$GNHDT,332.8627,T*12
$GPGGA,093943.00,2234.24744397,N,11431.97261310,E,4,21,0.8,-3.9075,M,-1.3442,M,01,0000*5B
$GPRMC,093943.00,A,2234.24744397,N,11431.97261310,E,0.468,125.5,061224,3.4,W,D*2F
$GNVTG,137.592,T,141.030,M,0.50255,N,0.93073,K,D*3D
$GNHDT,332.7825,T*11
$GPGGA,093943.20,2234.24742328,N,11431.97263345,E,4,21,0.8,-3.8860,M,-1.3442,M,01,0000*54
$GPRMC,093943.20,A,2234.24742328,N,11431.97263345,E,0.503,137.6,061224,3.4,W,D*21
$GNVTG,83.856,T,87.294,M,0.32152,N,0.59546,K,D*34
$GNHDT,332.3996,T*1C
$GPGGA,093943.40,2234.24742520,N,11431.97265264,E,4,21,0.8,-3.8316,M,-1.3442,M,01,0000*52
$GPRMC,093943.40,A,2234.24742520,N,11431.97265264,E,0.322,83.9,061224,3.4,W,D*19
$GNVTG,156.364,T,159.803,M,0.38591,N,0.71470,K,D*3E
$GNHDT,332.5992,T*1E
$GPGGA,093943.60,2234.24740549,N,11431.97266192,E,4,22,0.7,-3.7772,M,-1.3442,M,01,0000*51
$GPRMC,093943.60,A,2234.24740549,N,11431.97266192,E,0.386,156.4,061224,3.4,W,D*25
$GNVTG,139.231,T,142.670,M,0.21348,N,0.39536,K,D*33
$GNHDT,332.1904,T*15
$GPGGA,093943.80,2234.24739648,N,11431.97267029,E,4,22,0.7,-3.7694,M,-1.3442,M,00,0000*5B
$GPRMC,093943.80,A,2234.24739648,N,11431.97267029,E,0.213,139.2,061224,3.4,W,D*25
$GNVTG,156.874,T,160.312,M,0.35993,N,0.66658,K,D*38
$GNHDT,332.1707,T*18
$GPGGA,093944.00,2234.24737803,N,11431.97267878,E,4,22,0.7,-3.7883,M,-1.3442,M,01,0000*5E
$GPRMC,093944.00,A,2234.24737803,N,11431.97267878,E,0.360,156.9,061224,3.4,W,D*2E
$GNVTG,111.905,T,115.344,M,0.24154,N,0.44734,K,D*35
$GNHDT,331.9899,T*1B
$GPGGA,093944.20,2234.24737300,N,11431.97269223,E,4,22,0.7,-3.7945,M,-1.3442,M,01,0000*55
$GPRMC,093944.20,A,2234.24737300,N,11431.97269223,E,0.242,111.9,061224,3.4,W,D*2C
$GNVTG,126.865,T,130.304,M,0.42435,N,0.78589,K,D*3C
$GNHDT,332.0784,T*12
$GPGGA,093944.40,2234.24735881,N,11431.97271261,E,4,21,0.7,-3.7922,M,-1.3441,M,01,0000*5D
$GPRMC,093944.40,A,2234.24735881,N,11431.97271261,E,0.424,126.9,061224,3.4,W,D*27
$GNVTG,150.339,T,153.778,M,0.61662,N,1.14199,K,D*3A
$GNHDT,332.5506,T*1F
$GPGGA,093944.60,2234.24732894,N,11431.97273092,E,4,21,0.7,-3.8180,M,-1.3441,M,01,0000*5F
$GPRMC,093944.60,A,2234.24732894,N,11431.97273092,E,0.617,150.3,061224,3.4,W,D*23
$GNVTG,146.927,T,150.365,M,0.41238,N,0.76372,K,D*38
$GNHDT,332.9682,T*1C
$GPGGA,093944.80,2234.24730967,N,11431.97274443,E,4,21,0.7,-3.8253,M,-1.3441,M,00,0000*5D
$GPRMC,093944.80,A,2234.24730967,N,11431.97274443,E,0.412,146.9,061224,3.4,W,D*27
$GNVTG,140.780,T,144.219,M,0.24096,N,0.44627,K,D*33
$GNHDT,332.5816,T*13
$GPGGA,093945.00,2234.24729927,N,11431.97275358,E,4,21,0.7,-3.8118,M,-1.3441,M,01,0000*59
$GPRMC,093945.00,A,2234.24729927,N,11431.97275358,E,0.241,140.8,061224,3.4,W,D*29
$GNVTG,113.585,T,117.023,M,0.10135,N,0.18769,K,D*32
$GNHDT,332.5363,T*1A
$GPGGA,093945.20,2234.24729701,N,11431.97275915,E,4,22,0.7,-3.7978,M,-1.3441,M,01,0000*50
$GPRMC,093945.20,A,2234.24729701,N,11431.97275915,E,0.101,113.6,061224,3.4,W,D*2D
$GNVTG,166.692,T,170.131,M,0.17073,N,0.31620,K,D*35
$GNHDT,331.9158,T*1F
$GPGGA,093945.40,2234.24728774,N,11431.97276151,E,4,22,0.7,-3.8024,M,-1.3441,M,01,0000*51
$GPRMC,093945.40,A,2234.24728774,N,11431.97276151,E,0.171,166.7,061224,3.4,W,D*27
$GNVTG,173.781,T,177.220,M,0.19140,N,0.35446,K,D*3F
$GNHDT,332.2099,T*1B
$GPGGA,093945.60,2234.24727714,N,11431.97276276,E,4,22,0.7,-3.7908,M,-1.3441,M,01,0000*54
$GPRMC,093945.60,A,2234.24727714,N,11431.97276276,E,0.191,173.8,061224,3.4,W,D*2F
$GNVTG,152.357,T,155.795,M,0.47825,N,0.88572,K,D*39
$GNHDT,332.2054,T*1A
$GPGGA,093945.80,2234.24725352,N,11431.97277608,E,4,22,0.7,-3.7947,M,-1.3441,M,00,0000*58
$GPRMC,093945.80,A,2234.24725352,N,11431.97277608,E,0.478,152.4,061224,3.4,W,D*24
$GNVTG,153.404,T,156.842,M,0.34326,N,0.63571,K,D*35
$GNHDT,332.3586,T*11
$GPGGA,093946.00,2234.24723641,N,11431.97278530,E,4,22,0.7,-3.8084,M,-1.3441,M,01,0000*5D
$GPRMC,093946.00,A,2234.24723641,N,11431.97278530,E,0.343,153.4,061224,3.4,W,D*27
$GNVTG,141.604,T,145.042,M,0.43990,N,0.81469,K,D*3D
$GNHDT,332.1819,T*18
$GPGGA,093946.20,2234.24721719,N,11431.97280170,E,4,22,0.7,-3.8442,M,-1.3441,M,01,0000*58
$GPRMC,093946.20,A,2234.24721719,N,11431.97280170,E,0.440,141.6,061224,3.4,W,D*29
$GNVTG,125.566,T,129.005,M,0.33549,N,0.62134,K,D*3E
$GNHDT,332.2713,T*1E
$GPGGA,093946.40,2234.24720631,N,11431.97281808,E,4,22,0.7,-3.8613,M,-1.3441,M,01,0000*55
$GPRMC,093946.40,A,2234.24720631,N,11431.97281808,E,0.335,125.6,061224,3.4,W,D*25
$GNVTG,139.723,T,143.162,M,0.46023,N,0.85234,K,D*3D
$GNHDT,331.7619,T*13
$GPGGA,093946.60,2234.24718674,N,11431.97283594,E,4,20,0.8,-3.9010,M,-1.3441,M,01,0000*5E
$GPRMC,093946.60,A,2234.24718674,N,11431.97283594,E,0.460,139.7,061224,3.4,W,D*2C
$GNVTG,124.540,T,127.979,M,0.34185,N,0.63311,K,D*30
$GNHDT,331.0692,T*17
$GPGGA,093946.80,2234.24717593,N,11431.97285285,E,4,20,0.8,-3.9004,M,-1.3441,M,01,0000*51
$GPRMC,093946.80,A,2234.24717593,N,11431.97285285,E,0.342,124.5,061224,3.4,W,D*2F
$GNVTG,136.324,T,139.762,M,0.26372,N,0.48841,K,D*32
$GNHDT,331.1745,T*1D
$GPGGA,093947.00,2234.24716530,N,11431.97286378,E,4,20,0.8,-3.8699,M,-1.3441,M,02,0000*50
$GPRMC,093947.00,A,2234.24716530,N,11431.97286378,E,0.264,136.3,061224,3.4,W,D*2E
$GNVTG,124.315,T,127.754,M,0.28432,N,0.52657,K,D*36
$GNHDT,330.9154,T*12
$GPGGA,093947.20,2234.24715636,N,11431.97287787,E,4,20,0.8,-3.8496,M,-1.3441,M,02,0000*5C
$GPRMC,093947.20,A,2234.24715636,N,11431.97287787,E,0.284,124.3,061224,3.4,W,D*22
$GNVTG,140.703,T,144.141,M,0.46162,N,0.85492,K,D*39
$GNHDT,331.2390,T*12
$GPGGA,093947.40,2234.24713645,N,11431.97289542,E,4,20,0.8,-3.8383,M,-1.3441,M,02,0000*5E
$GPRMC,093947.40,A,2234.24713645,N,11431.97289542,E,0.462,140.7,061224,3.4,W,D*2B
$GNVTG,95.534,T,98.972,M,0.36924,N,0.68383,K,D*37
$GNHDT,330.7715,T*1F
$GPGGA,093947.60,2234.24713446,N,11431.97291748,E,4,20,0.8,-3.8104,M,-1.3441,M,02,0000*51
$GPRMC,093947.60,A,2234.24713446,N,11431.97291748,E,0.369,95.5,061224,3.4,W,D*1E
$GNVTG,130.089,T,133.527,M,0.49493,N,0.91661,K,D*30
$GNHDT,331.3464,T*1F
$GPGGA,093947.80,2234.24711670,N,11431.97294021,E,4,20,0.8,-3.8541,M,-1.3441,M,00,0000*50
$GPRMC,093947.80,A,2234.24711670,N,11431.97294021,E,0.495,130.1,061224,3.4,W,D*26
$GNVTG,122.645,T,126.083,M,0.40776,N,0.75518,K,D*3C
$GNHDT,331.3157,T*1A
$GPGGA,093948.00,2234.24710443,N,11431.97296082,E,4,20,0.8,-3.8804,M,-1.3441,M,01,0000*52
$GPRMC,093948.00,A,2234.24710443,N,11431.97296082,E,0.408,122.6,061224,3.4,W,D*29
$GNVTG,120.242,T,123.680,M,0.41851,N,0.77508,K,D*35
$GNHDT,331.0079,T*14
$GPGGA,093948.20,2234.24709268,N,11431.97298253,E,4,20,0.8,-3.8995,M,-1.3441,M,01,0000*5E
$GPRMC,093948.20,A,2234.24709268,N,11431.97298253,E,0.419,120.2,061224,3.4,W,D*2A
$GNVTG,145.477,T,148.916,M,0.41071,N,0.76063,K,D*38
$GNHDT,330.8585,T*1B
$GPGGA,093948.40,2234.24707382,N,11431.97299650,E,4,20,0.8,-3.8916,M,-1.3441,M,01,0000*5E
$GPRMC,093948.40,A,2234.24707382,N,11431.97299650,E,0.411,145.5,061224,3.4,W,D*2D
$GNVTG,120.783,T,124.221,M,0.29299,N,0.54262,K,D*3F
$GNHDT,330.5555,T*1B
$GPGGA,093948.60,2234.24706546,N,11431.97301161,E,4,20,0.8,-3.8896,M,-1.3441,M,01,0000*5F
$GPRMC,093948.60,A,2234.24706546,N,11431.97301161,E,0.293,120.8,061224,3.4,W,D*27
$GNVTG,115.175,T,118.614,M,0.19864,N,0.36787,K,D*3A
$GNHDT,330.2405,T*18
$GPGGA,093948.80,2234.24706075,N,11431.97302240,E,4,20,0.8,-3.8658,M,-1.3441,M,00,0000*5A
$GPRMC,093948.80,A,2234.24706075,N,11431.97302240,E,0.199,115.2,061224,3.4,W,D*2A
$GNVTG,131.441,T,134.879,M,0.19155,N,0.35475,K,D*33
$GNHDT,330.3703,T*1C
$GPGGA,093949.00,2234.24705368,N,11431.97303102,E,4,20,0.8,-3.8631,M,-1.3441,M,01,0000*55
$GPRMC,093949.00,A,2234.24705368,N,11431.97303102,E,0.192,131.4,061224,3.4,W,D*20
$GNVTG,119.921,T,123.360,M,0.40238,N,0.74520,K,D*37
$GNHDT,330.0571,T*18
$GPGGA,093949.20,2234.24704249,N,11431.97305195,E,4,20,0.8,-3.8432,M,-1.3441,M,01,0000*5D
$GPRMC,093949.20,A,2234.24704249,N,11431.97305195,E,0.402,119.9,061224,3.4,W,D*22
$GNVTG,105.682,T,109.120,M,0.44232,N,0.81917,K,D*3E
$GNHDT,329.9144,T*1B
$GPGGA,093949.40,2234.24703583,N,11431.97307751,E,4,20,0.8,-3.8558,M,-1.3441,M,01,0000*5C
$GPRMC,093949.40,A,2234.24703583,N,11431.97307751,E,0.442,105.7,061224,3.4,W,D*29
$GNVTG,122.841,T,126.279,M,0.49940,N,0.92488,K,D*32
$GNHDT,330.3193,T*13
$GPGGA,093949.60,2234.24702073,N,11431.97310270,E,4,20,0.8,-3.8720,M,-1.3441,M,01,0000*58
$GPRMC,093949.60,A,2234.24702073,N,11431.97310270,E,0.499,122.8,061224,3.4,W,D*2C
$GNVTG,128.447,T,131.885,M,0.60999,N,1.12971,K,D*30
$GNHDT,330.3235,T*1C
$GPGGA,093949.80,2234.24699959,N,11431.97313138,E,4,19,0.8,-3.8905,M,-1.3441,M,00,0000*5A
$GPRMC,093949.80,A,2234.24699959,N,11431.97313138,E,0.610,128.4,061224,3.4,W,D*29
$GNVTG,122.158,T,125.596,M,0.50695,N,0.93888,K,D*34
$GNHDT,330.1000,T*1A
$GPGGA,093950.00,2234.24698454,N,11431.97315714,E,4,20,0.8,-3.8880,M,-1.3441,M,01,0000*52
$GPRMC,093950.00,A,2234.24698454,N,11431.97315714,E,0.507,122.2,061224,3.4,W,D*2F
$GNVTG,114.273,T,117.712,M,0.30707,N,0.56869,K,D*3E
$GNHDT,329.8482,T*15
$GPGGA,093950.20,2234.24697751,N,11431.97317394,E,4,20,0.8,-3.8465,M,-1.3441,M,01,0000*50
$GPRMC,093950.20,A,2234.24697751,N,11431.97317394,E,0.307,114.3,061224,3.4,W,D*28
$GNVTG,113.160,T,116.598,M,0.20134,N,0.37288,K,D*3C
$GNHDT,329.2585,T*19
$GPGGA,093950.40,2234.24697309,N,11431.97318505,E,4,19,0.8,-3.8006,M,-1.3441,M,01,0000*55
$GPRMC,093950.40,A,2234.24697309,N,11431.97318505,E,0.201,113.2,061224,3.4,W,D*27
$GNVTG,146.304,T,149.742,M,0.16177,N,0.29959,K,D*39
$GNHDT,329.3220,T*10
$GPGGA,093950.60,2234.24696559,N,11431.97319044,E,4,19,0.8,-3.7754,M,-1.3441,M,01,0000*5B
$GPRMC,093950.60,A,2234.24696559,N,11431.97319044,E,0.162,146.3,061224,3.4,W,D*21
$GNVTG,115.277,T,118.716,M,0.37219,N,0.68930,K,D*3D
$GNHDT,328.8125,T*1C
$GPGGA,093950.80,2234.24695673,N,11431.97321064,E,4,19,0.8,-3.7629,M,-1.3441,M,00,0000*5E
$GPRMC,093950.80,A,2234.24695673,N,11431.97321064,E,0.372,115.3,061224,3.4,W,D*2B
$GNVTG,126.258,T,129.697,M,0.35484,N,0.65717,K,D*3C
$GNHDT,328.3285,T*1E
$GPGGA,093951.00,2234.24694503,N,11431.97322782,E,4,19,0.8,-3.7763,M,-1.3441,M,01,0000*50
$GPRMC,093951.00,A,2234.24694503,N,11431.97322782,E,0.355,126.3,061224,3.4,W,D*2E
$GNVTG,136.819,T,140.258,M,0.51274,N,0.94959,K,D*3B
$GNHDT,328.3532,T*15
$GPGGA,093951.20,2234.24692419,N,11431.97324888,E,4,20,0.8,-3.8219,M,-1.3441,M,01,0000*50
$GPRMC,093951.20,A,2234.24692419,N,11431.97324888,E,0.513,136.8,061224,3.4,W,D*2D
$GNVTG,66.492,T,69.930,M,0.14704,N,0.27232,K,D*32
$GNHDT,328.2894,T*15
$GPGGA,093951.40,2234.24692746,N,11431.97325697,E,4,19,0.8,-3.8455,M,-1.3441,M,01,0000*5A
$GPRMC,093951.40,A,2234.24692746,N,11431.97325697,E,0.147,66.5,061224,3.4,W,D*1F
$GNVTG,151.486,T,154.925,M,0.31008,N,0.57427,K,D*30
$GNHDT,328.4114,T*12
$GPGGA,093951.60,2234.24691227,N,11431.97326586,E,4,20,0.8,-3.8477,M,-1.3441,M,00,0000*52
$GPRMC,093951.60,A,2234.24691227,N,11431.97326586,E,0.310,151.5,061224,3.4,W,D*29
$GNVTG,150.868,T,154.307,M,0.24494,N,0.45364,K,D*31
$GNHDT,328.2231,T*10
$GPGGA,093951.80,2234.24690034,N,11431.97327302,E,4,20,0.8,-3.8397,M,-1.3441,M,00,0000*5F
$GPRMC,093951.80,A,2234.24690034,N,11431.97327302,E,0.245,150.9,061224,3.4,W,D*21
$GNVTG,156.589,T,160.027,M,0.06893,N,0.12766,K,D*3C
$GNHDT,327.7650,T*19
$GPGGA,093952.00,2234.24689681,N,11431.97327466,E,4,20,0.8,-3.7987,M,-1.3441,M,01,0000*54
$GPRMC,093952.00,A,2234.24689681,N,11431.97327466,E,0.069,156.6,061224,3.4,W,D*2A
$GNVTG,132.142,T,135.580,M,0.32398,N,0.60001,K,D*31
$GNHDT,326.9625,T*14
$GPGGA,093952.20,2234.24688470,N,11431.97328908,E,4,20,0.8,-3.7502,M,-1.3441,M,01,0000*50
$GPRMC,093952.20,A,2234.24688470,N,11431.97328908,E,0.324,132.1,061224,3.4,W,D*20
$GNVTG,151.845,T,155.283,M,0.22444,N,0.41566,K,D*38
$GNHDT,326.2882,T*1C
$GPGGA,093952.40,2234.24687366,N,11431.97329544,E,4,20,0.8,-3.7418,M,-1.3441,M,01,0000*56
$GPRMC,093952.40,A,2234.24687366,N,11431.97329544,E,0.224,151.8,061224,3.4,W,D*21
$GNVTG,161.451,T,164.889,M,0.31786,N,0.58868,K,D*34
$GNHDT,326.3895,T*1B
$GPGGA,093952.60,2234.24685686,N,11431.97330151,E,4,20,0.8,-3.7409,M,-1.3441,M,01,0000*55
$GPRMC,093952.60,A,2234.24685686,N,11431.97330151,E,0.318,161.5,061224,3.4,W,D*22
$GNVTG,160.587,T,164.025,M,0.31691,N,0.58691,K,D*3E
$GNHDT,326.4587,T*12
$GPGGA,093952.80,2234.24684020,N,11431.97330783,E,4,20,0.8,-3.7550,M,-1.3441,M,00,0000*55
$GPRMC,093952.80,A,2234.24684020,N,11431.97330783,E,0.317,160.6,061224,3.4,W,D*23
$GNVTG,130.451,T,133.889,M,0.24851,N,0.46024,K,D*3C
$GNHDT,325.8256,T*16
$GPGGA,093953.00,2234.24683121,N,11431.97331918,E,4,20,0.8,-3.7815,M,-1.3441,M,01,0000*5B
$GPRMC,093953.00,A,2234.24683121,N,11431.97331918,E,0.249,130.5,061224,3.4,W,D*2C
$GNVTG,156.599,T,160.037,M,0.44491,N,0.82398,K,D*38
$GNHDT,325.8769,T*1F
$GPGGA,093953.20,2234.24680845,N,11431.97332979,E,4,20,0.8,-3.8145,M,-1.3441,M,01,0000*56
$GPRMC,093953.20,A,2234.24680845,N,11431.97332979,E,0.445,156.6,061224,3.4,W,D*2B
$GNVTG,161.357,T,164.795,M,0.47157,N,0.87335,K,D*3D
$GNHDT,325.6375,T*18
$GPGGA,093953.40,2234.24678354,N,11431.97333884,E,4,20,0.8,-3.8412,M,-1.3441,M,01,0000*59
$GPRMC,093953.40,A,2234.24678354,N,11431.97333884,E,0.472,161.4,061224,3.4,W,D*21
$GNVTG,159.062,T,162.500,M,0.29021,N,0.53747,K,D*3B
$GNHDT,325.0950,T*13
$GPGGA,093953.60,2234.24676843,N,11431.97334506,E,4,22,0.7,-3.8348,M,-1.3441,M,01,0000*5D
$GPRMC,093953.60,A,2234.24676843,N,11431.97334506,E,0.290,159.1,061224,3.4,W,D*24
$GNVTG,153.639,T,157.077,M,0.17155,N,0.31770,K,D*35
$GNHDT,324.6604,T*1A
$GPGGA,093953.80,2234.24675986,N,11431.97334963,E,4,22,0.7,-3.8172,M,-1.3441,M,00,0000*5D
$GPRMC,093953.80,A,2234.24675986,N,11431.97334963,E,0.172,153.6,061224,3.4,W,D*2C
$GNVTG,173.039,T,176.477,M,0.13829,N,0.25611,K,D*33
$GNHDT,324.6723,T*1E
$GPGGA,093954.00,2234.24675221,N,11431.97335064,E,4,21,0.8,-3.8086,M,-1.3441,M,01,0000*5C
$GPRMC,093954.00,A,2234.24675221,N,11431.97335064,E,0.138,173.0,061224,3.4,W,D*20
$GNVTG,140.067,T,143.506,M,0.20244,N,0.37492,K,D*32
$GNHDT,324.0574,T*18
$GPGGA,093954.20,2234.24674356,N,11431.97335844,E,4,21,0.8,-3.8275,M,-1.3441,M,01,0000*5A
$GPRMC,093954.20,A,2234.24674356,N,11431.97335844,E,0.202,140.1,061224,3.4,W,D*23
$GNVTG,120.522,T,123.960,M,0.29938,N,0.55445,K,D*3D
$GNHDT,323.8044,T*11
$GPGGA,093954.40,2234.24673508,N,11431.97337392,E,4,21,0.8,-3.8582,M,-1.3441,M,01,0000*5B
$GPRMC,093954.40,A,2234.24673508,N,11431.97337392,E,0.299,120.5,061224,3.4,W,D*2D
$GNVTG,128.484,T,131.922,M,0.44457,N,0.82335,K,D*38
$GNHDT,323.8011,T*11
$GPGGA,093954.60,2234.24671966,N,11431.97339481,E,4,21,0.8,-3.8836,M,-1.3441,M,01,0000*56
$GPRMC,093954.60,A,2234.24671966,N,11431.97339481,E,0.445,128.5,061224,3.4,W,D*2D
$GNVTG,135.776,T,139.215,M,0.37652,N,0.69731,K,D*3B
$GNHDT,323.6795,T*14
$GPGGA,093954.80,2234.24670462,N,11431.97341057,E,4,22,0.7,-3.9097,M,-1.3441,M,00,0000*5F
$GPRMC,093954.80,A,2234.24670462,N,11431.97341057,E,0.377,135.8,061224,3.4,W,D*2C
$GNVTG,124.186,T,127.624,M,0.34428,N,0.63761,K,D*38
$GNHDT,323.6154,T*1F
$GPGGA,093955.00,2234.24669383,N,11431.97342767,E,4,22,0.7,-3.9330,M,-1.3441,M,01,0000*5E
$GPRMC,093955.00,A,2234.24669383,N,11431.97342767,E,0.344,124.2,061224,3.4,W,D*28
$GNVTG,146.255,T,149.694,M,0.36340,N,0.67302,K,D*3C
$GNHDT,323.7598,T*1A
$GPGGA,093955.20,2234.24667699,N,11431.97343979,E,4,21,0.8,-3.9114,M,-1.3441,M,01,0000*54
$GPRMC,093955.20,A,2234.24667699,N,11431.97343979,E,0.363,146.3,061224,3.4,W,D*2A
$GNVTG,128.672,T,132.111,M,0.22872,N,0.42358,K,D*34
$GNHDT,323.1256,T*19
$GPGGA,093955.40,2234.24666902,N,11431.97345050,E,4,21,0.8,-3.8747,M,-1.3441,M,01,0000*5B
$GPRMC,093955.40,A,2234.24666902,N,11431.97345050,E,0.229,128.7,061224,3.4,W,D*27
$GNVTG,75.120,T,78.559,M,0.02021,N,0.03742,K,D*3C
$GNHDT,323.3202,T*1A
$GPGGA,093955.60,2234.24666931,N,11431.97345168,E,4,21,0.8,-3.8477,M,-1.3441,M,01,0000*53
$GPRMC,093955.60,A,2234.24666931,N,11431.97345168,E,0.020,75.1,061224,3.4,W,D*1B
$GNVTG,143.493,T,146.931,M,0.42726,N,0.79129,K,D*39
$GNHDT,322.8320,T*11
$GPGGA,093955.80,2234.24665016,N,11431.97346693,E,4,21,0.8,-3.8408,M,-1.3441,M,01,0000*5A
$GPRMC,093955.80,A,2234.24665016,N,11431.97346693,E,0.427,143.5,061224,3.4,W,D*29
$GNVTG,113.672,T,117.110,M,0.28571,N,0.52914,K,D*3D
$GNHDT,322.4910,T*14
$GPGGA,093956.00,2234.24664377,N,11431.97348264,E,4,21,0.7,-3.8556,M,-1.3441,M,02,0000*50
$GPRMC,093956.00,A,2234.24664377,N,11431.97348264,E,0.286,113.7,061224,3.4,W,D*2F
$GNVTG,119.223,T,122.662,M,0.45289,N,0.83876,K,D*31
$GNHDT,322.3746,T*1E
$GPGGA,093956.20,2234.24663144,N,11431.97350637,E,4,21,0.7,-3.9056,M,-1.3441,M,02,0000*58
$GPRMC,093956.20,A,2234.24663144,N,11431.97350637,E,0.453,119.2,061224,3.4,W,D*22
$GNVTG,121.483,T,124.921,M,0.35736,N,0.66183,K,D*36
$GNHDT,322.1101,T*19
$GPGGA,093956.40,2234.24662104,N,11431.97352466,E,4,20,0.8,-3.9581,M,-1.3441,M,02,0000*5E
$GPRMC,093956.40,A,2234.24662104,N,11431.97352466,E,0.357,121.5,061224,3.4,W,D*2A
$GNVTG,125.730,T,129.169,M,0.40467,N,0.74946,K,D*37
$GNHDT,322.0845,T*11
$GPGGA,093956.60,2234.24660787,N,11431.97354438,E,4,20,0.8,-3.9696,M,-1.3441,M,01,0000*58
$GPRMC,093956.60,A,2234.24660787,N,11431.97354438,E,0.405,125.7,061224,3.4,W,D*2C
$GNVTG,126.142,T,129.581,M,0.37633,N,0.69696,K,D*38
$GNHDT,321.8359,T*1C
$GPGGA,093956.80,2234.24659549,N,11431.97356262,E,4,20,0.8,-3.9350,M,-1.3441,M,00,0000*59
$GPRMC,093956.80,A,2234.24659549,N,11431.97356262,E,0.376,126.1,061224,3.4,W,D*25
$GNVTG,154.825,T,158.264,M,0.33352,N,0.61768,K,D*31
$GNHDT,322.0086,T*16
$GPGGA,093957.00,2234.24657866,N,11431.97357114,E,4,20,0.8,-3.8989,M,-1.3441,M,01,0000*53
$GPRMC,093957.00,A,2234.24657866,N,11431.97357114,E,0.334,154.8,061224,3.4,W,D*2B
$GNVTG,151.298,T,154.737,M,0.19309,N,0.35760,K,D*38
$GNHDT,321.7223,T*1F
$GPGGA,093957.20,2234.24656922,N,11431.97357670,E,4,19,0.8,-3.8782,M,-1.3441,M,01,0000*5B
$GPRMC,093957.20,A,2234.24656922,N,11431.97357670,E,0.193,151.3,061224,3.4,W,D*2D
$GNVTG,93.498,T,96.937,M,0.25338,N,0.46926,K,D*35
$GNHDT,321.0177,T*1A
$GPGGA,093957.40,2234.24656836,N,11431.97359189,E,4,18,0.8,-3.8497,M,-1.3441,M,01,0000*50
$GPRMC,093957.40,A,2234.24656836,N,11431.97359189,E,0.253,93.5,061224,3.4,W,D*16
$GNVTG,111.119,T,114.558,M,0.37940,N,0.70265,K,D*33
$GNHDT,320.5371,T*1A
$GPGGA,093957.60,2234.24656074,N,11431.97361313,E,4,18,0.8,-3.8521,M,-1.3441,M,00,0000*5B
$GPRMC,093957.60,A,2234.24656074,N,11431.97361313,E,0.379,111.1,061224,3.4,W,D*26
$GNVTG,129.417,T,132.855,M,0.54188,N,1.00356,K,D*39
$GNHDT,320.2956,T*12
$GPGGA,093957.80,2234.24654156,N,11431.97363826,E,4,18,0.8,-3.9055,M,-1.3441,M,00,0000*5E
$GPRMC,093957.80,A,2234.24654156,N,11431.97363826,E,0.542,129.4,061224,3.4,W,D*24
$GNVTG,133.465,T,136.903,M,0.48786,N,0.90351,K,D*3B
$GNHDT,320.3789,T*1F
$GPGGA,093958.00,2234.24652285,N,11431.97365951,E,4,18,0.8,-3.9294,M,-1.3441,M,01,0000*5B
$GPRMC,093958.00,A,2234.24652285,N,11431.97365951,E,0.488,133.5,061224,3.4,W,D*22
$GNVTG,115.521,T,118.959,M,0.84654,N,1.56780,K,D*30
$GNHDT,320.2828,T*1A
$GPGGA,093958.20,2234.24650252,N,11431.97370537,E,4,18,0.8,-3.9196,M,-1.3441,M,01,0000*58
$GPRMC,093958.20,A,2234.24650252,N,11431.97370537,E,0.847,115.5,061224,3.4,W,D*2B
$GNVTG,124.737,T,128.176,M,0.35828,N,0.66354,K,D*31
$GNHDT,320.4069,T*11
$GPGGA,093958.40,2234.24649114,N,11431.97372304,E,4,19,0.8,-3.8882,M,-1.3441,M,01,0000*5F
$GPRMC,093958.40,A,2234.24649114,N,11431.97372304,E,0.358,124.7,061224,3.4,W,D*25
$GNVTG,136.810,T,140.248,M,0.27904,N,0.51677,K,D*34
$GNHDT,320.7282,T*15
$GPGGA,093958.60,2234.24647980,N,11431.97373451,E,4,19,0.8,-3.8646,M,-1.3441,M,01,0000*56
$GPRMC,093958.60,A,2234.24647980,N,11431.97373451,E,0.279,136.8,061224,3.4,W,D*24
$GNVTG,135.328,T,138.766,M,0.31237,N,0.57850,K,D*30
$GNHDT,320.2072,T*1D
$GPGGA,093958.80,2234.24646741,N,11431.97374769,E,4,19,0.8,-3.8054,M,-1.3441,M,00,0000*51
$GPRMC,093958.80,A,2234.24646741,N,11431.97374769,E,0.312,135.3,061224,3.4,W,D*23
$GNVTG,139.236,T,142.675,M,0.32534,N,0.60254,K,D*31
$GNHDT,319.9377,T*1A
$GPGGA,093959.00,2234.24645368,N,11431.97376044,E,4,19,0.8,-3.7675,M,-1.3441,M,01,0000*55
$GPRMC,093959.00,A,2234.24645368,N,11431.97376044,E,0.325,139.2,061224,3.4,W,D*25
$GNVTG,148.201,T,151.639,M,0.22198,N,0.41111,K,D*3B
$GNHDT,319.9954,T*11
$GPGGA,093959.20,2234.24644316,N,11431.97376746,E,4,18,0.8,-3.7284,M,-1.3440,M,01,0000*50
$GPRMC,093959.20,A,2234.24644316,N,11431.97376746,E,0.222,148.2,061224,3.4,W,D*2A
$GNVTG,161.189,T,164.628,M,0.40023,N,0.74122,K,D*36
$GNHDT,319.7968,T*10
$GPGGA,093959.40,2234.24642204,N,11431.97377521,E,4,18,0.8,-3.7581,M,-1.3440,M,01,0000*52
$GPRMC,093959.40,A,2234.24642204,N,11431.97377521,E,0.400,161.2,061224,3.4,W,D*27
$GNVTG,158.024,T,161.463,M,0.33999,N,0.62966,K,D*31
$GNHDT,319.6898,T*1F
$GPGGA,093959.60,2234.24640446,N,11431.97378285,E,4,18,0.8,-3.7848,M,-1.3440,M,01,0000*5C
$GPRMC,093959.60,A,2234.24640446,N,11431.97378285,E,0.340,158.0,061224,3.4,W,D*2A
$GNVTG,148.438,T,151.876,M,0.28781,N,0.53302,K,D*35
$GNHDT,318.7988,T*1F
$GPGGA,093959.80,2234.24639079,N,11431.97379189,E,4,19,0.8,-3.7936,M,-1.3440,M,00,0000*52
$GPRMC,093959.80,A,2234.24639079,N,11431.97379189,E,0.288,148.4,061224,3.4,W,D*2C
$GNVTG,170.387,T,173.825,M,0.32951,N,0.61026,K,D*37
$GNHDT,318.5595,T*1D
$GPGGA,094000.00,2234.24637268,N,11431.97379519,E,4,19,0.8,-3.7990,M,-1.3440,M,01,0000*54
$GPRMC,094000.00,A,2234.24637268,N,11431.97379519,E,0.330,170.4,061224,3.4,W,D*2E
$GNVTG,180.679,T,184.117,M,0.27543,N,0.51009,K,D*39
$GNHDT,318.1269,T*1D
$GPGGA,094000.20,2234.24635733,N,11431.97379500,E,4,20,0.8,-3.7764,M,-1.3440,M,01,0000*58
$GPRMC,094000.20,A,2234.24635733,N,11431.97379500,E,0.275,180.7,061224,3.4,W,D*21
$GNVTG,160.705,T,164.143,M,0.40463,N,0.74937,K,D*33
$GNHDT,318.6132,T*17
$GPGGA,094000.40,2234.24633604,N,11431.97380302,E,4,20,0.8,-3.7710,M,-1.3440,M,01,0000*5C
$GPRMC,094000.40,A,2234.24633604,N,11431.97380302,E,0.405,160.7,061224,3.4,W,D*29
$GNVTG,161.464,T,164.902,M,0.33824,N,0.62642,K,D*3A
$GNHDT,318.8393,T*10
$GPGGA,094000.60,2234.24631816,N,11431.97380948,E,4,19,0.8,-3.7633,M,-1.3440,M,00,0000*5E
$GPRMC,094000.60,A,2234.24631816,N,11431.97380948,E,0.338,161.5,061224,3.4,W,D*2A
$GNVTG,158.826,T,162.264,M,0.47558,N,0.88077,K,D*36
$GNHDT,318.9242,T*1C
$GPGGA,094000.80,2234.24629344,N,11431.97381979,E,4,20,0.8,-3.7781,M,-1.3440,M,00,0000*54
$GPRMC,094000.80,A,2234.24629344,N,11431.97381979,E,0.476,158.8,061224,3.4,W,D*28
$GNVTG,135.465,T,138.904,M,0.28750,N,0.53245,K,D*32
$GNHDT,319.2230,T*13
$GPGGA,094001.00,2234.24628201,N,11431.97383189,E,4,20,0.8,-3.7689,M,-1.3440,M,01,0000*51
$GPRMC,094001.00,A,2234.24628201,N,11431.97383189,E,0.288,135.5,061224,3.4,W,D*24
$GNVTG,150.052,T,153.490,M,0.34450,N,0.63801,K,D*3B
$GNHDT,319.4689,T*13
$GPGGA,094001.20,2234.24626537,N,11431.97384221,E,4,20,0.8,-3.7916,M,-1.3440,M,01,0000*50
$GPRMC,094001.20,A,2234.24626537,N,11431.97384221,E,0.344,150.1,061224,3.4,W,D*2A
$GNVTG,157.240,T,160.679,M,0.30961,N,0.57340,K,D*3A
$GNHDT,318.4744,T*12
$GPGGA,094001.40,2234.24624946,N,11431.97384940,E,4,20,0.8,-3.7872,M,-1.3440,M,01,0000*51
$GPRMC,094001.40,A,2234.24624946,N,11431.97384940,E,0.310,157.2,061224,3.4,W,D*2D
$GNVTG,193.340,T,196.778,M,0.24656,N,0.45663,K,D*33
$GNHDT,318.1907,T*1E
$GPGGA,094001.60,2234.24623608,N,11431.97384599,E,4,20,0.8,-3.7832,M,-1.3440,M,01,0000*5D
$GPRMC,094001.60,A,2234.24623608,N,11431.97384599,E,0.247,193.3,061224,3.4,W,D*2F
$GNVTG,181.684,T,185.122,M,0.33412,N,0.61879,K,D*31
$GNHDT,317.9222,T*15
$GPGGA,094001.80,2234.24621746,N,11431.97384540,E,4,20,0.8,-3.7896,M,-1.3440,M,00,0000*51
$GPRMC,094001.80,A,2234.24621746,N,11431.97384540,E,0.334,181.7,061224,3.4,W,D*2E
$GNVTG,155.668,T,159.106,M,0.45980,N,0.85155,K,D*37
$GNHDT,317.8894,T*13
$GPGGA,094002.00,2234.24619411,N,11431.97385677,E,4,20,0.8,-3.8343,M,-1.3440,M,01,0000*5B
$GPRMC,094002.00,A,2234.24619411,N,11431.97385677,E,0.460,155.7,061224,3.4,W,D*26
$GNVTG,145.656,T,149.094,M,0.34709,N,0.64281,K,D*3C
$GNHDT,318.1066,T*10
$GPGGA,094002.20,2234.24617813,N,11431.97386853,E,4,20,0.8,-3.8580,M,-1.3440,M,01,0000*5B
$GPRMC,094002.20,A,2234.24617813,N,11431.97386853,E,0.347,145.7,061224,3.4,W,D*2C
$GNVTG,131.638,T,135.076,M,0.56249,N,1.04173,K,D*3C
$GNHDT,318.3803,T*19
$GPGGA,094002.40,2234.24615730,N,11431.97389376,E,4,20,0.8,-3.8869,M,-1.3440,M,01,0000*58
$GPRMC,094002.40,A,2234.24615730,N,11431.97389376,E,0.562,131.6,061224,3.4,W,D*26
$GNVTG,129.107,T,132.545,M,0.53264,N,0.98645,K,D*30
$GNHDT,318.6419,T*1B
$GPGGA,094002.60,2234.24613857,N,11431.97391857,E,4,20,0.8,-3.9041,M,-1.3440,M,01,0000*50
$GPRMC,094002.60,A,2234.24613857,N,11431.97391857,E,0.533,129.1,061224,3.4,W,D*27
$GNVTG,126.720,T,130.159,M,0.58901,N,1.09085,K,D*37
$GNHDT,318.4943,T*1B
$GPGGA,094002.80,2234.24611893,N,11431.97394691,E,4,20,0.8,-3.9112,M,-1.3440,M,01,0000*52
$GPRMC,094002.80,A,2234.24611893,N,11431.97394691,E,0.589,126.7,061224,3.4,W,D*2A
$GNVTG,136.444,T,139.883,M,0.33895,N,0.62774,K,D*34
$GNHDT,318.9740,T*1B
$GPGGA,094003.00,2234.24610524,N,11431.97396093,E,4,20,0.8,-3.9099,M,-1.3440,M,02,0000*5C
$GPRMC,094003.00,A,2234.24610524,N,11431.97396093,E,0.339,136.4,061224,3.4,W,D*2A
$GNVTG,111.403,T,114.842,M,0.43463,N,0.80494,K,D*33
$GNHDT,318.1955,T*19
$GPGGA,094003.20,2234.24609640,N,11431.97398522,E,4,21,0.7,-3.8599,M,-1.3440,M,02,0000*5C
$GPRMC,094003.20,A,2234.24609640,N,11431.97398522,E,0.435,111.4,061224,3.4,W,D*2E
$GNVTG,142.680,T,146.118,M,0.49230,N,0.91173,K,D*3B
$GNHDT,318.5345,T*16
$GPGGA,094003.40,2234.24607457,N,11431.97400313,E,4,20,0.8,-3.8180,M,-1.3440,M,01,0000*53
$GPRMC,094003.40,A,2234.24607457,N,11431.97400313,E,0.492,142.7,061224,3.4,W,D*28
$GNVTG,138.408,T,141.847,M,0.47611,N,0.88176,K,D*34
$GNHDT,318.4572,T*15
$GPGGA,094003.60,2234.24605472,N,11431.97402211,E,4,20,0.8,-3.8213,M,-1.3440,M,00,0000*5D
$GPRMC,094003.60,A,2234.24605472,N,11431.97402211,E,0.476,138.4,061224,3.4,W,D*2A
$GNVTG,115.547,T,118.986,M,0.39888,N,0.73873,K,D*3E
$GNHDT,318.4643,T*14
$GPGGA,094003.80,2234.24604513,N,11431.97404371,E,4,20,0.8,-3.8265,M,-1.3440,M,00,0000*54
$GPRMC,094003.80,A,2234.24604513,N,11431.97404371,E,0.399,115.5,061224,3.4,W,D*2A
$GNVTG,137.820,T,141.258,M,0.50298,N,0.93151,K,D*35
$GNHDT,318.2126,T*16
$GPGGA,094004.00,2234.24602435,N,11431.97406398,E,4,20,0.8,-3.8586,M,-1.3440,M,01,0000*56
$GPRMC,094004.00,A,2234.24602435,N,11431.97406398,E,0.503,137.8,061224,3.4,W,D*2B
$GNVTG,136.420,T,139.859,M,0.51528,N,0.95431,K,D*34
$GNHDT,318.1018,T*19
$GPGGA,094004.20,2234.24600355,N,11431.97408530,E,4,20,0.8,-3.9103,M,-1.3440,M,01,0000*55
$GPRMC,094004.20,A,2234.24600355,N,11431.97408530,E,0.515,136.4,061224,3.4,W,D*2A
$GNVTG,138.049,T,141.488,M,0.38955,N,0.72145,K,D*38
$GNHDT,317.8929,T*14
$GPGGA,094004.40,2234.24598739,N,11431.97410093,E,4,22,0.7,-3.9248,M,-1.3440,M,01,0000*5B
$GPRMC,094004.40,A,2234.24598739,N,11431.97410093,E,0.390,138.0,061224,3.4,W,D*24
$GNVTG,130.386,T,133.825,M,0.38128,N,0.70613,K,D*3A
$GNHDT,317.8673,T*14
$GPGGA,094004.60,2234.24597362,N,11431.97411837,E,4,22,0.7,-3.9280,M,-1.3440,M,01,0000*5F
$GPRMC,094004.60,A,2234.24597362,N,11431.97411837,E,0.381,130.4,061224,3.4,W,D*28
$GNVTG,132.186,T,135.625,M,0.41881,N,0.77564,K,D*32
$GNHDT,317.6184,T*15
$GPGGA,094004.80,2234.24595794,N,11431.97413700,E,4,22,0.7,-3.9256,M,-1.3440,M,00,0000*5D
$GPRMC,094004.80,A,2234.24595794,N,11431.97413700,E,0.419,132.2,061224,3.4,W,D*22
$GNVTG,134.673,T,138.111,M,0.50424,N,0.93385,K,D*34
$GNHDT,318.5286,T*18
$GPGGA,094005.00,2234.24593818,N,11431.97415852,E,4,23,0.7,-3.8803,M,-1.3440,M,01,0000*5C
$GPRMC,094005.00,A,2234.24593818,N,11431.97415852,E,0.504,134.7,061224,3.4,W,D*26
$GNVTG,140.060,T,143.499,M,0.64441,N,1.19345,K,D*31
$GNHDT,318.9743,T*18
$GPGGA,094005.20,2234.24591064,N,11431.97418335,E,4,22,0.7,-3.8430,M,-1.3440,M,01,0000*55
$GPRMC,094005.20,A,2234.24591064,N,11431.97418335,E,0.644,140.1,061224,3.4,W,D*20
$GNVTG,134.329,T,137.768,M,0.49970,N,0.92545,K,D*36
$GNHDT,318.5389,T*16
$GPGGA,094005.40,2234.24589117,N,11431.97420481,E,4,21,0.8,-3.8104,M,-1.3440,M,01,0000*52
$GPRMC,094005.40,A,2234.24589117,N,11431.97420481,E,0.500,134.3,061224,3.4,W,D*2B
$GNVTG,135.953,T,139.392,M,0.42492,N,0.78694,K,D*3E
$GNHDT,318.3113,T*11
$GPGGA,094005.60,2234.24587414,N,11431.97422254,E,4,21,0.8,-3.7574,M,-1.3440,M,01,0000*58
$GPRMC,094005.60,A,2234.24587414,N,11431.97422254,E,0.425,136.0,061224,3.4,W,D*2A
$GNVTG,147.319,T,150.757,M,0.14951,N,0.27689,K,D*3A
$GNHDT,317.8893,T*14
$GPGGA,094005.80,2234.24586713,N,11431.97422739,E,4,21,0.8,-3.7490,M,-1.3440,M,00,0000*57
$GPRMC,094005.80,A,2234.24586713,N,11431.97422739,E,0.150,147.3,061224,3.4,W,D*2D
$GNVTG,165.894,T,169.333,M,0.24085,N,0.44605,K,D*3A
$GNHDT,317.6343,T*1C
$GPGGA,094006.00,2234.24585411,N,11431.97423091,E,4,21,0.8,-3.7701,M,-1.3440,M,01,0000*50
$GPRMC,094006.00,A,2234.24585411,N,11431.97423091,E,0.241,165.9,061224,3.4,W,D*29
$GNVTG,164.716,T,168.154,M,0.42137,N,0.78037,K,D*3C
$GNHDT,318.0990,T*11
$GPGGA,094006.20,2234.24583145,N,11431.97423758,E,4,22,0.7,-3.7965,M,-1.3440,M,01,0000*52
$GPRMC,094006.20,A,2234.24583145,N,11431.97423758,E,0.421,164.7,061224,3.4,W,D*24
$GNVTG,148.421,T,151.859,M,0.62873,N,1.16440,K,D*3D
$GNHDT,317.9016,T*10
$GPGGA,094006.40,2234.24580159,N,11431.97425734,E,4,20,0.8,-3.8360,M,-1.3440,M,01,0000*5B
$GPRMC,094006.40,A,2234.24580159,N,11431.97425734,E,0.629,148.4,061224,3.4,W,D*27
$GNVTG,146.482,T,149.920,M,0.62771,N,1.16252,K,D*34
$GNHDT,318.3082,T*18
$GPGGA,094006.60,2234.24577242,N,11431.97427815,E,4,20,0.8,-3.8716,M,-1.3440,M,01,0000*53
$GPRMC,094006.60,A,2234.24577242,N,11431.97427815,E,0.628,146.5,061224,3.4,W,D*24
$GNVTG,142.678,T,146.117,M,0.61760,N,1.14380,K,D*3B
$GNHDT,318.8964,T*12
$GPGGA,094006.80,2234.24574504,N,11431.97430063,E,4,20,0.8,-3.8735,M,-1.3440,M,00,0000*54
$GPRMC,094006.80,A,2234.24574504,N,11431.97430063,E,0.618,142.7,061224,3.4,W,D*26
$GNVTG,151.725,T,155.163,M,0.35814,N,0.66327,K,D*35
$GNHDT,318.7863,T*1B
$GPGGA,094007.00,2234.24572745,N,11431.97431081,E,4,20,0.8,-3.8676,M,-1.3440,M,01,0000*56
$GPRMC,094007.00,A,2234.24572745,N,11431.97431081,E,0.358,151.7,061224,3.4,W,D*20
$GNVTG,149.768,T,153.206,M,0.29757,N,0.55110,K,D*30
$GNHDT,319.0956,T*1A
$GPGGA,094007.20,2234.24571312,N,11431.97431980,E,4,20,0.8,-3.8644,M,-1.3440,M,01,0000*58
$GPRMC,094007.20,A,2234.24571312,N,11431.97431980,E,0.298,149.8,061224,3.4,W,D*24
$GNVTG,133.478,T,136.917,M,0.25642,N,0.47489,K,D*38
$GNHDT,318.6046,T*15
$GPGGA,094007.40,2234.24570328,N,11431.97433097,E,4,21,0.8,-3.8522,M,-1.3440,M,01,0000*59
$GPRMC,094007.40,A,2234.24570328,N,11431.97433097,E,0.256,133.5,061224,3.4,W,D*25
$GNVTG,136.540,T,139.978,M,0.46094,N,0.85367,K,D*30
$GNHDT,318.5585,T*1C
$GPGGA,094007.60,2234.24568463,N,11431.97435000,E,4,20,0.8,-3.8413,M,-1.3440,M,01,0000*50
$GPRMC,094007.60,A,2234.24568463,N,11431.97435000,E,0.461,136.5,061224,3.4,W,D*29
$GNVTG,126.814,T,130.252,M,0.40211,N,0.74471,K,D*30
$GNHDT,318.6686,T*1F
$GPGGA,094007.80,2234.24567120,N,11431.97436933,E,4,20,0.8,-3.8468,M,-1.3440,M,00,0000*54
$GPRMC,094007.80,A,2234.24567120,N,11431.97436933,E,0.402,126.8,061224,3.4,W,D*29
$GNVTG,128.917,T,132.356,M,0.61576,N,1.14039,K,D*31
$GNHDT,318.9562,T*19
$GPGGA,094008.00,2234.24564964,N,11431.97439809,E,4,20,0.8,-3.8599,M,-1.3440,M,01,0000*51
$GPRMC,094008.00,A,2234.24564964,N,11431.97439809,E,0.616,128.9,061224,3.4,W,D*2A
$GNVTG,137.423,T,140.861,M,0.43206,N,0.80018,K,D*30
$GNHDT,319.1010,T*10
$GPGGA,094008.20,2234.24563190,N,11431.97441563,E,4,20,0.8,-3.8485,M,-1.3440,M,01,0000*55
$GPRMC,094008.20,A,2234.24563190,N,11431.97441563,E,0.432,137.4,061224,3.4,W,D*25
$GNVTG,135.652,T,139.090,M,0.40041,N,0.74156,K,D*3C
$GNHDT,319.2030,T*11
$GPGGA,094008.40,2234.24561594,N,11431.97443243,E,4,20,0.8,-3.8365,M,-1.3440,M,01,0000*5F
$GPRMC,094008.40,A,2234.24561594,N,11431.97443243,E,0.400,135.7,061224,3.4,W,D*26
$GNVTG,141.260,T,144.698,M,0.29997,N,0.55555,K,D*37
$GNHDT,318.9363,T*1E
$GPGGA,094008.60,2234.24560289,N,11431.97444370,E,4,20,0.8,-3.8154,M,-1.3440,M,01,0000*51
$GPRMC,094008.60,A,2234.24560289,N,11431.97444370,E,0.300,141.3,061224,3.4,W,D*28
$GNVTG,130.738,T,134.176,M,0.29015,N,0.53735,K,D*38
$GNHDT,319.0844,T*18
$GPGGA,094008.80,2234.24559234,N,11431.97445690,E,4,20,0.8,-3.7973,M,-1.3440,M,00,0000*5A
$GPRMC,094008.80,A,2234.24559234,N,11431.97445690,E,0.290,130.7,061224,3.4,W,D*2A
$GNVTG,150.062,T,153.500,M,0.51328,N,0.95059,K,D*37
$GNHDT,319.5266,T*17
$GPGGA,094009.00,2234.24556754,N,11431.97447227,E,4,20,0.8,-3.8092,M,-1.3440,M,01,0000*5D
$GPRMC,094009.00,A,2234.24556754,N,11431.97447227,E,0.513,150.1,061224,3.4,W,D*29
$GNVTG,142.729,T,146.167,M,0.55483,N,1.02755,K,D*3B
$GNHDT,319.9635,T*19
$GPGGA,094009.20,2234.24554293,N,11431.97449244,E,4,21,0.8,-3.8258,M,-1.3440,M,01,0000*5D
$GPRMC,094009.20,A,2234.24554293,N,11431.97449244,E,0.555,142.7,061224,3.4,W,D*2B
$GNVTG,132.686,T,136.125,M,0.60690,N,1.12399,K,D*3A
$GNHDT,319.7471,T*15
$GPGGA,094009.40,2234.24551999,N,11431.97451922,E,4,21,0.8,-3.8280,M,-1.3440,M,01,0000*58
$GPRMC,094009.40,A,2234.24551999,N,11431.97451922,E,0.607,132.7,061224,3.4,W,D*28
$GNVTG,150.786,T,154.225,M,0.52841,N,0.97862,K,D*38
$GNHDT,319.9642,T*19
$GPGGA,094009.60,2234.24549428,N,11431.97453470,E,4,21,0.8,-3.8602,M,-1.3440,M,01,0000*52
$GPRMC,094009.60,A,2234.24549428,N,11431.97453470,E,0.528,150.8,061224,3.4,W,D*29
$GNVTG,142.902,T,146.340,M,0.50283,N,0.93124,K,D*31
$GNHDT,319.5444,T*11
$GPGGA,094009.80,2234.24547192,N,11431.97455291,E,4,22,0.7,-3.8722,M,-1.3440,M,00,0000*57
$GPRMC,094009.80,A,2234.24547192,N,11431.97455291,E,0.503,142.9,061224,3.4,W,D*29
$GNVTG,143.646,T,147.084,M,0.44214,N,0.81885,K,D*3F
$GNHDT,319.6198,T*16
$GPGGA,094010.00,2234.24545207,N,11431.97456864,E,4,21,0.8,-3.8687,M,-1.3440,M,01,0000*5A
$GPRMC,094010.00,A,2234.24545207,N,11431.97456864,E,0.442,143.6,061224,3.4,W,D*2D
$GNVTG,145.150,T,148.589,M,0.41539,N,0.76929,K,D*3C
$GNHDT,319.9084,T*15
$GPGGA,094010.20,2234.24543307,N,11431.97458289,E,4,20,0.8,-3.8528,M,-1.3440,M,01,0000*5F
$GPRMC,094010.20,A,2234.24543307,N,11431.97458289,E,0.415,145.2,061224,3.4,W,D*2F
$GNVTG,157.202,T,160.640,M,0.46715,N,0.86517,K,D*32
$GNHDT,320.1505,T*1B
$GPGGA,094010.40,2234.24540906,N,11431.97459376,E,4,23,0.7,-3.8149,M,-1.3440,M,01,0000*5E
$GPRMC,094010.40,A,2234.24540906,N,11431.97459376,E,0.467,157.2,061224,3.4,W,D*27
$GNVTG,150.384,T,153.823,M,0.35843,N,0.66381,K,D*3E
$GNHDT,320.0534,T*18
$GPGGA,094010.60,2234.24539169,N,11431.97460439,E,4,22,0.7,-3.7993,M,-1.3440,M,01,0000*54
$GPRMC,094010.60,A,2234.24539169,N,11431.97460439,E,0.358,150.4,061224,3.4,W,D*26
$GNVTG,133.147,T,136.585,M,0.40341,N,0.74712,K,D*32
$GNHDT,319.9854,T*10
$GPGGA,094010.80,2234.24537631,N,11431.97462206,E,4,22,0.7,-3.7850,M,-1.3440,M,00,0000*59
$GPRMC,094010.80,A,2234.24537631,N,11431.97462206,E,0.403,133.1,061224,3.4,W,D*2D
$GNVTG,138.108,T,141.546,M,0.59072,N,1.09401,K,D*3C
$GNHDT,319.9951,T*14
$GPGGA,094011.00,2234.24535179,N,11431.97464573,E,4,22,0.7,-3.8316,M,-1.3440,M,01,0000*5D
$GPRMC,094011.00,A,2234.24535179,N,11431.97464573,E,0.591,138.1,061224,3.4,W,D*2F
$GNVTG,141.887,T,145.326,M,0.46473,N,0.86068,K,D*3E
$GNHDT,320.0802,T*10
$GPGGA,094011.20,2234.24533141,N,11431.97466295,E,4,22,0.7,-3.8528,M,-1.3440,M,01,0000*54
$GPRMC,094011.20,A,2234.24533141,N,11431.97466295,E,0.465,141.9,061224,3.4,W,D*21
$GNVTG,149.101,T,152.540,M,0.43862,N,0.81232,K,D*32
$GNHDT,320.7897,T*1B
$GPGGA,094011.40,2234.24531043,N,11431.97467647,E,4,22,0.7,-3.8830,M,-1.3440,M,01,0000*5D
$GPRMC,094011.40,A,2234.24531043,N,11431.97467647,E,0.439,149.1,061224,3.4,W,D*25
$GNVTG,151.209,T,154.647,M,0.57106,N,1.05761,K,D*32
$GNHDT,320.7995,T*18
$GPGGA,094011.60,2234.24528253,N,11431.97469298,E,4,23,0.7,-3.8722,M,-1.3440,M,01,0000*51
$GPRMC,094011.60,A,2234.24528253,N,11431.97469298,E,0.571,151.2,061224,3.4,W,D*23
$GNVTG,167.071,T,170.509,M,0.37867,N,0.70129,K,D*34
$GNHDT,321.0570,T*19
$GPGGA,094011.80,2234.24526195,N,11431.97469807,E,4,23,0.7,-3.8377,M,-1.3440,M,01,0000*50
$GPRMC,094011.80,A,2234.24526195,N,11431.97469807,E,0.379,167.1,061224,3.4,W,D*2E
$GNVTG,167.201,T,170.639,M,0.41443,N,0.76753,K,D*37
$GNHDT,321.0779,T*12
$GPGGA,094012.00,2234.24523943,N,11431.97470358,E,4,23,0.7,-3.8117,M,-1.3440,M,02,0000*53
$GPRMC,094012.00,A,2234.24523943,N,11431.97470358,E,0.414,167.2,061224,3.4,W,D*25
$GNVTG,139.845,T,143.283,M,0.25147,N,0.46573,K,D*33
$GNHDT,320.3658,T*12
$GPGGA,094012.20,2234.24522871,N,11431.97471331,E,4,22,0.7,-3.7948,M,-1.3440,M,02,0000*52
$GPRMC,094012.20,A,2234.24522871,N,11431.97471331,E,0.251,139.8,061224,3.4,W,D*2E
$GNVTG,151.964,T,155.402,M,0.46479,N,0.86079,K,D*39
$GNHDT,320.6373,T*1B
$GPGGA,094012.40,2234.24520584,N,11431.97472642,E,4,21,0.7,-3.8014,M,-1.3440,M,02,0000*5F
$GPRMC,094012.40,A,2234.24520584,N,11431.97472642,E,0.465,152.0,061224,3.4,W,D*2B
$GNVTG,146.142,T,149.580,M,0.42874,N,0.79402,K,D*38
$GNHDT,320.7620,T*19
$GPGGA,094012.60,2234.24518599,N,11431.97474076,E,4,21,0.7,-3.8149,M,-1.3440,M,01,0000*57
$GPRMC,094012.60,A,2234.24518599,N,11431.97474076,E,0.429,146.1,061224,3.4,W,D*25
$GNVTG,137.559,T,140.997,M,0.42320,N,0.78376,K,D*3C
$GNHDT,320.6248,T*12
$GPGGA,094012.80,2234.24516858,N,11431.97475791,E,4,22,0.7,-3.8308,M,-1.3440,M,00,0000*5D
$GPRMC,094012.80,A,2234.24516858,N,11431.97475791,E,0.423,137.6,061224,3.4,W,D*21
$GNVTG,146.089,T,149.527,M,0.55734,N,1.03220,K,D*34
$GNHDT,320.8867,T*1B
$GPGGA,094013.00,2234.24514280,N,11431.97477657,E,4,22,0.7,-3.8654,M,-1.3440,M,01,0000*5D
$GPRMC,094013.00,A,2234.24514280,N,11431.97477657,E,0.557,146.1,061224,3.4,W,D*2F
$GNVTG,151.146,T,154.584,M,0.48570,N,0.89951,K,D*35
$GNHDT,321.2557,T*1E
$GPGGA,094013.20,2234.24511908,N,11431.97479064,E,4,22,0.7,-3.8966,M,-1.3440,M,01,0000*57
$GPRMC,094013.20,A,2234.24511908,N,11431.97479064,E,0.486,151.1,061224,3.4,W,D*20
$GNVTG,148.259,T,151.697,M,0.46034,N,0.85256,K,D*3F
$GNHDT,320.9886,T*15
$GPGGA,094013.40,2234.24509726,N,11431.97480518,E,4,21,0.7,-3.9093,M,-1.3440,M,01,0000*53
$GPRMC,094013.40,A,2234.24509726,N,11431.97480518,E,0.460,148.3,061224,3.4,W,D*27
$GNVTG,145.392,T,148.831,M,0.44708,N,0.82799,K,D*35
$GNHDT,321.2379,T*14
$GPGGA,094013.60,2234.24507674,N,11431.97482042,E,4,21,0.7,-3.8858,M,-1.3440,M,01,0000*5F
$GPRMC,094013.60,A,2234.24507674,N,11431.97482042,E,0.447,145.4,061224,3.4,W,D*2A
$GNVTG,137.398,T,140.837,M,0.57671,N,1.06807,K,D*3C
$GNHDT,321.6141,T*19
$GPGGA,094013.80,2234.24505308,N,11431.97484385,E,4,21,0.7,-3.8844,M,-1.3440,M,00,0000*5F
$GPRMC,094013.80,A,2234.24505308,N,11431.97484385,E,0.577,137.4,061224,3.4,W,D*21
$GNVTG,129.503,T,132.942,M,0.63110,N,1.16879,K,D*3E
$GNHDT,321.9844,T*1A
$GPGGA,094014.00,2234.24503070,N,11431.97487308,E,4,21,0.7,-3.8508,M,-1.3440,M,01,0000*58
$GPRMC,094014.00,A,2234.24503070,N,11431.97487308,E,0.631,129.5,061224,3.4,W,D*2D
$GNVTG,132.272,T,135.711,M,0.68370,N,1.26621,K,D*35
$GNHDT,322.2839,T*18
$GPGGA,094014.20,2234.24500506,N,11431.97490345,E,4,21,0.7,-3.8636,M,-1.3440,M,01,0000*5C
$GPRMC,094014.20,A,2234.24500506,N,11431.97490345,E,0.684,132.3,061224,3.4,W,D*25
$GNVTG,134.925,T,138.363,M,0.50744,N,0.93977,K,D*3D
$GNHDT,322.8588,T*15
$GPGGA,094014.40,2234.24498509,N,11431.97492502,E,4,21,0.7,-3.8803,M,-1.3440,M,01,0000*5A
$GPRMC,094014.40,A,2234.24498509,N,11431.97492502,E,0.507,134.9,061224,3.4,W,D*2F
$GNVTG,120.701,T,124.140,M,0.44740,N,0.82858,K,D*33
$GNHDT,322.0776,T*1E
$GPGGA,094014.60,2234.24497235,N,11431.97494811,E,4,22,0.7,-3.8671,M,-1.3440,M,01,0000*5E
$GPRMC,094014.60,A,2234.24497235,N,11431.97494811,E,0.447,120.7,061224,3.4,W,D*2D
$GNVTG,161.133,T,164.571,M,0.22658,N,0.41963,K,D*3D
$GNHDT,322.4569,T*16
$GPGGA,094014.80,2234.24496040,N,11431.97495251,E,4,22,0.7,-3.8708,M,-1.3440,M,00,0000*50
$GPRMC,094014.80,A,2234.24496040,N,11431.97495251,E,0.227,161.1,061224,3.4,W,D*2E
$GNVTG,144.972,T,148.411,M,0.41555,N,0.76961,K,D*33
$GNHDT,322.8501,T*14
$GPGGA,094015.00,2234.24494143,N,11431.97496682,E,4,22,0.7,-3.8762,M,-1.3440,M,01,0000*5D
$GPRMC,094015.00,A,2234.24494143,N,11431.97496682,E,0.416,145.0,061224,3.4,W,D*2D
$GNVTG,133.766,T,137.205,M,0.50340,N,0.93229,K,D*3D
$GNHDT,322.3511,T*1E
$GPGGA,094015.20,2234.24492202,N,11431.97498864,E,4,21,0.7,-3.8589,M,-1.3440,M,01,0000*53
$GPRMC,094015.20,A,2234.24492202,N,11431.97498864,E,0.503,133.8,061224,3.4,W,D*2B
$GNVTG,148.900,T,152.339,M,0.66258,N,1.22711,K,D*3A
$GNHDT,323.5193,T*17
$GPGGA,094015.40,2234.24489039,N,11431.97500919,E,4,21,0.7,-3.8652,M,-1.3440,M,01,0000*5B
$GPRMC,094015.40,A,2234.24489039,N,11431.97500919,E,0.663,148.9,061224,3.4,W,D*2E
$GNVTG,137.463,T,140.902,M,0.67679,N,1.25341,K,D*3B
$GNHDT,323.4169,T*13
$GPGGA,094015.60,2234.24486259,N,11431.97503665,E,4,21,0.7,-3.8506,M,-1.3439,M,01,0000*59
$GPRMC,094015.60,A,2234.24486259,N,11431.97503665,E,0.677,137.5,061224,3.4,W,D*21
$GNVTG,140.479,T,143.918,M,0.54067,N,1.00133,K,D*31
$GNHDT,323.5095,T*10
$GPGGA,094015.80,2234.24483934,N,11431.97505731,E,4,23,0.7,-3.8165,M,-1.3439,M,00,0000*56
$GPRMC,094015.80,A,2234.24483934,N,11431.97505731,E,0.541,140.5,061224,3.4,W,D*2A
$GNVTG,160.250,T,163.688,M,0.47209,N,0.87430,K,D*3A
$GNHDT,324.1453,T*1D
$GPGGA,094016.00,2234.24481457,N,11431.97506688,E,4,21,0.7,-3.8150,M,-1.3439,M,01,0000*52
$GPRMC,094016.00,A,2234.24481457,N,11431.97506688,E,0.472,160.2,061224,3.4,W,D*2F
$GNVTG,191.943,T,195.381,M,0.21660,N,0.40114,K,D*3B
$GNHDT,324.7955,T*10
$GPGGA,094016.20,2234.24480275,N,11431.97506419,E,4,21,0.7,-3.8172,M,-1.3439,M,01,0000*5D
$GPRMC,094016.20,A,2234.24480275,N,11431.97506419,E,0.217,191.9,061224,3.4,W,D*20
$GNVTG,124.495,T,127.933,M,0.29436,N,0.54515,K,D*30
$GNHDT,323.5812,T*17
$GPGGA,094016.40,2234.24479346,N,11431.97507875,E,4,21,0.7,-3.7774,M,-1.3439,M,01,0000*54
$GPRMC,094016.40,A,2234.24479346,N,11431.97507875,E,0.294,124.5,061224,3.4,W,D*2F
$GNVTG,167.072,T,170.510,M,0.39188,N,0.72576,K,D*35
$GNHDT,323.9104,T*15
$GPGGA,094016.60,2234.24477217,N,11431.97508402,E,4,21,0.7,-3.7901,M,-1.3439,M,01,0000*52
$GPRMC,094016.60,A,2234.24477217,N,11431.97508402,E,0.392,167.1,061224,3.4,W,D*21
$GNVTG,149.007,T,152.445,M,0.58973,N,1.09217,K,D*3C
$GNHDT,324.1582,T*10
$GPGGA,094016.80,2234.24474399,N,11431.97510225,E,4,21,0.7,-3.7880,M,-1.3439,M,00,0000*5B
$GPRMC,094016.80,A,2234.24474399,N,11431.97510225,E,0.590,149.0,061224,3.4,W,D*28
$GNVTG,152.154,T,155.592,M,0.66326,N,1.22835,K,D*39
$GNHDT,324.7818,T*18
$GPGGA,094017.00,2234.24471129,N,11431.97512084,E,4,20,0.8,-3.8054,M,-1.3439,M,01,0000*54
$GPRMC,094017.00,A,2234.24471129,N,11431.97512084,E,0.663,152.2,061224,3.4,W,D*21
$GNVTG,154.831,T,158.270,M,0.64609,N,1.19656,K,D*3A
$GNHDT,325.8641,T*14
$GPGGA,094017.20,2234.24467870,N,11431.97513734,E,4,20,0.8,-3.8255,M,-1.3439,M,01,0000*5A
$GPRMC,094017.20,A,2234.24467870,N,11431.97513734,E,0.646,154.8,061224,3.4,W,D*27
$GNVTG,143.041,T,146.479,M,0.55194,N,1.02219,K,D*37
$GNHDT,325.6323,T*1B
$GPGGA,094017.40,2234.24465411,N,11431.97515726,E,4,20,0.8,-3.8250,M,-1.3439,M,01,0000*55
$GPRMC,094017.40,A,2234.24465411,N,11431.97515726,E,0.552,143.0,061224,3.4,W,D*25
$GNVTG,144.104,T,147.543,M,0.43366,N,0.80313,K,D*31
$GNHDT,325.2074,T*1E
$GPGGA,094017.60,2234.24463453,N,11431.97517252,E,4,21,0.7,-3.8375,M,-1.3439,M,01,0000*5B
$GPRMC,094017.60,A,2234.24463453,N,11431.97517252,E,0.434,144.1,061224,3.4,W,D*24
$GNVTG,173.259,T,176.697,M,0.35090,N,0.64987,K,D*30
$GNHDT,326.1540,T*1C
$GPGGA,094017.80,2234.24461510,N,11431.97517499,E,4,21,0.7,-3.8577,M,-1.3439,M,00,0000*55
$GPRMC,094017.80,A,2234.24461510,N,11431.97517499,E,0.351,173.3,061224,3.4,W,D*2D
$GNVTG,158.872,T,162.310,M,0.24432,N,0.45248,K,D*32
$GNHDT,326.5504,T*18
$GPGGA,094018.00,2234.24460239,N,11431.97518028,E,4,21,0.7,-3.8448,M,-1.3439,M,01,0000*52
$GPRMC,094018.00,A,2234.24460239,N,11431.97518028,E,0.244,158.9,061224,3.4,W,D*20
$GNVTG,137.153,T,140.591,M,0.47431,N,0.87841,K,D*35
$GNHDT,326.5958,T*1D
$GPGGA,094018.20,2234.24458301,N,11431.97519964,E,4,21,0.7,-3.8429,M,-1.3439,M,01,0000*56
$GPRMC,094018.20,A,2234.24458301,N,11431.97519964,E,0.474,137.2,061224,3.4,W,D*24
$GNVTG,128.183,T,131.621,M,0.76892,N,1.42403,K,D*3D
$GNHDT,326.5331,T*18
$GPGGA,094018.40,2234.24455651,N,11431.97523592,E,4,21,0.7,-3.8457,M,-1.3439,M,01,0000*58
$GPRMC,094018.40,A,2234.24455651,N,11431.97523592,E,0.769,128.2,061224,3.4,W,D*22
$GNVTG,142.390,T,145.828,M,0.70914,N,1.31333,K,D*3C
$GNHDT,327.8001,T*14
$GPGGA,094018.60,2234.24452519,N,11431.97526190,E,4,21,0.7,-3.8793,M,-1.3439,M,01,0000*5A
$GPRMC,094018.60,A,2234.24452519,N,11431.97526190,E,0.709,142.4,061224,3.4,W,D*27
$GNVTG,124.515,T,127.953,M,0.75210,N,1.39289,K,D*3C
$GNHDT,327.3888,T*16
$GPGGA,094018.80,2234.24450144,N,11431.97529910,E,4,22,0.7,-3.9060,M,-1.3439,M,00,0000*5D
$GPRMC,094018.80,A,2234.24450144,N,11431.97529910,E,0.752,124.5,061224,3.4,W,D*27
$GNVTG,137.818,T,141.257,M,0.63751,N,1.18067,K,D*37
$GNHDT,328.1299,T*11
$GPGGA,094019.00,2234.24447510,N,11431.97532479,E,4,22,0.7,-3.8944,M,-1.3439,M,01,0000*50
$GPRMC,094019.00,A,2234.24447510,N,11431.97532479,E,0.638,137.8,061224,3.4,W,D*27
$GNVTG,136.426,T,139.865,M,0.40410,N,0.74838,K,D*3D
$GNHDT,327.3344,T*1D
$GPGGA,094019.20,2234.24445878,N,11431.97534151,E,4,22,0.7,-3.8647,M,-1.3439,M,01,0000*56
$GPRMC,094019.20,A,2234.24445878,N,11431.97534151,E,0.404,136.4,061224,3.4,W,D*2D
$GNVTG,152.726,T,156.164,M,0.33397,N,0.61852,K,D*39
$GNHDT,326.9047,T*16
$GPGGA,094019.40,2234.24444223,N,11431.97535070,E,4,22,0.7,-3.8307,M,-1.3439,M,01,0000*57
$GPRMC,094019.40,A,2234.24444223,N,11431.97535070,E,0.334,152.7,061224,3.4,W,D*28
$GNVTG,153.042,T,156.480,M,0.34968,N,0.64761,K,D*35
$GNHDT,326.2866,T*16
$GPGGA,094019.60,2234.24442486,N,11431.97536021,E,4,21,0.7,-3.8006,M,-1.3439,M,01,0000*5C
$GPRMC,094019.60,A,2234.24442486,N,11431.97536021,E,0.350,153.0,061224,3.4,W,D*26
$GNVTG,149.788,T,153.226,M,0.63643,N,1.17867,K,D*38
$GNHDT,326.0645,T*1B
$GPGGA,094019.80,2234.24439420,N,11431.97537944,E,4,21,0.7,-3.8115,M,-1.3439,M,00,0000*5B
$GPRMC,094019.80,A,2234.24439420,N,11431.97537944,E,0.636,149.8,061224,3.4,W,D*25
$GNVTG,153.649,T,157.087,M,0.94920,N,1.75792,K,D*31
$GNHDT,325.9814,T*1B
$GPGGA,094020.00,2234.24434678,N,11431.97540473,E,4,21,0.7,-3.8400,M,-1.3439,M,01,0000*52
$GPRMC,094020.00,A,2234.24434678,N,11431.97540473,E,0.949,153.6,061224,3.4,W,D*2E
$GNVTG,151.277,T,154.716,M,1.01495,N,1.87968,K,D*3E
$GNHDT,326.3798,T*19
$GPGGA,094020.20,2234.24429716,N,11431.97543401,E,4,21,0.7,-3.8712,M,-1.3439,M,01,0000*53
$GPRMC,094020.20,A,2234.24429716,N,11431.97543401,E,1.015,151.3,061224,3.4,W,D*29
$GNVTG,149.818,T,153.256,M,0.94738,N,1.75455,K,D*35
$GNHDT,325.8481,T*1A
$GPGGA,094020.40,2234.24425151,N,11431.97546260,E,4,21,0.7,-3.8859,M,-1.3439,M,01,0000*58
$GPRMC,094020.40,A,2234.24425151,N,11431.97546260,E,0.947,149.8,061224,3.4,W,D*2F
$GNVTG,166.465,T,169.904,M,0.97807,N,1.81139,K,D*3F
$GNHDT,326.8864,T*1E
$GPGGA,094020.60,2234.24419850,N,11431.97547634,E,4,23,0.7,-3.9123,M,-1.3439,M,01,0000*5E
$GPRMC,094020.60,A,2234.24419850,N,11431.97547634,E,0.978,166.5,061224,3.4,W,D*22
$GNVTG,173.564,T,177.002,M,0.61664,N,1.14203,K,D*3F
$GNHDT,326.7726,T*18
$GPGGA,094020.80,2234.24416434,N,11431.97548048,E,4,23,0.7,-3.9023,M,-1.3439,M,00,0000*53
$GPRMC,094020.80,A,2234.24416434,N,11431.97548048,E,0.617,173.6,061224,3.4,W,D*2E
$GNVTG,174.830,T,178.268,M,0.62921,N,1.16530,K,D*3D
$GNHDT,326.1934,T*13
$GPGGA,094021.00,2234.24412940,N,11431.97548389,E,4,23,0.7,-3.8615,M,-1.3439,M,01,0000*5D
$GPRMC,094021.00,A,2234.24412940,N,11431.97548389,E,0.629,174.8,061224,3.4,W,D*27
$GNVTG,176.573,T,180.011,M,0.73554,N,1.36223,K,D*37
$GNHDT,325.9271,T*12
$GPGGA,094021.20,2234.24408847,N,11431.97548653,E,4,23,0.7,-3.8319,M,-1.3439,M,01,0000*59
$GPRMC,094021.20,A,2234.24408847,N,11431.97548653,E,0.736,176.6,061224,3.4,W,D*29
$GNVTG,173.375,T,176.813,M,0.63498,N,1.17599,K,D*34
$GNHDT,325.2736,T*1F
$GPGGA,094021.40,2234.24405331,N,11431.97549093,E,4,23,0.7,-3.7863,M,-1.3439,M,01,0000*5A
$GPRMC,094021.40,A,2234.24405331,N,11431.97549093,E,0.635,173.4,061224,3.4,W,D*26
$GNVTG,187.910,T,191.348,M,0.60659,N,1.12340,K,D*31
$GNHDT,325.7649,T*13
$GPGGA,094021.60,2234.24401982,N,11431.97548591,E,4,23,0.7,-3.7826,M,-1.3439,M,01,0000*59
$GPRMC,094021.60,A,2234.24401982,N,11431.97548591,E,0.607,187.9,061224,3.4,W,D*23
$GNVTG,177.603,T,181.042,M,0.62731,N,1.16178,K,D*3B
$GNHDT,325.4161,T*1D
$GPGGA,094021.80,2234.24398488,N,11431.97548749,E,4,23,0.7,-3.7588,M,-1.3439,M,00,0000*58
$GPRMC,094021.80,A,2234.24398488,N,11431.97548749,E,0.627,177.6,061224,3.4,W,D*28
$GNVTG,179.237,T,182.675,M,0.70226,N,1.30059,K,D*31
$GNHDT,325.9054,T*17
$GPGGA,094022.00,2234.24394573,N,11431.97548805,E,4,23,0.7,-3.7889,M,-1.3439,M,01,0000*50
$GPRMC,094022.00,A,2234.24394573,N,11431.97548805,E,0.702,179.2,061224,3.4,W,D*21
$GNVTG,201.145,T,204.583,M,0.59100,N,1.09453,K,D*34
$GNHDT,325.7057,T*1A
$GPGGA,094022.20,2234.24391500,N,11431.97547525,E,4,23,0.7,-3.7819,M,-1.3439,M,01,0000*5A
$GPRMC,094022.20,A,2234.24391500,N,11431.97547525,E,0.591,201.1,061224,3.4,W,D*25
$GNVTG,191.562,T,195.001,M,0.54956,N,1.01778,K,D*3F
$GNHDT,326.3915,T*12
$GPGGA,094022.40,2234.24388499,N,11431.97546864,E,4,23,0.7,-3.7929,M,-1.3439,M,01,0000*5E
$GPRMC,094022.40,A,2234.24388499,N,11431.97546864,E,0.550,191.6,061224,3.4,W,D*23
$GNVTG,183.061,T,186.499,M,0.57897,N,1.07226,K,D*3A
$GNHDT,325.9477,T*12
$GPGGA,094022.60,2234.24385276,N,11431.97546679,E,4,23,0.7,-3.7917,M,-1.3439,M,01,0000*59
$GPRMC,094022.60,A,2234.24385276,N,11431.97546679,E,0.579,183.1,061224,3.4,W,D*26
$GNVTG,188.674,T,192.112,M,0.59392,N,1.09994,K,D*3C
$GNHDT,326.5201,T*1A
$GPGGA,094022.80,2234.24382003,N,11431.97546141,E,4,23,0.7,-3.8133,M,-1.3439,M,00,0000*5C
$GPRMC,094022.80,A,2234.24382003,N,11431.97546141,E,0.594,188.7,061224,3.4,W,D*2D
$GNVTG,180.247,T,183.685,M,0.50158,N,0.92893,K,D*31
$GNHDT,326.6230,T*1B
$GPGGA,094023.00,2234.24379207,N,11431.97546128,E,4,23,0.7,-3.8259,M,-1.3439,M,01,0000*56
$GPRMC,094023.00,A,2234.24379207,N,11431.97546128,E,0.502,180.2,061224,3.4,W,D*2B
$GNVTG,179.461,T,182.900,M,0.56858,N,1.05300,K,D*37
$GNHDT,326.9498,T*10
$GPGGA,094023.20,2234.24376037,N,11431.97546160,E,4,22,0.7,-3.8389,M,-1.3439,M,01,0000*5B
$GPRMC,094023.20,A,2234.24376037,N,11431.97546160,E,0.569,179.5,061224,3.4,W,D*27
$GNVTG,157.683,T,161.122,M,0.49685,N,0.92018,K,D*35
$GNHDT,326.7755,T*1C
$GPGGA,094023.40,2234.24373475,N,11431.97547293,E,4,22,0.7,-3.8208,M,-1.3439,M,01,0000*5C
$GPRMC,094023.40,A,2234.24373475,N,11431.97547293,E,0.497,157.7,061224,3.4,W,D*26
$GNVTG,170.680,T,174.118,M,0.59072,N,1.09402,K,D*3D
$GNHDT,327.4089,T*18
$GPGGA,094023.60,2234.24370225,N,11431.97547867,E,4,22,0.7,-3.8376,M,-1.3439,M,01,0000*57
$GPRMC,094023.60,A,2234.24370225,N,11431.97547867,E,0.591,170.7,061224,3.4,W,D*27
$GNVTG,167.927,T,171.365,M,0.51795,N,0.95924,K,D*3F
$GNHDT,327.4115,T*1C
$GPGGA,094023.80,2234.24367401,N,11431.97548517,E,4,22,0.7,-3.8510,M,-1.3439,M,00,0000*5D
$GPRMC,094023.80,A,2234.24367401,N,11431.97548517,E,0.518,167.9,061224,3.4,W,D*23
$GNVTG,166.907,T,170.345,M,0.51624,N,0.95608,K,D*35
$GNHDT,327.4724,T*18
$GPGGA,094024.00,2234.24364598,N,11431.97549219,E,4,22,0.7,-3.8754,M,-1.3439,M,01,0000*5B
$GPRMC,094024.00,A,2234.24364598,N,11431.97549219,E,0.516,166.9,061224,3.4,W,D*29
$GNVTG,161.308,T,164.747,M,0.42722,N,0.79122,K,D*3C
$GNHDT,327.4091,T*11
$GPGGA,094024.20,2234.24362342,N,11431.97550041,E,4,23,0.7,-3.8753,M,-1.3439,M,01,0000*5F
$GPRMC,094024.20,A,2234.24362342,N,11431.97550041,E,0.427,161.3,061224,3.4,W,D*25
$GNVTG,164.331,T,167.770,M,0.59123,N,1.09496,K,D*35
$GNHDT,327.9175,T*17
$GPGGA,094024.40,2234.24359169,N,11431.97551000,E,4,23,0.7,-3.9005,M,-1.3439,M,01,0000*5B
$GPRMC,094024.40,A,2234.24359169,N,11431.97551000,E,0.591,164.3,061224,3.4,W,D*2D
$GNVTG,152.322,T,155.760,M,0.55164,N,1.02164,K,D*3E
$GNHDT,327.9876,T*1D
$GPGGA,094024.60,2234.24356446,N,11431.97552538,E,4,23,0.7,-3.8739,M,-1.3439,M,01,0000*5A
$GPRMC,094024.60,A,2234.24356446,N,11431.97552538,E,0.552,152.3,061224,3.4,W,D*2F
$GNVTG,159.805,T,163.244,M,0.63470,N,1.17546,K,D*38
$GNHDT,328.5799,T*10
$GPGGA,094024.80,2234.24353125,N,11431.97553853,E,4,22,0.7,-3.8770,M,-1.3439,M,00,0000*5D
$GPRMC,094024.80,A,2234.24353125,N,11431.97553853,E,0.635,159.8,061224,3.4,W,D*27
$GNVTG,151.635,T,155.073,M,0.72634,N,1.34518,K,D*36
$GNHDT,329.2602,T*15
$GPGGA,094025.00,2234.24349562,N,11431.97555924,E,4,22,0.7,-3.8654,M,-1.3439,M,01,0000*59
$GPRMC,094025.00,A,2234.24349562,N,11431.97555924,E,0.726,151.6,061224,3.4,W,D*20
$GNVTG,150.150,T,153.589,M,0.70231,N,1.30067,K,D*3F
$GNHDT,329.7237,T*12
$GPGGA,094025.20,2234.24346166,N,11431.97558022,E,4,22,0.7,-3.8585,M,-1.3439,M,01,0000*59
$GPRMC,094025.20,A,2234.24346166,N,11431.97558022,E,0.702,150.2,061224,3.4,W,D*2C
$GNVTG,156.217,T,159.656,M,0.60722,N,1.12457,K,D*33
$GNHDT,330.2127,T*1D
$GPGGA,094025.40,2234.24343068,N,11431.97559492,E,4,22,0.7,-3.8548,M,-1.3439,M,01,0000*5A
$GPRMC,094025.40,A,2234.24343068,N,11431.97559492,E,0.607,156.2,061224,3.4,W,D*2C
$GNVTG,152.118,T,155.556,M,0.56211,N,1.04103,K,D*37
$GNHDT,329.9165,T*18
$GPGGA,094025.60,2234.24340299,N,11431.97561070,E,4,23,0.7,-3.8616,M,-1.3439,M,01,0000*5D
$GPRMC,094025.60,A,2234.24340299,N,11431.97561070,E,0.562,152.1,061224,3.4,W,D*25
$GNVTG,158.384,T,161.823,M,0.47709,N,0.88358,K,D*37
$GNHDT,330.5408,T*12
$GPGGA,094025.80,2234.24337826,N,11431.97562125,E,4,22,0.7,-3.8727,M,-1.3439,M,00,0000*5C
$GPRMC,094025.80,A,2234.24337826,N,11431.97562125,E,0.477,158.4,061224,3.4,W,D*2D
$GNVTG,152.804,T,156.243,M,0.50596,N,0.93703,K,D*34
$GNHDT,330.6577,T*18
$GPGGA,094026.00,2234.24335317,N,11431.97563513,E,4,22,0.7,-3.8770,M,-1.3439,M,01,0000*5F
$GPRMC,094026.00,A,2234.24335317,N,11431.97563513,E,0.506,152.8,061224,3.4,W,D*2C
$GNVTG,157.371,T,160.810,M,0.46763,N,0.86605,K,D*3D
$GNHDT,330.5562,T*1F
$GPGGA,094026.20,2234.24332911,N,11431.97564593,E,4,22,0.7,-3.8599,M,-1.3439,M,01,0000*5C
$GPRMC,094026.20,A,2234.24332911,N,11431.97564593,E,0.468,157.4,061224,3.4,W,D*2A
$GNVTG,152.372,T,155.811,M,0.65428,N,1.21173,K,D*3B
$GNHDT,330.4367,T*1D
$GPGGA,094026.40,2234.24329679,N,11431.97566415,E,4,22,0.7,-3.8454,M,-1.3439,M,01,0000*5C
$GPRMC,094026.40,A,2234.24329679,N,11431.97566415,E,0.654,152.4,061224,3.4,W,D*22
$GNVTG,166.606,T,170.044,M,0.70774,N,1.31074,K,D*3C
$GNHDT,331.7228,T*15
$GPGGA,094026.60,2234.24325841,N,11431.97567399,E,4,24,0.7,-3.8478,M,-1.3439,M,01,0000*5D
$GPRMC,094026.60,A,2234.24325841,N,11431.97567399,E,0.708,166.6,061224,3.4,W,D*26
$GNVTG,146.123,T,149.562,M,0.67443,N,1.24905,K,D*3F
$GNHDT,331.3168,T*16
$GPGGA,094026.80,2234.24322720,N,11431.97569655,E,4,24,0.7,-3.8477,M,-1.3439,M,00,0000*59
$GPRMC,094026.80,A,2234.24322720,N,11431.97569655,E,0.674,146.1,061224,3.4,W,D*23
$GNVTG,165.169,T,168.607,M,0.63607,N,1.17801,K,D*30
$GNHDT,331.8003,T*11
$GPGGA,094027.00,2234.24319292,N,11431.97570633,E,4,23,0.7,-3.8552,M,-1.3439,M,01,0000*5C
$GPRMC,094027.00,A,2234.24319292,N,11431.97570633,E,0.636,165.2,061224,3.4,W,D*22
$GNVTG,164.352,T,167.790,M,0.50412,N,0.93363,K,D*3F
$GNHDT,331.8817,T*1C
$GPGGA,094027.20,2234.24316586,N,11431.97571449,E,4,23,0.7,-3.8725,M,-1.3439,M,01,0000*5F
$GPRMC,094027.20,A,2234.24316586,N,11431.97571449,E,0.504,164.4,061224,3.4,W,D*26
$GNVTG,164.933,T,168.371,M,0.53944,N,0.99905,K,D*3B
$GNHDT,332.2262,T*1D
$GPGGA,094027.40,2234.24313682,N,11431.97572291,E,4,23,0.7,-3.8914,M,-1.3439,M,01,0000*57
$GPRMC,094027.40,A,2234.24313682,N,11431.97572291,E,0.539,164.9,061224,3.4,W,D*21
$GNVTG,164.440,T,167.879,M,0.40574,N,0.75142,K,D*3A
$GNHDT,332.2469,T*10
$GPGGA,094027.60,2234.24311503,N,11431.97572944,E,4,23,0.7,-3.8760,M,-1.3439,M,01,0000*53
$GPRMC,094027.60,A,2234.24311503,N,11431.97572944,E,0.406,164.4,061224,3.4,W,D*28
$GNVTG,173.209,T,176.648,M,0.41154,N,0.76217,K,D*3C
$GNHDT,332.2726,T*18
$GPGGA,094027.80,2234.24309225,N,11431.97573236,E,4,23,0.7,-3.8524,M,-1.3439,M,00,0000*5B
$GPRMC,094027.80,A,2234.24309225,N,11431.97573236,E,0.412,173.2,061224,3.4,W,D*26
$GNVTG,166.812,T,170.251,M,0.64128,N,1.18765,K,D*37
$GNHDT,332.5087,T*13
$GPGGA,094028.00,2234.24305744,N,11431.97574114,E,4,23,0.7,-3.8261,M,-1.3439,M,01,0000*51
