$GNVTG,231.097,T,234.530,M,1.14148,N,2.11403,K,D*39
$GNHDT,153.4475,T*1E
$GPGGA,094155.20,2234.33145313,N,11431.87220478,E,4,21,0.7,1.2097,M,-1.3523,M,02,0000*73
$GPRMC,094155.20,A,2234.33145313,N,11431.87220478,E,1.141,231.1,051224,3.4,W,D*2B
$GNVTG,233.963,T,237.396,M,1.26711,N,2.34668,K,D*33
$GNHDT,150.2276,T*1E
$GPGGA,094155.40,2234.33141157,N,11431.87214328,E,4,22,0.7,1.2155,M,-1.3523,M,02,0000*7A
$GPRMC,094155.40,A,2234.33141157,N,11431.87214328,E,1.267,234.0,051224,3.4,W,D*2D
$GNVTG,249.173,T,252.606,M,1.35104,N,2.50212,K,D*33
$GNHDT,147.9655,T*16
$GPGGA,094155.60,2234.33138479,N,11431.87206748,E,4,19,0.8,1.2479,M,-1.3523,M,02,0000*72
$GPRMC,094155.60,A,2234.33138479,N,11431.87206748,E,1.351,249.2,051224,3.4,W,D*25
$GNVTG,246.804,T,250.237,M,1.28426,N,2.37845,K,D*31
$GNHDT,146.5572,T*1D
$GPGGA,094155.80,2234.33135659,N,11431.87199662,E,4,19,0.8,1.2391,M,-1.3523,M,00,0000*7E
$GPRMC,094155.80,A,2234.33135659,N,11431.87199662,E,1.284,246.8,051224,3.4,W,D*26
$GNVTG,246.757,T,250.190,M,1.35967,N,2.51810,K,D*32
$GNHDT,144.9692,T*1E
$GPGGA,094156.00,2234.33132668,N,11431.87192163,E,4,19,0.8,1.2450,M,-1.3523,M,01,0000*76
$GPRMC,094156.00,A,2234.33132668,N,11431.87192163,E,1.360,246.8,051224,3.4,W,D*2E
$GNVTG,240.624,T,244.057,M,1.39319,N,2.58018,K,D*38
$GNHDT,142.9137,T*10
$GPGGA,094156.20,2234.33128858,N,11431.87184875,E,4,19,0.8,1.2167,M,-1.3523,M,01,0000*7A
$GPRMC,094156.20,A,2234.33128858,N,11431.87184875,E,1.393,240.6,051224,3.4,W,D*27
$GNVTG,238.867,T,242.299,M,1.28150,N,2.37334,K,D*33
$GNHDT,141.8184,T*1A
$GPGGA,094156.40,2234.33125165,N,11431.87178291,E,4,19,0.8,1.1909,M,-1.3523,M,01,0000*76
$GPRMC,094156.40,A,2234.33125165,N,11431.87178291,E,1.282,238.9,051224,3.4,W,D*29
$GNVTG,235.817,T,239.250,M,1.37419,N,2.54501,K,D*33
$GNHDT,140.5380,T*10
$GPGGA,094156.60,2234.33120861,N,11431.87171467,E,4,20,0.7,1.1693,M,-1.3523,M,01,0000*73
$GPRMC,094156.60,A,2234.33120861,N,11431.87171467,E,1.374,235.8,051224,3.4,W,D*21
$GNVTG,233.811,T,237.244,M,1.57536,N,2.91756,K,D*3B
$GNHDT,137.5253,T*1F
$GPGGA,094156.80,2234.33115675,N,11431.87163835,E,4,19,0.8,1.1531,M,-1.3523,M,00,0000*77
$GPRMC,094156.80,A,2234.33115675,N,11431.87163835,E,1.575,233.8,051224,3.4,W,D*2B
$GNVTG,228.957,T,232.389,M,1.55150,N,2.87338,K,D*3A
$GNHDT,136.0231,T*1F
$GPGGA,094157.00,2234.33109996,N,11431.87156811,E,4,19,0.8,1.1657,M,-1.3523,M,01,0000*73
$GPRMC,094157.00,A,2234.33109996,N,11431.87156811,E,1.552,229.0,051224,3.4,W,D*2B
$GNVTG,222.590,T,226.023,M,1.51163,N,2.79953,K,D*33
$GNHDT,135.1986,T*1A
$GPGGA,094157.20,2234.33103792,N,11431.87150670,E,4,20,0.8,1.1469,M,-1.3523,M,01,0000*7B
$GPRMC,094157.20,A,2234.33103792,N,11431.87150670,E,1.512,222.6,051224,3.4,W,D*2F
$GNVTG,223.122,T,226.555,M,1.71367,N,3.17371,K,D*3C
$GNHDT,134.6262,T*1D
$GPGGA,094157.40,2234.33096819,N,11431.87143639,E,4,20,0.8,1.1467,M,-1.3523,M,01,0000*7D
$GPRMC,094157.40,A,2234.33096819,N,11431.87143639,E,1.714,223.1,051224,3.4,W,D*25
$GNVTG,218.565,T,221.998,M,1.90851,N,3.53456,K,D*3A
$GNHDT,132.8445,T*16
$GPGGA,094157.60,2234.33088500,N,11431.87136497,E,4,20,0.8,1.1561,M,-1.3523,M,01,0000*76
$GPRMC,094157.60,A,2234.33088500,N,11431.87136497,E,1.909,218.6,051224,3.4,W,D*24
$GNVTG,215.281,T,218.714,M,1.84224,N,3.41183,K,D*39
$GNHDT,132.8159,T*1E
$GPGGA,094157.80,2234.33080116,N,11431.87130110,E,4,21,0.8,1.1198,M,-1.3523,M,00,0000*7D
$GPRMC,094157.80,A,2234.33080116,N,11431.87130110,E,1.842,215.3,051224,3.4,W,D*2B
$GNVTG,213.479,T,216.911,M,1.96320,N,3.63584,K,D*3E
$GNHDT,132.1745,T*1C
$GPGGA,094158.00,2234.33070988,N,11431.87123609,E,4,20,0.8,1.1312,M,-1.3523,M,01,0000*77
$GPRMC,094158.00,A,2234.33070988,N,11431.87123609,E,1.963,213.5,051224,3.4,W,D*23
$GNVTG,211.172,T,214.605,M,2.11753,N,3.92167,K,D*31
$GNHDT,131.4234,T*19
$GPGGA,094158.20,2234.33060888,N,11431.87117030,E,4,20,0.8,1.1019,M,-1.3523,M,01,0000*76
$GPRMC,094158.20,A,2234.33060888,N,11431.87117030,E,2.118,211.2,051224,3.4,W,D*28
$GNVTG,209.490,T,212.923,M,2.18207,N,4.04119,K,D*30
$GNHDT,130.8385,T*1F
$GPGGA,094158.40,2234.33050299,N,11431.87110582,E,4,20,0.8,1.0974,M,-1.3523,M,01,0000*71
$GPRMC,094158.40,A,2234.33050299,N,11431.87110582,E,2.182,209.5,051224,3.4,W,D*21
$GNVTG,208.144,T,211.577,M,2.37130,N,4.39166,K,D*3F
$GNHDT,130.1394,T*16
$GPGGA,094158.60,2234.33038643,N,11431.87103868,E,4,21,0.8,1.0922,M,-1.3523,M,01,0000*77
$GPRMC,094158.60,A,2234.33038643,N,11431.87103868,E,2.371,208.1,051224,3.4,W,D*2E
$GNVTG,206.658,T,210.091,M,2.41421,N,4.47111,K,D*3A
$GNHDT,129.9411,T*1C
$GPGGA,094158.80,2234.33026615,N,11431.87097366,E,4,21,0.8,1.1314,M,-1.3523,M,01,0000*72
$GPRMC,094158.80,A,2234.33026615,N,11431.87097366,E,2.414,206.7,051224,3.4,W,D*29
$GNVTG,207.061,T,210.493,M,2.44026,N,4.51936,K,D*3D
$GNHDT,129.8147,T*1B
$GPGGA,094159.00,2234.33014500,N,11431.87090702,E,4,21,0.8,1.1211,M,-1.3523,M,02,0000*7B
$GPRMC,094159.00,A,2234.33014500,N,11431.87090702,E,2.440,207.1,051224,3.4,W,D*21
$GNVTG,206.669,T,210.102,M,2.55255,N,4.72733,K,D*33
$GNHDT,129.0804,T*1D
$GPGGA,094159.20,2234.33001785,N,11431.87083825,E,4,21,0.8,1.0969,M,-1.3523,M,02,0000*7F
$GPRMC,094159.20,A,2234.33001785,N,11431.87083825,E,2.553,206.7,051224,3.4,W,D*24
$GNVTG,206.551,T,209.984,M,2.65731,N,4.92134,K,D*3E
$GNHDT,128.9865,T*12
$GPGGA,094159.40,2234.32988533,N,11431.87076695,E,4,21,0.8,1.0958,M,-1.3523,M,02,0000*72
$GPRMC,094159.40,A,2234.32988533,N,11431.87076695,E,2.657,206.6,051224,3.4,W,D*2D
$GNVTG,205.875,T,209.308,M,2.65680,N,4.92039,K,D*3F
$GNHDT,129.4958,T*11
$GPGGA,094159.60,2234.32975207,N,11431.87069735,E,4,21,0.8,1.0497,M,-1.3523,M,02,0000*79
$GPRMC,094159.60,A,2234.32975207,N,11431.87069735,E,2.657,205.9,051224,3.4,W,D*24
$GNVTG,204.773,T,208.205,M,2.77519,N,5.13964,K,D*33
$GNHDT,129.0441,T*10
$GPGGA,094159.80,2234.32961160,N,11431.87062755,E,4,21,0.8,1.0990,M,-1.3524,M,02,0000*70
$GPRMC,094159.80,A,2234.32961160,N,11431.87062755,E,2.775,204.8,051224,3.4,W,D*21
$GNVTG,204.382,T,207.814,M,2.86778,N,5.31113,K,D*3F
$GNHDT,127.7293,T*10
$GPGGA,094200.00,2234.32946598,N,11431.87055648,E,4,21,0.8,1.1162,M,-1.3524,M,03,0000*7D
$GPRMC,094200.00,A,2234.32946598,N,11431.87055648,E,2.868,204.4,051224,3.4,W,D*26
$GNVTG,203.836,T,207.269,M,2.90690,N,5.38358,K,D*38
$GNHDT,128.0375,T*11
$GPGGA,094200.20,2234.32931776,N,11431.87048597,E,4,21,0.8,1.1152,M,-1.3524,M,03,0000*73
$GPRMC,094200.20,A,2234.32931776,N,11431.87048597,E,2.907,203.8,051224,3.4,W,D*28
$GNVTG,207.624,T,211.057,M,3.08030,N,5.70472,K,D*36
$GNHDT,128.0529,T*1E
$GPGGA,094200.40,2234.32916561,N,11431.87040024,E,4,21,0.8,1.1621,M,-1.3523,M,03,0000*75
$GPRMC,094200.40,A,2234.32916561,N,11431.87040024,E,3.080,207.6,051224,3.4,W,D*27
$GNVTG,205.378,T,208.811,M,3.03889,N,5.62802,K,D*33
$GNHDT,128.2576,T*16
$GPGGA,094200.60,2234.32901255,N,11431.87032205,E,4,21,0.8,1.1359,M,-1.3523,M,03,0000*7F
$GPRMC,094200.60,A,2234.32901255,N,11431.87032205,E,3.039,205.4,051224,3.4,W,D*25
$GNVTG,204.089,T,207.522,M,3.22303,N,5.96906,K,D*39
$GNHDT,128.1046,T*13
$GPGGA,094200.80,2234.32884852,N,11431.87024309,E,4,21,0.8,1.1620,M,-1.3523,M,00,0000*72
$GPRMC,094200.80,A,2234.32884852,N,11431.87024309,E,3.223,204.1,051224,3.4,W,D*2D
$GNVTG,204.758,T,208.191,M,3.14562,N,5.82569,K,D*35
$GNHDT,127.8109,T*1F
$GPGGA,094201.00,2234.32868928,N,11431.87016401,E,4,21,0.8,1.1412,M,-1.3524,M,01,0000*7E
$GPRMC,094201.00,A,2234.32868928,N,11431.87016401,E,3.146,204.8,051224,3.4,W,D*2D
$GNVTG,205.327,T,208.760,M,3.38786,N,6.27431,K,D*36
$GNHDT,128.5099,T*15
$GPGGA,094201.20,2234.32851857,N,11431.87007702,E,4,21,0.8,1.1844,M,-1.3524,M,01,0000*70
$GPRMC,094201.20,A,2234.32851857,N,11431.87007702,E,3.388,205.3,051224,3.4,W,D*26
$GNVTG,205.773,T,209.206,M,3.41993,N,6.33370,K,D*34
$GNHDT,128.1747,T*15
$GPGGA,094201.40,2234.32834689,N,11431.86998776,E,4,21,0.8,1.1971,M,-1.3523,M,01,0000*75
$GPRMC,094201.40,A,2234.32834689,N,11431.86998776,E,3.420,205.8,051224,3.4,W,D*2D
$GNVTG,202.061,T,205.494,M,3.46396,N,6.41525,K,D*3D
$GNHDT,128.3108,T*1A
$GPGGA,094201.60,2234.32816792,N,11431.86990966,E,4,21,0.8,1.1952,M,-1.3523,M,01,0000*7A
$GPRMC,094201.60,A,2234.32816792,N,11431.86990966,E,3.464,202.1,051224,3.4,W,D*2D
$GNVTG,203.643,T,207.076,M,3.51037,N,6.50120,K,D*3F
$GNHDT,127.7472,T*19
$GPGGA,094201.80,2234.32798865,N,11431.86982515,E,4,21,0.8,1.2282,M,-1.3523,M,00,0000*75
$GPRMC,094201.80,A,2234.32798865,N,11431.86982515,E,3.510,203.6,051224,3.4,W,D*22
$GNVTG,204.270,T,207.703,M,3.54223,N,6.56022,K,D*3E
$GNHDT,128.1569,T*1B
$GPGGA,094202.00,2234.32780864,N,11431.86973775,E,4,21,0.8,1.2013,M,-1.3523,M,01,0000*77
$GPRMC,094202.00,A,2234.32780864,N,11431.86973775,E,3.542,204.3,051224,3.4,W,D*2E
$GNVTG,203.441,T,206.874,M,3.66560,N,6.78870,K,D*31
$GNHDT,127.3185,T*10
$GPGGA,094202.20,2234.32762115,N,11431.86965022,E,4,21,0.8,1.2062,M,-1.3524,M,01,0000*75
$GPRMC,094202.20,A,2234.32762115,N,11431.86965022,E,3.666,203.4,051224,3.4,W,D*28
$GNVTG,203.360,T,206.793,M,3.62820,N,6.71942,K,D*37
$GNHDT,126.7147,T*1B
$GPGGA,094202.40,2234.32743547,N,11431.86956387,E,4,21,0.8,1.2026,M,-1.3523,M,01,0000*78
$GPRMC,094202.40,A,2234.32743547,N,11431.86956387,E,3.628,203.4,051224,3.4,W,D*28
$GNVTG,203.283,T,206.716,M,3.61424,N,6.69357,K,D*3A
$GNHDT,126.3956,T*17
$GPGGA,094202.60,2234.32725040,N,11431.86947811,E,4,21,0.8,1.2114,M,-1.3523,M,01,0000*7C
$GPRMC,094202.60,A,2234.32725040,N,11431.86947811,E,3.614,203.3,051224,3.4,W,D*24
$GNVTG,203.350,T,206.783,M,3.60374,N,6.67413,K,D*33
$GNHDT,125.8075,T*17
$GPGGA,094202.80,2234.32706595,N,11431.86939237,E,4,21,0.8,1.1729,M,-1.3523,M,00,0000*73
$GPRMC,094202.80,A,2234.32706595,N,11431.86939237,E,3.604,203.3,051224,3.4,W,D*20
$GNVTG,202.337,T,205.770,M,3.59327,N,6.65473,K,D*34
$GNHDT,125.8572,T*15
$GPGGA,094203.00,2234.32688067,N,11431.86931040,E,4,21,0.8,1.1539,M,-1.3523,M,01,0000*7D
$GPRMC,094203.00,A,2234.32688067,N,11431.86931040,E,3.593,202.3,051224,3.4,W,D*20
$GNVTG,201.641,T,205.074,M,3.62004,N,6.70432,K,D*3B
$GNHDT,125.2439,T*11
$GPGGA,094203.20,2234.32669309,N,11431.86923026,E,4,22,0.7,1.1656,M,-1.3524,M,01,0000*79
$GPRMC,094203.20,A,2234.32669309,N,11431.86923026,E,3.620,201.6,051224,3.4,W,D*28
$GNVTG,202.650,T,206.082,M,3.70743,N,6.86616,K,D*38
$GNHDT,123.7788,T*1B
$GPGGA,094203.40,2234.32650235,N,11431.86914456,E,4,22,0.7,1.1718,M,-1.3524,M,01,0000*77
$GPRMC,094203.40,A,2234.32650235,N,11431.86914456,E,3.707,202.6,051224,3.4,W,D*2A
$GNVTG,199.732,T,203.164,M,3.55731,N,6.58813,K,D*3A
$GNHDT,123.7061,T*1B
$GPGGA,094203.60,2234.32631568,N,11431.86907246,E,4,22,0.7,1.1259,M,-1.3524,M,01,0000*78
$GPRMC,094203.60,A,2234.32631568,N,11431.86907246,E,3.557,199.7,051224,3.4,W,D*22
$GNVTG,199.769,T,203.202,M,3.73168,N,6.91107,K,D*30
$GNHDT,122.4696,T*17
$GPGGA,094203.80,2234.32611991,N,11431.86899670,E,4,23,0.7,1.1227,M,-1.3524,M,00,0000*70
$GPRMC,094203.80,A,2234.32611991,N,11431.86899670,E,3.732,199.8,051224,3.4,W,D*2D
$GNVTG,198.903,T,202.335,M,3.63812,N,6.73780,K,D*37
$GNHDT,121.6900,T*16
$GPGGA,094204.00,2234.32592803,N,11431.86892595,E,4,22,0.7,1.1183,M,-1.3523,M,01,0000*74
$GPRMC,094204.00,A,2234.32592803,N,11431.86892595,E,3.638,198.9,051224,3.4,W,D*28
$GNVTG,200.745,T,204.178,M,3.69364,N,6.84062,K,D*37
$GNHDT,120.7962,T*12
$GPGGA,094204.20,2234.32573547,N,11431.86884742,E,4,22,0.7,1.0751,M,-1.3523,M,01,0000*73
$GPRMC,094204.20,A,2234.32573547,N,11431.86884742,E,3.694,200.7,051224,3.4,W,D*2D
$GNVTG,197.816,T,201.248,M,3.72625,N,6.90102,K,D*3E
$GNHDT,120.0030,T*1B
$GPGGA,094204.40,2234.32553771,N,11431.86877898,E,4,21,0.8,1.0630,M,-1.3524,M,01,0000*79
$GPRMC,094204.40,A,2234.32553771,N,11431.86877898,E,3.726,197.8,051224,3.4,W,D*20
$GNVTG,196.393,T,199.826,M,3.78911,N,7.01744,K,D*36
$GNHDT,119.2790,T*1E
$GPGGA,094204.60,2234.32533506,N,11431.86871479,E,4,21,0.8,1.0632,M,-1.3524,M,01,0000*78
$GPRMC,094204.60,A,2234.32533506,N,11431.86871479,E,3.789,196.4,051224,3.4,W,D*2B
$GNVTG,194.877,T,198.310,M,3.75516,N,6.95456,K,D*30
$GNHDT,118.7112,T*16
$GPGGA,094204.80,2234.32513274,N,11431.86865692,E,4,21,0.8,1.0331,M,-1.3523,M,01,0000*75
$GPRMC,094204.80,A,2234.32513274,N,11431.86865692,E,3.755,194.9,051224,3.4,W,D*29
$GNVTG,194.367,T,197.799,M,3.92930,N,7.27706,K,D*3F
$GNHDT,117.8624,T*14
$GPGGA,094205.00,2234.32492054,N,11431.86859840,E,4,21,0.8,1.0766,M,-1.3523,M,02,0000*7F
$GPRMC,094205.00,A,2234.32492054,N,11431.86859840,E,3.929,194.4,051224,3.4,W,D*2E
$GNVTG,192.731,T,196.164,M,3.88139,N,7.18833,K,D*34
$GNHDT,117.1621,T*18
$GPGGA,094205.20,2234.32470949,N,11431.86854705,E,4,21,0.8,1.0968,M,-1.3523,M,02,0000*77
$GPRMC,094205.20,A,2234.32470949,N,11431.86854705,E,3.881,192.7,051224,3.4,W,D*20
$GNVTG,190.729,T,194.162,M,3.85598,N,7.14128,K,D*36
$GNHDT,116.4841,T*14
$GPGGA,094205.40,2234.32449828,N,11431.86850396,E,4,21,0.8,1.0426,M,-1.3523,M,02,0000*70
$GPRMC,094205.40,A,2234.32449828,N,11431.86850396,E,3.856,190.7,051224,3.4,W,D*28
$GNVTG,192.446,T,195.879,M,3.89810,N,7.21929,K,D*32
$GNHDT,115.8171,T*11
$GPGGA,094205.60,2234.32428608,N,11431.86845353,E,4,22,0.8,1.0539,M,-1.3523,M,02,0000*78
$GPRMC,094205.60,A,2234.32428608,N,11431.86845353,E,3.898,192.4,051224,3.4,W,D*2F
$GNVTG,189.370,T,192.803,M,3.97591,N,7.36338,K,D*37
$GNHDT,115.6106,T*1F
$GPGGA,094205.80,2234.32406739,N,11431.86841468,E,4,22,0.8,1.0536,M,-1.3523,M,00,0000*7F
$GPRMC,094205.80,A,2234.32406739,N,11431.86841468,E,3.976,189.4,051224,3.4,W,D*2E
$GNVTG,189.858,T,193.291,M,4.04758,N,7.49612,K,D*39
$GNHDT,114.6812,T*12
$GPGGA,094206.00,2234.32384508,N,11431.86837308,E,4,21,0.8,1.0759,M,-1.3523,M,01,0000*70
$GPRMC,094206.00,A,2234.32384508,N,11431.86837308,E,4.048,189.9,051224,3.4,W,D*26
$GNVTG,189.648,T,193.081,M,4.11543,N,7.62179,K,D*3A
$GNHDT,114.3258,T*13
$GPGGA,094206.20,2234.32361891,N,11431.86833168,E,4,22,0.7,1.0750,M,-1.3523,M,01,0000*71
$GPRMC,094206.20,A,2234.32361891,N,11431.86833168,E,4.115,189.6,051224,3.4,W,D*24
$GNVTG,193.783,T,197.215,M,4.13736,N,7.66239,K,D*3D
$GNHDT,114.1894,T*1B
$GPGGA,094206.40,2234.32339490,N,11431.86827251,E,4,20,0.8,1.1532,M,-1.3523,M,01,0000*71
$GPRMC,094206.40,A,2234.32339490,N,11431.86827251,E,4.137,193.8,051224,3.4,W,D*2B
$GNVTG,189.874,T,193.307,M,4.15751,N,7.69971,K,D*38
$GNHDT,113.6178,T*10
$GPGGA,094206.60,2234.32316656,N,11431.86822972,E,4,20,0.8,1.1802,M,-1.3523,M,01,0000*77
$GPRMC,094206.60,A,2234.32316656,N,11431.86822972,E,4.158,189.9,051224,3.4,W,D*20
$GNVTG,189.189,T,192.622,M,4.13190,N,7.65228,K,D*36
$GNHDT,113.4506,T*1F
$GPGGA,094206.80,2234.32293918,N,11431.86819011,E,4,21,0.7,1.1702,M,-1.3523,M,00,0000*74
$GPRMC,094206.80,A,2234.32293918,N,11431.86819011,E,4.132,189.2,051224,3.4,W,D*24
$GNVTG,189.688,T,193.121,M,4.27621,N,7.91953,K,D*33
$GNHDT,113.0985,T*1C
$GPGGA,094207.00,2234.32270419,N,11431.86814691,E,4,21,0.7,1.1968,M,-1.3523,M,01,0000*7C
$GPRMC,094207.00,A,2234.32270419,N,11431.86814691,E,4.276,189.7,051224,3.4,W,D*29
$GNVTG,189.160,T,192.593,M,4.23192,N,7.83752,K,D*39
$GNHDT,112.3255,T*18
$GPGGA,094207.20,2234.32247128,N,11431.86810647,E,4,20,0.8,1.1776,M,-1.3523,M,01,0000*7D
$GPRMC,094207.20,A,2234.32247128,N,11431.86810647,E,4.232,189.2,051224,3.4,W,D*22
$GNVTG,188.236,T,191.669,M,4.10154,N,7.59606,K,D*30
$GNHDT,112.2186,T*14
$GPGGA,094207.40,2234.32224499,N,11431.86807120,E,4,21,0.8,1.1988,M,-1.3523,M,01,0000*7F
$GPRMC,094207.40,A,2234.32224499,N,11431.86807120,E,4.102,188.2,051224,3.4,W,D*2F
$GNVTG,188.432,T,191.865,M,4.19922,N,7.77696,K,D*35
$GNHDT,112.1463,T*19
$GPGGA,094207.60,2234.32201343,N,11431.86803424,E,4,21,0.8,1.2011,M,-1.3523,M,01,0000*75
$GPRMC,094207.60,A,2234.32201343,N,11431.86803424,E,4.199,188.4,051224,3.4,W,D*2B
$GNVTG,189.917,T,193.350,M,4.38486,N,8.12076,K,D*35
$GNHDT,111.3186,T*16
$GPGGA,094207.80,2234.32177264,N,11431.86798891,E,4,19,0.8,1.2037,M,-1.3523,M,00,0000*7C
$GPRMC,094207.80,A,2234.32177264,N,11431.86798891,E,4.385,189.9,051224,3.4,W,D*2F
$GNVTG,188.305,T,191.737,M,4.20510,N,7.78784,K,D*34
$GNHDT,111.4667,T*19
$GPGGA,094208.00,2234.32154067,N,11431.86795245,E,4,19,0.8,1.2351,M,-1.3523,M,01,0000*77
$GPRMC,094208.00,A,2234.32154067,N,11431.86795245,E,4.205,188.3,051224,3.4,W,D*24
$GNVTG,188.942,T,192.374,M,4.32704,N,8.01367,K,D*31
$GNHDT,110.9583,T*1C
$GPGGA,094208.20,2234.32130238,N,11431.86791208,E,4,19,0.8,1.2377,M,-1.3523,M,01,0000*76
$GPRMC,094208.20,A,2234.32130238,N,11431.86791208,E,4.327,188.9,051224,3.4,W,D*2A
$GNVTG,185.865,T,189.298,M,4.23310,N,7.83970,K,D*39
$GNHDT,110.7281,T*17
$GPGGA,094208.40,2234.32106764,N,11431.86788611,E,4,19,0.8,1.1430,M,-1.3523,M,01,0000*7A
$GPRMC,094208.40,A,2234.32106764,N,11431.86788611,E,4.233,185.9,051224,3.4,W,D*28
$GNVTG,188.907,T,192.340,M,4.19776,N,7.77425,K,D*34
$GNHDT,110.6774,T*19
$GPGGA,094208.60,2234.32083645,N,11431.86784710,E,4,20,0.8,1.1272,M,-1.3523,M,01,0000*70
$GPRMC,094208.60,A,2234.32083645,N,11431.86784710,E,4.198,188.9,051224,3.4,W,D*27
$GNVTG,186.779,T,190.212,M,4.34732,N,8.05123,K,D*3F
$GNHDT,110.0202,T*1B
$GPGGA,094208.80,2234.32059579,N,11431.86781630,E,4,20,0.8,1.1216,M,-1.3523,M,00,0000*70
$GPRMC,094208.80,A,2234.32059579,N,11431.86781630,E,4.347,186.8,051224,3.4,W,D*2B
$GNVTG,186.827,T,190.260,M,4.10576,N,7.60387,K,D*3A
$GNHDT,110.0300,T*18
$GPGGA,094209.00,2234.32036853,N,11431.86778700,E,4,20,0.8,1.0883,M,-1.3523,M,01,0000*77
$GPRMC,094209.00,A,2234.32036853,N,11431.86778700,E,4.106,186.8,051224,3.4,W,D*2D
$GNVTG,184.158,T,187.591,M,4.24333,N,7.85866,K,D*39
$GNHDT,109.8227,T*1C
$GPGGA,094209.20,2234.32013260,N,11431.86776853,E,4,21,0.8,1.0622,M,-1.3523,M,01,0000*7B
$GPRMC,094209.20,A,2234.32013260,N,11431.86776853,E,4.243,184.2,051224,3.4,W,D*2F
$GNVTG,186.062,T,189.495,M,4.14849,N,7.68301,K,D*34
$GNHDT,110.1029,T*11
$GPGGA,094209.40,2234.31990262,N,11431.86774223,E,4,20,0.8,1.0370,M,-1.3523,M,01,0000*72
$GPRMC,094209.40,A,2234.31990262,N,11431.86774223,E,4.148,186.1,051224,3.4,W,D*2C
$GNVTG,186.141,T,189.574,M,4.34778,N,8.05208,K,D*39
$GNHDT,109.5167,T*16
$GPGGA,094209.60,2234.31966164,N,11431.86771431,E,4,19,0.8,1.0667,M,-1.3523,M,01,0000*75
$GPRMC,094209.60,A,2234.31966164,N,11431.86771431,E,4.348,186.1,051224,3.4,W,D*20
$GNVTG,185.246,T,188.679,M,4.23732,N,7.84751,K,D*36
$GNHDT,109.4453,T*15
$GPGGA,094209.80,2234.31942641,N,11431.86769106,E,4,21,0.8,1.0446,M,-1.3523,M,00,0000*7E
$GPRMC,094209.80,A,2234.31942641,N,11431.86769106,E,4.237,185.2,051224,3.4,W,D*29
$GNVTG,183.729,T,187.162,M,4.30711,N,7.97678,K,D*35
$GNHDT,109.4638,T*1A
$GPGGA,094210.00,2234.31918681,N,11431.86767424,E,4,21,0.8,1.0392,M,-1.3522,M,01,0000*78
$GPRMC,094210.00,A,2234.31918681,N,11431.86767424,E,4.307,183.7,051224,3.4,W,D*20
$GNVTG,184.106,T,187.538,M,4.31949,N,7.99969,K,D*31
$GNHDT,109.3305,T*16
$GPGGA,094210.20,2234.31894663,N,11431.86765568,E,4,21,0.8,1.0716,M,-1.3522,M,01,0000*70
$GPRMC,094210.20,A,2234.31894663,N,11431.86765568,E,4.319,184.1,051224,3.4,W,D*2E
$GNVTG,184.082,T,187.515,M,4.34213,N,8.04163,K,D*3B
$GNHDT,108.8892,T*19
$GPGGA,094210.40,2234.31870518,N,11431.86763712,E,4,21,0.8,1.0547,M,-1.3522,M,01,0000*7C
$GPRMC,094210.40,A,2234.31870518,N,11431.86763712,E,4.342,184.1,051224,3.4,W,D*2A
$GNVTG,180.554,T,183.987,M,4.40993,N,8.16720,K,D*30
$GNHDT,108.6493,T*1A
$GPGGA,094210.60,2234.31845935,N,11431.86763456,E,4,21,0.8,1.0653,M,-1.3522,M,01,0000*7E
$GPRMC,094210.60,A,2234.31845935,N,11431.86763456,E,4.410,180.6,051224,3.4,W,D*2D
$GNVTG,181.926,T,185.359,M,4.41619,N,8.17878,K,D*38
$GNHDT,108.2306,T*15
$GPGGA,094210.80,2234.31821330,N,11431.86762565,E,4,21,0.8,1.0645,M,-1.3522,M,00,0000*7B
$GPRMC,094210.80,A,2234.31821330,N,11431.86762565,E,4.416,181.9,051224,3.4,W,D*26
$GNVTG,181.846,T,185.279,M,4.44940,N,8.24028,K,D*37
$GNHDT,108.0127,T*16
$GPGGA,094211.00,2234.31796539,N,11431.86761705,E,4,20,0.8,1.0499,M,-1.3522,M,01,0000*7A
$GPRMC,094211.00,A,2234.31796539,N,11431.86761705,E,4.449,181.8,051224,3.4,W,D*2F
$GNVTG,180.606,T,184.039,M,4.62271,N,8.56127,K,D*3D
$GNHDT,107.9016,T*13
$GPGGA,094211.20,2234.31770770,N,11431.86761411,E,4,20,0.8,1.0422,M,-1.3522,M,01,0000*79
$GPRMC,094211.20,A,2234.31770770,N,11431.86761411,E,4.623,180.6,051224,3.4,W,D*2D
$GNVTG,181.249,T,184.682,M,4.86750,N,9.01461,K,D*3D
$GNHDT,107.2085,T*12
$GPGGA,094211.40,2234.31743641,N,11431.86760774,E,4,20,0.8,0.9890,M,-1.3522,M,01,0000*70
$GPRMC,094211.40,A,2234.31743641,N,11431.86760774,E,4.868,181.2,051224,3.4,W,D*2D
$GNVTG,181.687,T,185.120,M,4.79615,N,8.88247,K,D*37
$GNHDT,106.9058,T*18
$GPGGA,094211.60,2234.31716916,N,11431.86759927,E,4,20,0.8,1.0233,M,-1.3522,M,01,0000*76
$GPRMC,094211.60,A,2234.31716916,N,11431.86759927,E,4.796,181.7,051224,3.4,W,D*2B
$GNVTG,179.209,T,182.642,M,4.84401,N,8.97111,K,D*3D
$GNHDT,106.8568,T*1F
$GPGGA,094211.80,2234.31689914,N,11431.86760328,E,4,20,0.8,0.9782,M,-1.3522,M,00,0000*74
$GPRMC,094211.80,A,2234.31689914,N,11431.86760328,E,4.844,179.2,051224,3.4,W,D*2D
$GNVTG,179.158,T,182.591,M,4.88242,N,9.04224,K,D*34
$GNHDT,106.5134,T*1F
$GPGGA,094212.00,2234.31662699,N,11431.86760759,E,4,20,0.8,0.9896,M,-1.3522,M,01,0000*79
$GPRMC,094212.00,A,2234.31662699,N,11431.86760759,E,4.882,179.2,051224,3.4,W,D*21
$GNVTG,180.980,T,184.413,M,4.92115,N,9.11397,K,D*35
$GNHDT,106.1465,T*1A
$GPGGA,094212.20,2234.31635269,N,11431.86760253,E,4,19,0.8,1.0722,M,-1.3522,M,01,0000*7F
$GPRMC,094212.20,A,2234.31635269,N,11431.86760253,E,4.921,181.0,051224,3.4,W,D*28
$GNVTG,177.988,T,181.420,M,4.76829,N,8.83087,K,D*34
$GNHDT,106.1087,T*12
$GPGGA,094212.40,2234.31608704,N,11431.86761258,E,4,20,0.8,1.0524,M,-1.3522,M,01,0000*7D
$GPRMC,094212.40,A,2234.31608704,N,11431.86761258,E,4.768,178.0,051224,3.4,W,D*21
$GNVTG,180.285,T,183.718,M,4.81154,N,8.91096,K,D*38
$GNHDT,105.7947,T*12
$GPGGA,094212.60,2234.31581881,N,11431.86761115,E,4,20,0.8,1.0854,M,-1.3522,M,01,0000*7F
$GPRMC,094212.60,A,2234.31581881,N,11431.86761115,E,4.812,180.3,051224,3.4,W,D*2F
$GNVTG,178.377,T,181.810,M,4.77218,N,8.83808,K,D*38
$GNHDT,105.6875,T*13
$GPGGA,094212.80,2234.31555288,N,11431.86761926,E,4,21,0.8,1.0930,M,-1.3521,M,00,0000*73
$GPRMC,094212.80,A,2234.31555288,N,11431.86761926,E,4.772,178.4,051224,3.4,W,D*2A
$GNVTG,180.043,T,183.476,M,4.73378,N,8.76696,K,D*35
$GNHDT,104.7735,T*18
$GPGGA,094213.00,2234.31528899,N,11431.86761905,E,4,21,0.8,1.0993,M,-1.3521,M,01,0000*73
$GPRMC,094213.00,A,2234.31528899,N,11431.86761905,E,4.734,180.0,051224,3.4,W,D*23
$GNVTG,180.408,T,183.841,M,4.66563,N,8.64075,K,D*36
$GNHDT,104.4447,T*1D
$GPGGA,094213.20,2234.31502890,N,11431.86761705,E,4,21,0.7,1.1166,M,-1.3521,M,01,0000*72
$GPRMC,094213.20,A,2234.31502890,N,11431.86761705,E,4.666,180.4,051224,3.4,W,D*2C
$GNVTG,179.808,T,183.240,M,4.55822,N,8.44182,K,D*34
$GNHDT,104.5892,T*18
$GPGGA,094213.40,2234.31477479,N,11431.86761797,E,4,20,0.8,1.1217,M,-1.3521,M,01,0000*7C
$GPRMC,094213.40,A,2234.31477479,N,11431.86761797,E,4.558,179.8,051224,3.4,W,D*2D
$GNVTG,179.476,T,182.908,M,4.50627,N,8.34561,K,D*37
$GNHDT,104.2692,T*11
$GPGGA,094213.60,2234.31452359,N,11431.86762044,E,4,20,0.8,1.1483,M,-1.3521,M,01,0000*7D
$GPRMC,094213.60,A,2234.31452359,N,11431.86762044,E,4.506,179.5,051224,3.4,W,D*21
$GNVTG,177.422,T,180.855,M,4.51562,N,8.36293,K,D*38
$GNHDT,104.1402,T*19
$GPGGA,094213.80,2234.31427211,N,11431.86763264,E,4,20,0.8,1.1133,M,-1.3521,M,00,0000*72
$GPRMC,094213.80,A,2234.31427211,N,11431.86763264,E,4.516,177.4,051224,3.4,W,D*2F
$GNVTG,179.500,T,182.933,M,4.49471,N,8.32421,K,D*35
$GNHDT,103.7141,T*1A
$GPGGA,094214.00,2234.31402156,N,11431.86763499,E,4,21,0.8,1.1352,M,-1.3521,M,01,0000*7B
$GPRMC,094214.00,A,2234.31402156,N,11431.86763499,E,4.495,179.5,051224,3.4,W,D*26
$GNVTG,177.668,T,181.101,M,4.44017,N,8.22320,K,D*32
$GNHDT,103.4264,T*1D
$GPGGA,094214.20,2234.31377423,N,11431.86764583,E,4,20,0.8,1.1364,M,-1.3521,M,01,0000*72
$GPRMC,094214.20,A,2234.31377423,N,11431.86764583,E,4.440,177.7,051224,3.4,W,D*2F
$GNVTG,178.180,T,181.612,M,4.39159,N,8.13322,K,D*38
$GNHDT,103.9442,T*12
$GPGGA,094214.40,2234.31352954,N,11431.86765421,E,4,20,0.8,1.1545,M,-1.3521,M,01,0000*73
$GPRMC,094214.40,A,2234.31352954,N,11431.86765421,E,4.392,178.2,051224,3.4,W,D*29
$GNVTG,177.982,T,181.415,M,4.43659,N,8.21656,K,D*35
$GNHDT,103.4748,T*16
$GPGGA,094214.60,2234.31328237,N,11431.86766358,E,4,20,0.8,1.1409,M,-1.3521,M,01,0000*71
$GPRMC,094214.60,A,2234.31328237,N,11431.86766358,E,4.437,178.0,051224,3.4,W,D*28
$GNVTG,178.507,T,181.940,M,4.32535,N,8.01054,K,D*3F
$GNHDT,103.3491,T*16
$GPGGA,094214.80,2234.31304132,N,11431.86767035,E,4,20,0.8,1.1559,M,-1.3521,M,00,0000*7B
$GPRMC,094214.80,A,2234.31304132,N,11431.86767035,E,4.325,178.5,051224,3.4,W,D*26
$GNVTG,178.212,T,181.644,M,4.33219,N,8.02321,K,D*3D
$GNHDT,103.5274,T*1D
$GPGGA,094215.00,2234.31279993,N,11431.86767846,E,4,20,0.8,1.1630,M,-1.3521,M,01,0000*7B
$GPRMC,094215.00,A,2234.31279993,N,11431.86767846,E,4.332,178.2,051224,3.4,W,D*2A
$GNVTG,178.734,T,182.167,M,4.45878,N,8.25766,K,D*37
$GNHDT,102.6645,T*19
$GPGGA,094215.20,2234.31255143,N,11431.86768438,E,4,20,0.8,1.1939,M,-1.3521,M,01,0000*7E
$GPRMC,094215.20,A,2234.31255143,N,11431.86768438,E,4.459,178.7,051224,3.4,W,D*26
$GNVTG,177.943,T,181.376,M,4.27673,N,7.92051,K,D*36
$GNHDT,103.0722,T*1E
$GPGGA,094215.40,2234.31231317,N,11431.86769359,E,4,20,0.8,1.1506,M,-1.3521,M,01,0000*78
$GPRMC,094215.40,A,2234.31231317,N,11431.86769359,E,4.277,177.9,051224,3.4,W,D*2B
$GNVTG,177.518,T,180.951,M,4.38257,N,8.11652,K,D*37
$GNHDT,102.9241,T*16
$GPGGA,094215.60,2234.31206908,N,11431.86770498,E,4,20,0.8,1.1595,M,-1.3521,M,01,0000*72
$GPRMC,094215.60,A,2234.31206908,N,11431.86770498,E,4.383,177.5,051224,3.4,W,D*2D
$GNVTG,179.601,T,183.034,M,4.42201,N,8.18957,K,D*36
$GNHDT,102.3710,T*1D
$GPGGA,094215.80,2234.31182257,N,11431.86770683,E,4,20,0.8,1.1423,M,-1.3521,M,00,0000*77
$GPRMC,094215.80,A,2234.31182257,N,11431.86770683,E,4.422,179.6,051224,3.4,W,D*24
$GNVTG,179.354,T,182.786,M,4.18909,N,7.75819,K,D*3F
$GNHDT,103.3682,T*16
$GPGGA,094216.00,2234.31158906,N,11431.86770967,E,4,20,0.8,1.1607,M,-1.3521,M,01,0000*74
$GPRMC,094216.00,A,2234.31158906,N,11431.86770967,E,4.189,179.4,051224,3.4,W,D*24
$GNVTG,179.265,T,182.698,M,4.42952,N,8.20347,K,D*3C
$GNHDT,102.8874,T*1B
$GPGGA,094216.20,2234.31134214,N,11431.86771308,E,4,20,0.8,1.1653,M,-1.3520,M,01,0000*76
$GPRMC,094216.20,A,2234.31134214,N,11431.86771308,E,4.430,179.3,051224,3.4,W,D*26
$GNVTG,178.367,T,181.800,M,4.33059,N,8.02026,K,D*32
$GNHDT,102.7064,T*1D
$GPGGA,094216.40,2234.31110082,N,11431.86772049,E,4,20,0.8,1.1752,M,-1.3520,M,01,0000*7E
$GPRMC,094216.40,A,2234.31110082,N,11431.86772049,E,4.331,178.4,051224,3.4,W,D*2E
$GNVTG,177.205,T,180.638,M,4.33690,N,8.03193,K,D*31
$GNHDT,102.4033,T*1C
$GPGGA,094216.60,2234.31085934,N,11431.86773318,E,4,20,0.8,1.1593,M,-1.3520,M,01,0000*7C
$GPRMC,094216.60,A,2234.31085934,N,11431.86773318,E,4.337,177.2,051224,3.4,W,D*2C
$GNVTG,178.245,T,181.678,M,4.29553,N,7.95532,K,D*37
$GNHDT,102.1003,T*1A
$GPGGA,094216.80,2234.31061999,N,11431.86774108,E,4,20,0.8,1.1408,M,-1.3520,M,00,0000*79
$GPRMC,094216.80,A,2234.31061999,N,11431.86774108,E,4.296,178.2,051224,3.4,W,D*2E
$GNVTG,177.013,T,180.445,M,4.27327,N,7.91410,K,D*3A
$GNHDT,102.1076,T*18
$GPGGA,094217.00,2234.31038209,N,11431.86775445,E,4,22,0.7,1.1113,M,-1.3520,M,01,0000*70
$GPRMC,094217.00,A,2234.31038209,N,11431.86775445,E,4.273,177.0,051224,3.4,W,D*22
$GNVTG,177.645,T,181.078,M,4.16809,N,7.71931,K,D*31
$GNHDT,102.6302,T*1F
$GPGGA,094217.20,2234.31014993,N,11431.86776473,E,4,20,0.8,1.0711,M,-1.3520,M,01,0000*7A
$GPRMC,094217.20,A,2234.31014993,N,11431.86776473,E,4.168,177.6,051224,3.4,W,D*2F
$GNVTG,178.916,T,182.348,M,4.18831,N,7.75675,K,D*3A
$GNHDT,102.3162,T*1E
$GPGGA,094217.40,2234.30991648,N,11431.86776949,E,4,20,0.8,1.1476,M,-1.3520,M,01,0000*77
$GPRMC,094217.40,A,2234.30991648,N,11431.86776949,E,4.188,178.9,051224,3.4,W,D*2F
$GNVTG,177.347,T,180.779,M,4.14700,N,7.68024,K,D*30
$GNHDT,102.3956,T*11
$GPGGA,094217.60,2234.30968555,N,11431.86778101,E,4,21,0.7,1.1348,M,-1.3520,M,01,0000*72
$GPRMC,094217.60,A,2234.30968555,N,11431.86778101,E,4.147,177.3,051224,3.4,W,D*28
$GNVTG,175.992,T,179.424,M,4.07458,N,7.54612,K,D*3D
$GNHDT,102.5352,T*19
$GPGGA,094217.80,2234.30945896,N,11431.86779811,E,4,21,0.7,1.1035,M,-1.3520,M,00,0000*70
$GPRMC,094217.80,A,2234.30945896,N,11431.86779811,E,4.075,176.0,051224,3.4,W,D*20
$GNVTG,177.652,T,181.085,M,4.11654,N,7.62382,K,D*34
$GNHDT,101.8308,T*18
$GPGGA,094218.00,2234.30922967,N,11431.86780823,E,4,21,0.7,1.1071,M,-1.3520,M,01,0000*7F
$GPRMC,094218.00,A,2234.30922967,N,11431.86780823,E,4.117,177.7,051224,3.4,W,D*2D
$GNVTG,175.984,T,179.417,M,4.00633,N,7.41972,K,D*3F
$GNHDT,102.1782,T*14
$GPGGA,094218.20,2234.30900687,N,11431.86782507,E,4,22,0.7,1.0930,M,-1.3520,M,01,0000*7B
$GPRMC,094218.20,A,2234.30900687,N,11431.86782507,E,4.006,176.0,051224,3.4,W,D*20
$GNVTG,177.189,T,180.622,M,3.89566,N,7.21476,K,D*30
$GNHDT,102.9031,T*13
$GPGGA,094218.40,2234.30878996,N,11431.86783654,E,4,21,0.7,1.0844,M,-1.3520,M,01,0000*79
$GPRMC,094218.40,A,2234.30878996,N,11431.86783654,E,3.896,177.2,051224,3.4,W,D*26
$GNVTG,174.887,T,178.320,M,3.99358,N,7.39611,K,D*34
$GNHDT,102.6602,T*1A
$GPGGA,094218.60,2234.30856822,N,11431.86785790,E,4,20,0.7,1.0273,M,-1.3520,M,01,0000*79
$GPRMC,094218.60,A,2234.30856822,N,11431.86785790,E,3.994,174.9,051224,3.4,W,D*22
$GNVTG,175.013,T,178.446,M,3.87070,N,7.16854,K,D*33
$GNHDT,102.7684,T*15
$GPGGA,094218.80,2234.30835325,N,11431.86787810,E,4,20,0.7,1.0338,M,-1.3520,M,00,0000*74
$GPRMC,094218.80,A,2234.30835325,N,11431.86787810,E,3.871,175.0,051224,3.4,W,D*22
$GNVTG,174.540,T,177.973,M,3.99936,N,7.40682,K,D*37
$GNHDT,101.9596,T*18
$GPGGA,094219.00,2234.30813131,N,11431.86790094,E,4,20,0.7,1.0518,M,-1.3520,M,01,0000*79
$GPRMC,094219.00,A,2234.30813131,N,11431.86790094,E,3.999,174.5,051224,3.4,W,D*29
$GNVTG,173.894,T,177.327,M,3.96625,N,7.34549,K,D*3A
$GNHDT,102.0023,T*19
$GPGGA,094219.20,2234.30791146,N,11431.86792627,E,4,20,0.7,0.9660,M,-1.3519,M,01,0000*7C
$GPRMC,094219.20,A,2234.30791146,N,11431.86792627,E,3.966,173.9,051224,3.4,W,D*29
$GNVTG,174.412,T,177.845,M,3.99831,N,7.40486,K,D*35
$GNHDT,102.0625,T*19
$GPGGA,094219.40,2234.30768962,N,11431.86794964,E,4,21,0.7,0.9726,M,-1.3519,M,01,0000*7E
$GPRMC,094219.40,A,2234.30768962,N,11431.86794964,E,3.998,174.4,051224,3.4,W,D*22
$GNVTG,172.891,T,176.324,M,4.01088,N,7.42815,K,D*31
$GNHDT,102.0268,T*14
$GPGGA,094219.60,2234.30746775,N,11431.86797944,E,4,21,0.7,0.9356,M,-1.3519,M,01,0000*7A
$GPRMC,094219.60,A,2234.30746775,N,11431.86797944,E,4.011,172.9,051224,3.4,W,D*21
$GNVTG,175.150,T,178.583,M,3.96927,N,7.35110,K,D*3E
$GNHDT,101.8711,T*14
$GPGGA,094219.80,2234.30724726,N,11431.86799958,E,4,21,0.7,0.9731,M,-1.3519,M,01,0000*70
$GPRMC,094219.80,A,2234.30724726,N,11431.86799958,E,3.969,175.2,051224,3.4,W,D*23
$GNVTG,174.136,T,177.569,M,4.01413,N,7.43417,K,D*34
$GNHDT,101.4813,T*15
$GPGGA,094220.00,2234.30702466,N,11431.86802420,E,4,21,0.7,1.0025,M,-1.3519,M,02,0000*77
$GPRMC,094220.00,A,2234.30702466,N,11431.86802420,E,4.014,174.1,051224,3.4,W,D*2B
$GNVTG,173.889,T,177.322,M,4.08799,N,7.57097,K,D*36
$GNHDT,101.0845,T*12
$GPGGA,094220.20,2234.30679806,N,11431.86805032,E,4,20,0.7,1.0321,M,-1.3519,M,02,0000*74
$GPRMC,094220.20,A,2234.30679806,N,11431.86805032,E,4.088,173.9,051224,3.4,W,D*24
$GNVTG,173.303,T,176.736,M,4.04134,N,7.48456,K,D*35
$GNHDT,101.3665,T*1D
$GPGGA,094220.40,2234.30657430,N,11431.86807861,E,4,20,0.7,1.0109,M,-1.3519,M,02,0000*73
$GPRMC,094220.40,A,2234.30657430,N,11431.86807861,E,4.041,173.3,051224,3.4,W,D*24
$GNVTG,173.920,T,177.353,M,4.07946,N,7.55516,K,D*3F
$GNHDT,101.1664,T*1E
$GPGGA,094220.60,2234.30634817,N,11431.86810455,E,4,21,0.7,1.0292,M,-1.3519,M,02,0000*70
$GPRMC,094220.60,A,2234.30634817,N,11431.86810455,E,4.079,173.9,051224,3.4,W,D*26
$GNVTG,174.235,T,177.668,M,4.06645,N,7.53107,K,D*35
$GNHDT,100.8862,T*1E
$GPGGA,094220.80,2234.30612262,N,11431.86812907,E,4,21,0.7,1.0705,M,-1.3519,M,00,0000*73
$GPRMC,094220.80,A,2234.30612262,N,11431.86812907,E,4.066,174.2,051224,3.4,W,D*2E
$GNVTG,172.530,T,175.963,M,4.08253,N,7.56085,K,D*34
$GNHDT,100.2563,T*18
$GPGGA,094221.00,2234.30589696,N,11431.86816093,E,4,20,0.7,1.0768,M,-1.3519,M,01,0000*7F
$GPRMC,094221.00,A,2234.30589696,N,11431.86816093,E,4.083,172.5,051224,3.4,W,D*23
$GNVTG,175.762,T,179.195,M,4.07198,N,7.54131,K,D*3C
$GNHDT,99.7406,T*2E
$GPGGA,094221.20,2234.30567058,N,11431.86817899,E,4,20,0.7,1.1141,M,-1.3519,M,01,0000*76
$GPRMC,094221.20,A,2234.30567058,N,11431.86817899,E,4.072,175.8,051224,3.4,W,D*22
$GNVTG,175.160,T,178.593,M,4.10065,N,7.59441,K,D*31
$GNHDT,99.4660,T*2F
$GPGGA,094221.40,2234.30544280,N,11431.86819976,E,4,20,0.7,1.1187,M,-1.3519,M,01,0000*72
$GPRMC,094221.40,A,2234.30544280,N,11431.86819976,E,4.101,175.2,051224,3.4,W,D*23
$GNVTG,175.524,T,178.956,M,3.98036,N,7.37162,K,D*3D
$GNHDT,100.3153,T*1E
$GPGGA,094221.60,2234.30522158,N,11431.86821841,E,4,20,0.7,1.0947,M,-1.3519,M,01,0000*7D
$GPRMC,094221.60,A,2234.30522158,N,11431.86821841,E,3.980,175.5,051224,3.4,W,D*28
$GNVTG,174.923,T,178.356,M,4.04551,N,7.49229,K,D*3E
$GNHDT,99.6695,T*27
$GPGGA,094221.80,2234.30499694,N,11431.86823990,E,4,22,0.7,1.0919,M,-1.3519,M,00,0000*72
$GPRMC,094221.80,A,2234.30499694,N,11431.86823990,E,4.046,174.9,051224,3.4,W,D*26
$GNVTG,173.826,T,177.259,M,3.98148,N,7.37370,K,D*36
$GNHDT,99.8541,T*23
$GPGGA,094222.00,2234.30477627,N,11431.86826560,E,4,20,0.7,1.0880,M,-1.3519,M,01,0000*75
$GPRMC,094222.00,A,2234.30477627,N,11431.86826560,E,3.981,173.8,051224,3.4,W,D*20
$GNVTG,175.717,T,179.150,M,3.96399,N,7.34130,K,D*3C
$GNHDT,99.7257,T*2C
$GPGGA,094222.20,2234.30455590,N,11431.86828337,E,4,20,0.7,1.1045,M,-1.3518,M,01,0000*73
$GPRMC,094222.20,A,2234.30455590,N,11431.86828337,E,3.964,175.7,051224,3.4,W,D*25
$GNVTG,172.945,T,176.378,M,3.98601,N,7.38208,K,D*3B
$GNHDT,99.2117,T*2E
$GPGGA,094222.40,2234.30433538,N,11431.86831275,E,4,20,0.7,1.0915,M,-1.3518,M,01,0000*75
$GPRMC,094222.40,A,2234.30433538,N,11431.86831275,E,3.986,172.9,051224,3.4,W,D*2B
$GNVTG,173.205,T,176.638,M,3.91184,N,7.24473,K,D*30
$GNHDT,98.9051,T*27
$GPGGA,094222.60,2234.30411884,N,11431.86834054,E,4,20,0.7,1.1024,M,-1.3518,M,01,0000*73
$GPRMC,094222.60,A,2234.30411884,N,11431.86834054,E,3.912,173.2,051224,3.4,W,D*20
$GNVTG,171.745,T,175.178,M,3.87941,N,7.18467,K,D*3F
$GNHDT,98.9312,T*23
$GPGGA,094222.80,2234.30390481,N,11431.86837397,E,4,20,0.7,1.0992,M,-1.3518,M,00,0000*71
$GPRMC,094222.80,A,2234.30390481,N,11431.86837397,E,3.879,171.7,051224,3.4,W,D*2D
$GNVTG,171.880,T,175.313,M,3.85718,N,7.14350,K,D*39
$GNHDT,98.5686,T*27
$GPGGA,094223.00,2234.30369194,N,11431.86840667,E,4,21,0.7,1.1000,M,-1.3518,M,01,0000*76
$GPRMC,094223.00,A,2234.30369194,N,11431.86840667,E,3.857,171.9,051224,3.4,W,D*2B
$GNVTG,172.289,T,175.722,M,3.75237,N,6.94939,K,D*34
$GNHDT,98.8287,T*2F
$GPGGA,094223.20,2234.30348465,N,11431.86843690,E,4,21,0.7,1.0865,M,-1.3518,M,01,0000*7D
$GPRMC,094223.20,A,2234.30348465,N,11431.86843690,E,3.752,172.3,051224,3.4,W,D*29
$GNVTG,174.666,T,178.098,M,3.90981,N,7.24096,K,D*37
$GNHDT,97.9873,T*20
$GPGGA,094223.40,2234.30326763,N,11431.86845872,E,4,21,0.7,1.1305,M,-1.3518,M,01,0000*7E
$GPRMC,094223.40,A,2234.30326763,N,11431.86845872,E,3.910,174.7,051224,3.4,W,D*2C
$GNVTG,172.112,T,175.545,M,3.81238,N,7.06052,K,D*3C
$GNHDT,98.0858,T*2F
$GPGGA,094223.60,2234.30305711,N,11431.86849012,E,4,21,0.7,1.1020,M,-1.3518,M,00,0000*7F
$GPRMC,094223.60,A,2234.30305711,N,11431.86849012,E,3.812,172.1,051224,3.4,W,D*2B
$GNVTG,172.672,T,176.104,M,3.95299,N,7.32094,K,D*3C
$GNHDT,97.7255,T*20
$GPGGA,094223.80,2234.30283854,N,11431.86852039,E,4,21,0.7,1.1234,M,-1.3518,M,00,0000*74
$GPRMC,094223.80,A,2234.30283854,N,11431.86852039,E,3.953,172.7,051224,3.4,W,D*25
$GNVTG,171.884,T,175.317,M,3.89799,N,7.21907,K,D*32
$GNHDT,97.5899,T*28
$GPGGA,094224.00,2234.30262342,N,11431.86855342,E,4,21,0.7,1.1131,M,-1.3518,M,01,0000*77
$GPRMC,094224.00,A,2234.30262342,N,11431.86855342,E,3.898,171.9,051224,3.4,W,D*2A
$GNVTG,169.597,T,173.030,M,3.84906,N,7.12845,K,D*36
$GNHDT,97.6568,T*28
$GPGGA,094224.20,2234.30241237,N,11431.86859514,E,4,23,0.7,1.1209,M,-1.3518,M,01,0000*74
$GPRMC,094224.20,A,2234.30241237,N,11431.86859514,E,3.849,169.6,051224,3.4,W,D*29
$GNVTG,174.102,T,177.535,M,3.92608,N,7.27110,K,D*3F
$GNHDT,96.8323,T*2E
$GPGGA,094224.40,2234.30219466,N,11431.86861936,E,4,23,0.7,1.1624,M,-1.3518,M,01,0000*71
$GPRMC,094224.40,A,2234.30219466,N,11431.86861936,E,3.926,174.1,051224,3.4,W,D*24
$GNVTG,174.118,T,177.551,M,4.01317,N,7.43239,K,D*3A
$GNHDT,96.0452,T*27
$GPGGA,094224.60,2234.30197212,N,11431.86864405,E,4,22,0.7,1.2157,M,-1.3518,M,01,0000*7A
$GPRMC,094224.60,A,2234.30197212,N,11431.86864405,E,4.013,174.1,051224,3.4,W,D*26
$GNVTG,172.062,T,175.495,M,3.91641,N,7.25318,K,D*31
$GNHDT,96.7394,T*2D
$GPGGA,094224.80,2234.30175588,N,11431.86867651,E,4,21,0.7,1.2009,M,-1.3517,M,01,0000*7A
$GPRMC,094224.80,A,2234.30175588,N,11431.86867651,E,3.916,172.1,051224,3.4,W,D*2D
$GNVTG,173.559,T,176.991,M,4.04584,N,7.49289,K,D*35
$GNHDT,96.3440,T*27
$GPGGA,094225.00,2234.30153176,N,11431.86870376,E,4,21,0.7,1.1816,M,-1.3517,M,02,0000*72
$GPRMC,094225.00,A,2234.30153176,N,11431.86870376,E,4.046,173.6,051224,3.4,W,D*2E
$GNVTG,172.301,T,175.733,M,4.09983,N,7.59289,K,D*3D
$GNHDT,95.5479,T*28
$GPGGA,094225.20,2234.30130527,N,11431.86873673,E,4,21,0.7,1.2174,M,-1.3517,M,02,0000*78
$GPRMC,094225.20,A,2234.30130527,N,11431.86873673,E,4.100,172.3,051224,3.4,W,D*2D
$GNVTG,173.062,T,176.495,M,3.97290,N,7.35781,K,D*38
$GNHDT,96.2011,T*26
$GPGGA,094225.40,2234.30108541,N,11431.86876553,E,4,23,0.7,1.2202,M,-1.3517,M,02,0000*71
$GPRMC,094225.40,A,2234.30108541,N,11431.86876553,E,3.973,173.1,051224,3.4,W,D*2C
$GNVTG,171.663,T,175.096,M,4.09739,N,7.58837,K,D*36
$GNHDT,95.6935,T*2E
$GPGGA,094225.60,2234.30085941,N,11431.86880120,E,4,22,0.7,1.2388,M,-1.3517,M,02,0000*70
$GPRMC,094225.60,A,2234.30085941,N,11431.86880120,E,4.097,171.7,051224,3.4,W,D*2F
$GNVTG,172.346,T,175.778,M,4.02493,N,7.45418,K,D*35
$GNHDT,95.4743,T*23
$GPGGA,094225.80,2234.30063703,N,11431.86883338,E,4,20,0.8,1.2510,M,-1.3517,M,00,0000*7E
$GPRMC,094225.80,A,2234.30063703,N,11431.86883338,E,4.025,172.3,051224,3.4,W,D*27
$GNVTG,173.364,T,176.796,M,4.13314,N,7.65457,K,D*36
$GNHDT,94.9959,T*2A
$GPGGA,094226.00,2234.30040816,N,11431.86886205,E,4,21,0.7,1.2456,M,-1.3517,M,01,0000*79
$GPRMC,094226.00,A,2234.30040816,N,11431.86886205,E,4.133,173.4,051224,3.4,W,D*2C
$GNVTG,172.188,T,175.621,M,4.00123,N,7.41028,K,D*37
$GNHDT,95.1863,T*2B
$GPGGA,094226.20,2234.30018717,N,11431.86889469,E,4,21,0.7,1.2483,M,-1.3517,M,01,0000*73
$GPRMC,094226.20,A,2234.30018717,N,11431.86889469,E,4.001,172.2,051224,3.4,W,D*29
$GNVTG,169.144,T,172.577,M,3.87041,N,7.16801,K,D*36
$GNHDT,95.5751,T*21
$GPGGA,094226.40,2234.29997527,N,11431.86893845,E,4,21,0.7,1.1742,M,-1.3517,M,01,0000*76
$GPRMC,094226.40,A,2234.29997527,N,11431.86893845,E,3.870,169.1,051224,3.4,W,D*21
$GNVTG,172.426,T,175.858,M,3.99765,N,7.40365,K,D*3E
$GNHDT,94.9002,T*2D
$GPGGA,094226.60,2234.29975436,N,11431.86897008,E,4,24,0.7,1.1457,M,-1.3517,M,00,0000*7F
$GPRMC,094226.60,A,2234.29975436,N,11431.86897008,E,3.998,172.4,051224,3.4,W,D*23
$GNVTG,172.745,T,176.177,M,3.91185,N,7.24476,K,D*38
$GNHDT,94.8801,T*27
$GPGGA,094226.80,2234.29953803,N,11431.86899973,E,4,24,0.7,1.1573,M,-1.3517,M,00,0000*73
$GPRMC,094226.80,A,2234.29953803,N,11431.86899973,E,3.912,172.7,051224,3.4,W,D*29
$GNVTG,170.726,T,174.159,M,3.95445,N,7.32365,K,D*3E
$GNHDT,94.1578,T*2D
$GPGGA,094227.00,2234.29932046,N,11431.86903799,E,4,24,0.7,1.1289,M,-1.3517,M,01,0000*7F
$GPRMC,094227.00,A,2234.29932046,N,11431.86903799,E,3.954,170.7,051224,3.4,W,D*26
$GNVTG,170.589,T,174.022,M,3.85607,N,7.14144,K,D*34
$GNHDT,94.3183,T*2F
$GPGGA,094227.20,2234.29910839,N,11431.86907584,E,4,23,0.7,1.0941,M,-1.3517,M,01,0000*7E
$GPRMC,094227.20,A,2234.29910839,N,11431.86907584,E,3.856,170.6,051224,3.4,W,D*2C
$GNVTG,171.336,T,174.768,M,3.86260,N,7.15353,K,D*3D
$GNHDT,94.2453,T*26
$GPGGA,094227.40,2234.29889552,N,11431.86911077,E,4,22,0.7,1.0937,M,-1.3516,M,01,0000*76
$GPRMC,094227.40,A,2234.29889552,N,11431.86911077,E,3.863,171.3,051224,3.4,W,D*27
$GNVTG,168.456,T,171.888,M,3.84097,N,7.11347,K,D*39
$GNHDT,94.1212,T*26
$GPGGA,094227.60,2234.29868573,N,11431.86915691,E,4,22,0.7,1.1036,M,-1.3516,M,00,0000*7A
$GPRMC,094227.60,A,2234.29868573,N,11431.86915691,E,3.841,168.5,051224,3.4,W,D*2D
$GNVTG,167.186,T,170.619,M,3.91247,N,7.24589,K,D*30
$GNHDT,93.9048,T*24
$GPGGA,094227.80,2234.29847305,N,11431.86920899,E,4,23,0.7,1.0635,M,-1.3516,M,00,0000*7B
$GPRMC,094227.80,A,2234.29847305,N,11431.86920899,E,3.912,167.2,051224,3.4,W,D*26
$GNVTG,168.097,T,171.530,M,3.81985,N,7.07437,K,D*36
$GNHDT,94.0114,T*22
$GPGGA,094228.00,2234.29826468,N,11431.86925629,E,4,22,0.7,1.0634,M,-1.3516,M,01,0000*76
$GPRMC,094228.00,A,2234.29826468,N,11431.86925629,E,3.820,168.1,051224,3.4,W,D*26
$GNVTG,165.978,T,169.411,M,3.82036,N,7.07530,K,D*3C
$GNHDT,93.8568,T*22
$GPGGA,094228.20,2234.29805806,N,11431.86931185,E,4,21,0.7,0.9727,M,-1.3516,M,01,0000*7D
$GPRMC,094228.20,A,2234.29805806,N,11431.86931185,E,3.820,166.0,051224,3.4,W,D*2A
$GNVTG,167.750,T,171.183,M,3.86821,N,7.16392,K,D*39
$GNHDT,93.4661,T*24
$GPGGA,094228.40,2234.29784732,N,11431.86936112,E,4,22,0.7,0.9909,M,-1.3516,M,01,0000*7D
$GPRMC,094228.40,A,2234.29784732,N,11431.86936112,E,3.868,167.7,051224,3.4,W,D*21
$GNVTG,166.926,T,170.359,M,3.87694,N,7.18009,K,D*3D
$GNHDT,93.0165,T*23
$GPGGA,094228.60,2234.29763680,N,11431.86941376,E,4,21,0.7,0.9728,M,-1.3516,M,01,0000*70
$GPRMC,094228.60,A,2234.29763680,N,11431.86941376,E,3.877,166.9,051224,3.4,W,D*23
$GNVTG,166.200,T,169.633,M,3.76832,N,6.97893,K,D*32
$GNHDT,92.9957,T*22
$GPGGA,094228.80,2234.29743279,N,11431.86946772,E,4,21,0.7,0.9968,M,-1.3516,M,00,0000*72
$GPRMC,094228.80,A,2234.29743279,N,11431.86946772,E,3.768,166.2,051224,3.4,W,D*20
$GNVTG,164.618,T,168.051,M,3.81291,N,7.06152,K,D*38
$GNHDT,92.9982,T*2A
$GPGGA,094229.00,2234.29722784,N,11431.86952843,E,4,22,0.7,0.9834,M,-1.3516,M,01,0000*79
$GPRMC,094229.00,A,2234.29722784,N,11431.86952843,E,3.813,164.6,051224,3.4,W,D*24
$GNVTG,165.624,T,169.057,M,3.89265,N,7.20919,K,D*31
$GNHDT,92.3464,T*25
$GPGGA,094229.20,2234.29701763,N,11431.86958644,E,4,22,0.7,0.9802,M,-1.3516,M,01,0000*75
$GPRMC,094229.20,A,2234.29701763,N,11431.86958644,E,3.893,165.6,051224,3.4,W,D*24
$GNVTG,164.657,T,168.090,M,3.86914,N,7.16564,K,D*3F
$GNHDT,92.4727,T*26
$GPGGA,094229.40,2234.29680963,N,11431.86964790,E,4,21,0.7,1.0093,M,-1.3516,M,01,0000*79
$GPRMC,094229.40,A,2234.29680963,N,11431.86964790,E,3.869,164.7,051224,3.4,W,D*26
$GNVTG,163.904,T,167.337,M,3.84645,N,7.12363,K,D*3C
$GNHDT,92.2585,T*2A
$GPGGA,094229.60,2234.29660361,N,11431.86971191,E,4,21,0.7,1.0155,M,-1.3516,M,00,0000*74
$GPRMC,094229.60,A,2234.29660361,N,11431.86971191,E,3.846,163.9,051224,3.4,W,D*25
$GNVTG,164.651,T,168.084,M,3.89490,N,7.21336,K,D*37
$GNHDT,91.7109,T*2C
$GPGGA,094229.80,2234.29639422,N,11431.86977379,E,4,20,0.8,1.0406,M,-1.3515,M,00,0000*7A
$GPRMC,094229.80,A,2234.29639422,N,11431.86977379,E,3.895,164.7,051224,3.4,W,D*22
$GNVTG,162.752,T,166.184,M,3.79253,N,7.02377,K,D*3E
$GNHDT,92.0842,T*2E
$GPGGA,094230.00,2234.29619231,N,11431.86984130,E,4,20,0.8,1.0200,M,-1.3515,M,01,0000*7E
$GPRMC,094230.00,A,2234.29619231,N,11431.86984130,E,3.793,162.8,051224,3.4,W,D*27
$GNVTG,163.900,T,167.333,M,3.88167,N,7.18886,K,D*3D
$GNHDT,91.4532,T*23
$GPGGA,094230.20,2234.29598440,N,11431.86990591,E,4,22,0.7,1.0475,M,-1.3515,M,01,0000*75
$GPRMC,094230.20,A,2234.29598440,N,11431.86990591,E,3.882,163.9,051224,3.4,W,D*2A
$GNVTG,165.906,T,169.339,M,3.77269,N,6.98702,K,D*3E
$GNHDT,91.4522,T*22
$GPGGA,094230.40,2234.29578042,N,11431.86996106,E,4,21,0.7,1.0984,M,-1.3515,M,01,0000*77
$GPRMC,094230.40,A,2234.29578042,N,11431.86996106,E,3.773,165.9,051224,3.4,W,D*2F
$GNVTG,165.091,T,168.524,M,3.98139,N,7.37353,K,D*31
$GNHDT,90.7599,T*20
$GPGGA,094230.60,2234.29556594,N,11431.87002255,E,4,21,0.7,1.1357,M,-1.3515,M,00,0000*73
$GPRMC,094230.60,A,2234.29556594,N,11431.87002255,E,3.981,165.1,051224,3.4,W,D*24
$GNVTG,163.707,T,167.140,M,3.82967,N,7.09254,K,D*35
$GNHDT,91.0337,T*24
$GPGGA,094230.80,2234.29536102,N,11431.87008704,E,4,22,0.7,1.1177,M,-1.3515,M,00,0000*78
$GPRMC,094230.80,A,2234.29536102,N,11431.87008704,E,3.830,163.7,051224,3.4,W,D*27
$GNVTG,165.878,T,169.310,M,3.95933,N,7.33268,K,D*3C
$GNHDT,90.4781,T*28
$GPGGA,094231.00,2234.29514697,N,11431.87014503,E,4,21,0.8,1.1347,M,-1.3515,M,01,0000*7E
$GPRMC,094231.00,A,2234.29514697,N,11431.87014503,E,3.959,165.9,051224,3.4,W,D*2B
$GNVTG,161.077,T,164.510,M,3.89361,N,7.21096,K,D*34
$GNHDT,91.0537,T*22
$GPGGA,094231.20,2234.29494164,N,11431.87022082,E,4,21,0.8,1.0499,M,-1.3515,M,01,0000*72
$GPRMC,094231.20,A,2234.29494164,N,11431.87022082,E,3.894,161.1,051224,3.4,W,D*2E
$GNVTG,165.149,T,168.582,M,3.99480,N,7.39837,K,D*38
$GNHDT,90.4845,T*2F
$GPGGA,094231.40,2234.29472638,N,11431.87028228,E,4,21,0.8,1.0707,M,-1.3515,M,01,0000*7E
$GPRMC,094231.40,A,2234.29472638,N,11431.87028228,E,3.995,165.1,051224,3.4,W,D*22
$GNVTG,164.825,T,168.257,M,3.91487,N,7.25033,K,D*3B
$GNHDT,90.3051,T*25
$GPGGA,094231.60,2234.29451575,N,11431.87034380,E,4,21,0.8,1.1090,M,-1.3515,M,01,0000*71
$GPRMC,094231.60,A,2234.29451575,N,11431.87034380,E,3.915,164.8,051224,3.4,W,D*25
$GNVTG,164.640,T,168.073,M,3.92140,N,7.26244,K,D*3E
$GNHDT,90.2814,T*2D
$GPGGA,094231.80,2234.29430495,N,11431.87040615,E,4,20,0.8,1.1526,M,-1.3514,M,00,0000*74
$GPRMC,094231.80,A,2234.29430495,N,11431.87040615,E,3.921,164.6,051224,3.4,W,D*20
$GNVTG,164.850,T,168.283,M,4.00273,N,7.41306,K,D*35
$GNHDT,90.0438,T*2D
$GPGGA,094232.00,2234.29408956,N,11431.87046894,E,4,20,0.8,1.1337,M,-1.3514,M,01,0000*70
$GPRMC,094232.00,A,2234.29408956,N,11431.87046894,E,4.003,164.9,051224,3.4,W,D*22
$GNVTG,165.797,T,169.229,M,3.99221,N,7.39357,K,D*3A
$GNHDT,90.2069,T*2F
$GPGGA,094232.20,2234.29387381,N,11431.87052774,E,4,19,0.8,1.1351,M,-1.3514,M,01,0000*7C
$GPRMC,094232.20,A,2234.29387381,N,11431.87052774,E,3.992,165.8,051224,3.4,W,D*22
$GNVTG,166.280,T,169.713,M,4.08278,N,7.56131,K,D*3E
$GNHDT,89.6016,T*2B
$GPGGA,094232.40,2234.29365270,N,11431.87058586,E,4,19,0.8,1.1780,M,-1.3514,M,01,0000*74
$GPRMC,094232.40,A,2234.29365270,N,11431.87058586,E,4.083,166.3,051224,3.4,W,D*24
$GNVTG,165.882,T,169.315,M,3.96581,N,7.34468,K,D*3B
$GNHDT,90.0219,T*28
$GPGGA,094232.60,2234.29343830,N,11431.87064393,E,4,20,0.8,1.1751,M,-1.3514,M,01,0000*77
$GPRMC,094232.60,A,2234.29343830,N,11431.87064393,E,3.966,165.9,051224,3.4,W,D*2D
$GNVTG,166.980,T,170.413,M,4.07635,N,7.54940,K,D*30
$GNHDT,89.3406,T*2B
$GPGGA,094232.80,2234.29321689,N,11431.87069906,E,4,20,0.8,1.1987,M,-1.3514,M,00,0000*7E
$GPRMC,094232.80,A,2234.29321689,N,11431.87069906,E,4.076,167.0,051224,3.4,W,D*24
$GNVTG,164.903,T,168.335,M,3.94307,N,7.30257,K,D*35
$GNHDT,89.5638,T*22
$GPGGA,094233.00,2234.29300467,N,11431.87076070,E,4,20,0.8,1.2072,M,-1.3514,M,01,0000*71
$GPRMC,094233.00,A,2234.29300467,N,11431.87076070,E,3.943,164.9,051224,3.4,W,D*28
$GNVTG,165.594,T,169.026,M,4.02695,N,7.45792,K,D*3E
$GNHDT,89.1533,T*2E
$GPGGA,094233.20,2234.29278723,N,11431.87082084,E,4,19,0.8,1.1598,M,-1.3514,M,01,0000*76
$GPRMC,094233.20,A,2234.29278723,N,11431.87082084,E,4.027,165.6,051224,3.4,W,D*25
$GNVTG,166.352,T,169.785,M,3.88065,N,7.18696,K,D*3E
$GNHDT,89.5501,T*2B
$GPGGA,094233.40,2234.29257701,N,11431.87087581,E,4,19,0.8,1.1197,M,-1.3514,M,01,0000*73
$GPRMC,094233.40,A,2234.29257701,N,11431.87087581,E,3.881,166.4,051224,3.4,W,D*29
$GNVTG,164.668,T,168.101,M,3.97271,N,7.35746,K,D*31
$GNHDT,89.2306,T*2D
$GPGGA,094233.60,2234.29236342,N,11431.87093886,E,4,18,0.8,1.1412,M,-1.3514,M,00,0000*72
$GPRMC,094233.60,A,2234.29236342,N,11431.87093886,E,3.973,164.7,051224,3.4,W,D*2D
$GNVTG,166.249,T,169.682,M,3.92215,N,7.26382,K,D*30
$GNHDT,89.0615,T*28
$GPGGA,094233.80,2234.29215104,N,11431.87099482,E,4,19,0.8,1.1731,M,-1.3514,M,00,0000*7C
$GPRMC,094233.80,A,2234.29215104,N,11431.87099482,E,3.922,166.2,051224,3.4,W,D*23
$GNVTG,163.826,T,167.259,M,3.85930,N,7.14743,K,D*38
$GNHDT,89.0938,T*28
$GPGGA,094234.00,2234.29194441,N,11431.87105935,E,4,19,0.8,1.1345,M,-1.3514,M,01,0000*7E
$GPRMC,094234.00,A,2234.29194441,N,11431.87105935,E,3.859,163.8,051224,3.4,W,D*25
$GNVTG,165.070,T,168.503,M,3.84281,N,7.11688,K,D*31
$GNHDT,89.0415,T*2A
$GPGGA,094234.20,2234.29173742,N,11431.87111878,E,4,18,0.8,1.0920,M,-1.3513,M,01,0000*76
$GPRMC,094234.20,A,2234.29173742,N,11431.87111878,E,3.843,165.1,051224,3.4,W,D*27
$GNVTG,165.496,T,168.929,M,3.80634,N,7.04934,K,D*3B
$GNHDT,89.2316,T*2C
$GPGGA,094234.40,2234.29153199,N,11431.87117600,E,4,20,0.8,1.1075,M,-1.3513,M,01,0000*76
$GPRMC,094234.40,A,2234.29153199,N,11431.87117600,E,3.806,165.5,051224,3.4,W,D*21
$GNVTG,162.607,T,166.040,M,3.88503,N,7.19507,K,D*31
$GNHDT,89.0469,T*21
$GPGGA,094234.60,2234.29132531,N,11431.87124571,E,4,20,0.8,1.0782,M,-1.3513,M,00,0000*7F
$GPRMC,094234.60,A,2234.29132531,N,11431.87124571,E,3.885,162.6,051224,3.4,W,D*28
$GNVTG,163.370,T,166.803,M,3.84391,N,7.11892,K,D*32
$GNHDT,89.0694,T*21
$GPGGA,094234.80,2234.29111999,N,11431.87131175,E,4,20,0.8,1.0951,M,-1.3513,M,00,0000*7A
$GPRMC,094234.80,A,2234.29111999,N,11431.87131175,E,3.844,163.4,051224,3.4,W,D*23
$GNVTG,163.732,T,167.165,M,3.84570,N,7.12223,K,D*32
$GNHDT,89.1284,T*25
$GPGGA,094235.00,2234.29091418,N,11431.87137641,E,4,20,0.8,1.1034,M,-1.3513,M,01,0000*72
$GPRMC,094235.00,A,2234.29091418,N,11431.87137641,E,3.846,163.7,051224,3.4,W,D*20
$GNVTG,162.605,T,166.038,M,3.92316,N,7.26569,K,D*31
$GNHDT,88.7567,T*28
$GPGGA,094235.20,2234.29070548,N,11431.87144681,E,4,21,0.8,1.1074,M,-1.3513,M,01,0000*76
$GPRMC,094235.20,A,2234.29070548,N,11431.87144681,E,3.923,162.6,051224,3.4,W,D*23
$GNVTG,161.599,T,165.032,M,3.89703,N,7.21731,K,D*3F
$GNHDT,89.0115,T*2F
$GPGGA,094235.40,2234.29049934,N,11431.87152066,E,4,21,0.8,1.0634,M,-1.3513,M,01,0000*76
$GPRMC,094235.40,A,2234.29049934,N,11431.87152066,E,3.897,161.6,051224,3.4,W,D*2D
$GNVTG,163.215,T,166.648,M,3.86843,N,7.16433,K,D*37
$GNHDT,88.5407,T*2D
$GPGGA,094235.60,2234.29029287,N,11431.87158771,E,4,22,0.7,1.0861,M,-1.3513,M,00,0000*79
$GPRMC,094235.60,A,2234.29029287,N,11431.87158771,E,3.868,163.2,051224,3.4,W,D*27
$GNVTG,162.920,T,166.353,M,3.86840,N,7.16428,K,D*3D
$GNHDT,88.7102,T*2F
$GPGGA,094235.80,2234.29008673,N,11431.87165591,E,4,21,0.7,1.0502,M,-1.3513,M,00,0000*72
$GPRMC,094235.80,A,2234.29008673,N,11431.87165591,E,3.868,162.9,051224,3.4,W,D*2D
$GNVTG,161.892,T,165.325,M,3.89893,N,7.22082,K,D*36
$GNHDT,88.5894,T*2B
$GPGGA,094236.00,2234.28988014,N,11431.87172866,E,4,21,0.7,1.0557,M,-1.3512,M,01,0000*7D
$GPRMC,094236.00,A,2234.28988014,N,11431.87172866,E,3.899,161.9,051224,3.4,W,D*2F
$GNVTG,161.147,T,164.580,M,3.94978,N,7.31498,K,D*3A
$GNHDT,88.5196,T*20
$GPGGA,094236.20,2234.28967177,N,11431.87180527,E,4,22,0.7,1.0331,M,-1.3512,M,01,0000*7A
$GPRMC,094236.20,A,2234.28967177,N,11431.87180527,E,3.950,161.1,051224,3.4,W,D*21
$GNVTG,163.054,T,166.487,M,3.84644,N,7.12360,K,D*3F
$GNHDT,88.5371,T*2B
$GPGGA,094236.40,2234.28946665,N,11431.87187257,E,4,21,0.8,1.0806,M,-1.3512,M,01,0000*7F
$GPRMC,094236.40,A,2234.28946665,N,11431.87187257,E,3.846,163.1,051224,3.4,W,D*23
$GNVTG,161.352,T,164.785,M,3.96497,N,7.34312,K,D*35
$GNHDT,88.2718,T*27
$GPGGA,094236.60,2234.28925722,N,11431.87194867,E,4,21,0.8,1.1214,M,-1.3512,M,01,0000*79
$GPRMC,094236.60,A,2234.28925722,N,11431.87194867,E,3.965,161.4,051224,3.4,W,D*2A
$GNVTG,161.022,T,164.455,M,3.94808,N,7.31185,K,D*3E
$GNHDT,88.3344,T*2B
$GPGGA,094236.80,2234.28904909,N,11431.87202574,E,4,21,0.7,1.0869,M,-1.3512,M,01,0000*7E
$GPRMC,094236.80,A,2234.28904909,N,11431.87202574,E,3.948,161.0,051224,3.4,W,D*28
$GNVTG,158.119,T,161.552,M,4.02793,N,7.45973,K,D*39
$GNHDT,88.2838,T*2A
$GPGGA,094237.00,2234.28884072,N,11431.87211585,E,4,20,0.8,1.0921,M,-1.3512,M,02,0000*77
$GPRMC,094237.00,A,2234.28884072,N,11431.87211585,E,4.028,158.1,051224,3.4,W,D*22
$GNVTG,162.339,T,165.772,M,4.09328,N,7.58075,K,D*38
$GNHDT,88.2877,T*21
$GPGGA,094237.20,2234.28862328,N,11431.87219039,E,4,21,0.7,1.1276,M,-1.3512,M,02,0000*7D
$GPRMC,094237.20,A,2234.28862328,N,11431.87219039,E,4.093,162.3,051224,3.4,W,D*25
$GNVTG,159.189,T,162.622,M,4.07955,N,7.55532,K,D*3F
$GNHDT,87.8562,T*2D
$GPGGA,094237.40,2234.28841070,N,11431.87227739,E,4,21,0.7,1.1361,M,-1.3512,M,02,0000*79
$GPRMC,094237.40,A,2234.28841070,N,11431.87227739,E,4.080,159.2,051224,3.4,W,D*2D
$GNVTG,162.044,T,165.477,M,4.02015,N,7.44531,K,D*39
$GNHDT,87.5725,T*21
$GPGGA,094237.60,2234.28819750,N,11431.87235179,E,4,19,0.8,1.1436,M,-1.3512,M,02,0000*73
$GPRMC,094237.60,A,2234.28819750,N,11431.87235179,E,4.020,162.0,051224,3.4,W,D*26
$GNVTG,162.138,T,165.571,M,4.02464,N,7.45364,K,D*31
$GNHDT,87.6217,T*26
$GPGGA,094237.80,2234.28798395,N,11431.87242589,E,4,19,0.8,1.1913,M,-1.3512,M,00,0000*75
$GPRMC,094237.80,A,2234.28798395,N,11431.87242589,E,4.025,162.1,051224,3.4,W,D*2C
$GNVTG,161.782,T,165.215,M,3.94238,N,7.30128,K,D*3F
$GNHDT,87.9696,T*24
$GPGGA,094238.00,2234.28777519,N,11431.87249987,E,4,22,0.7,1.1611,M,-1.3511,M,01,0000*70
$GPRMC,094238.00,A,2234.28777519,N,11431.87249987,E,3.942,161.8,051224,3.4,W,D*24
$GNVTG,161.307,T,164.739,M,4.02586,N,7.45589,K,D*3B
$GNHDT,87.6986,T*25
$GPGGA,094238.20,2234.28756260,N,11431.87257732,E,4,21,0.7,1.1967,M,-1.3511,M,01,0000*7A
$GPRMC,094238.20,A,2234.28756260,N,11431.87257732,E,4.026,161.3,051224,3.4,W,D*24
$GNVTG,160.283,T,163.715,M,3.90564,N,7.23325,K,D*3E
$GNHDT,87.6355,T*21
$GPGGA,094238.40,2234.28735764,N,11431.87265642,E,4,20,0.7,1.1332,M,-1.3511,M,01,0000*74
$GPRMC,094238.40,A,2234.28735764,N,11431.87265642,E,3.906,160.3,051224,3.4,W,D*2C
$GNVTG,160.805,T,164.237,M,4.05784,N,7.51513,K,D*39
$GNHDT,86.8766,T*2A
$GPGGA,094238.60,2234.28714400,N,11431.87273650,E,4,19,0.8,1.1365,M,-1.3511,M,01,0000*77
$GPRMC,094238.60,A,2234.28714400,N,11431.87273650,E,4.058,160.8,051224,3.4,W,D*26
$GNVTG,160.587,T,164.019,M,3.86487,N,7.15774,K,D*3F
$GNHDT,87.3799,T*20
$GPGGA,094238.80,2234.28694080,N,11431.87281361,E,4,19,0.8,1.1362,M,-1.3511,M,01,0000*71
$GPRMC,094238.80,A,2234.28694080,N,11431.87281361,E,3.865,160.6,051224,3.4,W,D*28
$GNVTG,161.171,T,164.604,M,3.91122,N,7.24358,K,D*3D
$GNHDT,87.5748,T*2A
$GPGGA,094239.00,2234.28673443,N,11431.87288938,E,4,19,0.8,1.1235,M,-1.3511,M,02,0000*75
$GPRMC,094239.00,A,2234.28673443,N,11431.87288938,E,3.911,161.2,051224,3.4,W,D*2B
$GNVTG,160.278,T,163.711,M,3.89069,N,7.20556,K,D*3F
$GNHDT,87.1337,T*22
$GPGGA,094239.20,2234.28653025,N,11431.87296820,E,4,20,0.8,1.1351,M,-1.3511,M,02,0000*7F
$GPRMC,094239.20,A,2234.28653025,N,11431.87296820,E,3.891,160.3,051224,3.4,W,D*21
$GNVTG,161.910,T,165.343,M,3.84199,N,7.11536,K,D*39
$GNHDT,87.4966,T*29
$GPGGA,094239.40,2234.28632666,N,11431.87303980,E,4,20,0.8,1.1383,M,-1.3511,M,02,0000*76
$GPRMC,094239.40,A,2234.28632666,N,11431.87303980,E,3.842,161.9,051224,3.4,W,D*22
$GNVTG,161.124,T,164.557,M,3.75070,N,6.94629,K,D*3D
$GNHDT,87.5333,T*22
$GPGGA,094239.60,2234.28612881,N,11431.87311264,E,4,20,0.8,1.1599,M,-1.3511,M,02,0000*7E
$GPRMC,094239.60,A,2234.28612881,N,11431.87311264,E,3.751,161.1,051224,3.4,W,D*22
$GNVTG,160.497,T,163.930,M,3.83204,N,7.09694,K,D*30
$GNHDT,87.2794,T*2C
$GPGGA,094239.80,2234.28592745,N,11431.87318944,E,4,22,0.7,1.1772,M,-1.3511,M,02,0000*76
$GPRMC,094239.80,A,2234.28592745,N,11431.87318944,E,3.832,160.5,051224,3.4,W,D*2F
$GNVTG,160.767,T,164.200,M,3.93695,N,7.29123,K,D*37
$GNHDT,87.1675,T*21
$GPGGA,094240.00,2234.28572022,N,11431.87326728,E,4,22,0.7,1.1292,M,-1.3511,M,03,0000*7B
$GPRMC,094240.00,A,2234.28572022,N,11431.87326728,E,3.937,160.8,051224,3.4,W,D*21
$GNVTG,163.783,T,167.215,M,3.81897,N,7.07273,K,D*3C
$GNHDT,87.1076,T*24
$GPGGA,094240.20,2234.28551580,N,11431.87333131,E,4,22,0.7,1.1199,M,-1.3511,M,03,0000*77
$GPRMC,094240.20,A,2234.28551580,N,11431.87333131,E,3.819,163.8,051224,3.4,W,D*2B
$GNVTG,160.935,T,164.368,M,3.88806,N,7.20068,K,D*38
$GNHDT,87.1486,T*2F
$GPGGA,094240.40,2234.28531094,N,11431.87340754,E,4,22,0.7,1.0801,M,-1.3510,M,03,0000*7E
$GPRMC,094240.40,A,2234.28531094,N,11431.87340754,E,3.888,160.9,051224,3.4,W,D*20
$GNVTG,160.417,T,163.850,M,3.86254,N,7.15342,K,D*3C
$GNHDT,86.9898,T*25
$GPGGA,094240.60,2234.28510807,N,11431.87348525,E,4,21,0.8,1.1067,M,-1.3510,M,03,0000*74
$GPRMC,094240.60,A,2234.28510807,N,11431.87348525,E,3.863,160.4,051224,3.4,W,D*27
$GNVTG,161.686,T,165.118,M,3.83487,N,7.10218,K,D*32
$GNHDT,87.3061,T*20
$GPGGA,094240.80,2234.28490511,N,11431.87355758,E,4,20,0.8,1.0777,M,-1.3510,M,00,0000*78
$GPRMC,094240.80,A,2234.28490511,N,11431.87355758,E,3.835,161.7,051224,3.4,W,D*2F
$GNVTG,161.161,T,164.594,M,3.86216,N,7.15273,K,D*3E
$GNHDT,87.8074,T*2F
$GPGGA,094241.00,2234.28470134,N,11431.87363245,E,4,20,0.8,1.0760,M,-1.3510,M,01,0000*77
$GPRMC,094241.00,A,2234.28470134,N,11431.87363245,E,3.862,161.2,051224,3.4,W,D*20
$GNVTG,161.655,T,165.087,M,3.95156,N,7.31828,K,D*3F
$GNHDT,87.7525,T*21
$GPGGA,094241.20,2234.28449225,N,11431.87370710,E,4,20,0.8,1.1135,M,-1.3510,M,01,0000*7C
$GPRMC,094241.20,A,2234.28449225,N,11431.87370710,E,3.952,161.7,051224,3.4,W,D*2B
$GNVTG,160.979,T,164.412,M,3.96398,N,7.34128,K,D*39
$GNHDT,87.8176,T*2C
$GPGGA,094241.40,2234.28428333,N,11431.87378465,E,4,19,0.8,1.0866,M,-1.3510,M,01,0000*76
$GPRMC,094241.40,A,2234.28428333,N,11431.87378465,E,3.964,161.0,051224,3.4,W,D*27
$GNVTG,160.734,T,164.167,M,4.04512,N,7.49156,K,D*32
$GNHDT,87.6418,T*2F
$GPGGA,094241.60,2234.28407046,N,11431.87386477,E,4,19,0.8,1.0919,M,-1.3510,M,01,0000*73
$GPRMC,094241.60,A,2234.28407046,N,11431.87386477,E,4.045,160.7,051224,3.4,W,D*20
$GNVTG,161.290,T,164.723,M,4.08492,N,7.56527,K,D*37
$GNHDT,87.9213,T*2D
$GPGGA,094241.80,2234.28385477,N,11431.87394342,E,4,19,0.8,1.0683,M,-1.3510,M,00,0000*79
$GPRMC,094241.80,A,2234.28385477,N,11431.87394342,E,4.085,161.3,051224,3.4,W,D*2E
$GNVTG,160.133,T,163.566,M,4.14616,N,7.67868,K,D*3F
$GNHDT,87.7966,T*2A
$GPGGA,094242.00,2234.28363739,N,11431.87402800,E,4,19,0.8,1.0741,M,-1.3510,M,01,0000*78
$GPRMC,094242.00,A,2234.28363739,N,11431.87402800,E,4.146,160.1,051224,3.4,W,D*2C
$GNVTG,161.336,T,164.768,M,4.02337,N,7.45128,K,D*3E
$GNHDT,88.1604,T*28
$GPGGA,094242.20,2234.28342489,N,11431.87410529,E,4,19,0.8,1.0698,M,-1.3509,M,01,0000*79
$GPRMC,094242.20,A,2234.28342489,N,11431.87410529,E,4.023,161.3,051224,3.4,W,D*21
$GNVTG,158.835,T,162.268,M,4.03897,N,7.48018,K,D*30
$GNHDT,88.6077,T*2D
$GPGGA,094242.40,2234.28321492,N,11431.87419282,E,4,18,0.8,1.1346,M,-1.3509,M,01,0000*79
$GPRMC,094242.40,A,2234.28321492,N,11431.87419282,E,4.039,158.8,051224,3.4,W,D*2D
$GNVTG,162.543,T,165.976,M,4.12127,N,7.63258,K,D*3B
$GNHDT,88.2691,T*27
$GPGGA,094242.60,2234.28299575,N,11431.87426703,E,4,18,0.8,1.1366,M,-1.3509,M,01,0000*73
$GPRMC,094242.60,A,2234.28299575,N,11431.87426703,E,4.121,162.5,051224,3.4,W,D*29
$GNVTG,163.111,T,166.543,M,4.03849,N,7.47928,K,D*3B
$GNHDT,88.4755,T*28
$GPGGA,094242.80,2234.28278033,N,11431.87433746,E,4,20,0.8,1.1136,M,-1.3509,M,00,0000*7D
$GPRMC,094242.80,A,2234.28278033,N,11431.87433746,E,4.038,163.1,051224,3.4,W,D*26
$GNVTG,162.207,T,165.640,M,4.10621,N,7.60470,K,D*3A
$GNHDT,88.2847,T*22
$GPGGA,094243.00,2234.28256237,N,11431.87441278,E,4,20,0.8,1.1184,M,-1.3509,M,01,0000*7B
$GPRMC,094243.00,A,2234.28256237,N,11431.87441278,E,4.106,162.2,051224,3.4,W,D*26
$GNVTG,162.513,T,165.946,M,4.11338,N,7.61798,K,D*39
$GNHDT,88.5544,T*2B
$GPGGA,094243.20,2234.28234366,N,11431.87448697,E,4,20,0.8,1.0969,M,-1.3509,M,01,0000*7E
$GPRMC,094243.20,A,2234.28234366,N,11431.87448697,E,4.113,162.5,051224,3.4,W,D*2A
$GNVTG,161.338,T,164.770,M,4.03563,N,7.47399,K,D*35
$GNHDT,88.9219,T*28
$GPGGA,094243.40,2234.28213051,N,11431.87456449,E,4,18,0.8,1.0817,M,-1.3509,M,01,0000*77
$GPRMC,094243.40,A,2234.28213051,N,11431.87456449,E,4.036,161.3,051224,3.4,W,D*23
$GNVTG,162.397,T,165.830,M,3.97597,N,7.36350,K,D*3B
$GNHDT,89.4376,T*2C
