49.3,051224,3.4,W,D*22
$GNVTG,333.542,T,336.974,M,0.44979,N,0.83300,K,D*3B
$GNHDT,72.7557,T*2E
$GPGGA,093728.60,2234.32394669,N,11431.89019329,E,4,24,0.6,1.1520,M,-1.3510,M,01,0000*73
$GPRMC,093728.60,A,2234.32394669,N,11431.89019329,E,0.450,333.5,051224,3.4,W,D*25
$GNVTG,315.415,T,318.848,M,0.31689,N,0.58688,K,D*3F
$GNHDT,72.2214,T*2B
$GPGGA,093728.80,2234.32395927,N,11431.89017994,E,4,23,0.7,1.1715,M,-1.3510,M,00,0000*78
$GPRMC,093728.80,A,2234.32395927,N,11431.89017994,E,0.317,315.4,051224,3.4,W,D*2C
$GNVTG,302.761,T,306.194,M,0.32945,N,0.61014,K,D*3B
$GNHDT,72.1738,T*23
$GPGGA,093729.00,2234.32396921,N,11431.89016331,E,4,22,0.7,1.1612,M,-1.3510,M,01,0000*76
$GPRMC,093729.00,A,2234.32396921,N,11431.89016331,E,0.329,302.8,051224,3.4,W,D*23
$GNVTG,274.709,T,278.142,M,0.35260,N,0.65301,K,D*3E
$GNHDT,71.8240,T*23
$GPGGA,093729.20,2234.32397082,N,11431.89014222,E,4,22,0.7,1.1336,M,-1.3510,M,01,0000*77
$GPRMC,093729.20,A,2234.32397082,N,11431.89014222,E,0.353,274.7,051224,3.4,W,D*23
$GNVTG,286.353,T,289.786,M,0.43714,N,0.80958,K,D*32
$GNHDT,72.4624,T*2A
$GPGGA,093729.40,2234.32397768,N,11431.89011704,E,4,22,0.7,1.1422,M,-1.3510,M,01,0000*74
$GPRMC,093729.40,A,2234.32397768,N,11431.89011704,E,0.437,286.4,051224,3.4,W,D*29
$GNVTG,286.045,T,289.478,M,0.28582,N,0.52933,K,D*36
$GNHDT,72.2256,T*2D
$GPGGA,093729.60,2234.32398208,N,11431.89010055,E,4,23,0.7,1.1507,M,-1.3510,M,00,0000*7E
$GPRMC,093729.60,A,2234.32398208,N,11431.89010055,E,0.286,286.0,051224,3.4,W,D*2D
$GNVTG,297.490,T,300.923,M,0.40864,N,0.75679,K,D*36
$GNHDT,72.5905,T*27
$GPGGA,093729.80,2234.32399260,N,11431.89007879,E,4,22,0.7,1.1830,M,-1.3510,M,00,0000*77
$GPRMC,093729.80,A,2234.32399260,N,11431.89007879,E,0.409,297.5,051224,3.4,W,D*28
$GNVTG,297.790,T,301.223,M,0.45310,N,0.83914,K,D*3F
$GNHDT,72.9060,T*21
$GPGGA,093730.00,2234.32400438,N,11431.89005473,E,4,22,0.7,1.1975,M,-1.3510,M,01,0000*7E
$GPRMC,093730.00,A,2234.32400438,N,11431.89005473,E,0.453,297.8,051224,3.4,W,D*22
$GNVTG,306.041,T,309.474,M,0.36947,N,0.68426,K,D*34
$GNHDT,73.2430,T*2A
$GPGGA,093730.20,2234.32401649,N,11431.89003680,E,4,23,0.7,1.2150,M,-1.3510,M,01,0000*7C
$GPRMC,093730.20,A,2234.32401649,N,11431.89003680,E,0.369,306.0,051224,3.4,W,D*22
$GNVTG,310.157,T,313.590,M,0.29294,N,0.54252,K,D*34
$GNHDT,73.3283,T*25
$GPGGA,093730.40,2234.32402703,N,11431.89002336,E,4,23,0.7,1.1921,M,-1.3510,M,01,0000*72
$GPRMC,093730.40,A,2234.32402703,N,11431.89002336,E,0.293,310.2,051224,3.4,W,D*20
$GNVTG,308.299,T,311.731,M,0.27284,N,0.50531,K,D*3E
$GNHDT,73.0912,T*25
$GPGGA,093730.60,2234.32403645,N,11431.89001050,E,4,23,0.7,1.1694,M,-1.3510,M,01,0000*73
$GPRMC,093730.60,A,2234.32403645,N,11431.89001050,E,0.273,308.3,051224,3.4,W,D*26
$GNVTG,342.751,T,346.184,M,0.29568,N,0.54760,K,D*32
$GNHDT,73.1247,T*2F
$GPGGA,093730.80,2234.32405219,N,11431.89000524,E,4,23,0.7,1.1587,M,-1.3510,M,01,0000*70
$GPRMC,093730.80,A,2234.32405219,N,11431.89000524,E,0.296,342.8,051224,3.4,W,D*2A
$GNVTG,303.900,T,307.333,M,0.24889,N,0.46095,K,D*37
$GNHDT,72.9745,T*21
$GPGGA,093731.00,2234.32405993,N,11431.88999284,E,4,23,0.7,1.1221,M,-1.3510,M,02,0000*7D
$GPRMC,093731.00,A,2234.32405993,N,11431.88999284,E,0.249,303.9,051224,3.4,W,D*29
$GNVTG,300.040,T,303.473,M,0.32078,N,0.59408,K,D*31
$GNHDT,73.3089,T*2D
$GPGGA,093731.20,2234.32406889,N,11431.88997617,E,4,23,0.7,1.0915,M,-1.3510,M,02,0000*7B
$GPRMC,093731.20,A,2234.32406889,N,11431.88997617,E,0.321,300.0,051224,3.4,W,D*27
$GNVTG,289.002,T,292.435,M,0.28445,N,0.52681,K,D*35
$GNHDT,73.0934,T*21
$GPGGA,093731.40,2234.32407405,N,11431.88996003,E,4,23,0.7,1.0824,M,-1.3510,M,02,0000*75
$GPRMC,093731.40,A,2234.32407405,N,11431.88996003,E,0.284,289.0,051224,3.4,W,D*24
$GNVTG,303.369,T,306.802,M,0.31695,N,0.58699,K,D*38
$GNHDT,73.3889,T*25
$GPGGA,093731.60,2234.32408377,N,11431.88994414,E,4,24,0.6,1.1032,M,-1.3510,M,02,0000*72
$GPRMC,093731.60,A,2234.32408377,N,11431.88994414,E,0.317,303.4,051224,3.4,W,D*27
$GNVTG,309.631,T,313.064,M,0.33650,N,0.62320,K,D*33
$GNHDT,73.7297,T*24
$GPGGA,093731.80,2234.32409573,N,11431.88992858,E,4,23,0.7,1.1067,M,-1.3510,M,00,0000*79
$GPRMC,093731.80,A,2234.32409573,N,11431.88992858,E,0.337,309.6,051224,3.4,W,D*22
$GNVTG,290.523,T,293.956,M,0.27283,N,0.50528,K,D*33
$GNHDT,73.7772,T*2A
$GPGGA,093732.00,2234.32410106,N,11431.88991324,E,4,23,0.7,1.1318,M,-1.3510,M,01,0000*75
$GPRMC,093732.00,A,2234.32410106,N,11431.88991324,E,0.273,290.5,051224,3.4,W,D*27
$GNVTG,333.733,T,337.166,M,0.15529,N,0.28759,K,D*31
$GNHDT,73.7638,T*25
$GPGGA,093732.20,2234.32410883,N,11431.88990912,E,4,22,0.7,1.1485,M,-1.3510,M,01,0000*7F
$GPRMC,093732.20,A,2234.32410883,N,11431.88990912,E,0.155,333.7,051224,3.4,W,D*22
$GNVTG,322.353,T,325.785,M,0.18741,N,0.34709,K,D*32
$GNHDT,73.7945,T*20
$GPGGA,093732.40,2234.32411710,N,11431.88990225,E,4,22,0.7,1.1381,M,-1.3510,M,01,0000*71
$GPRMC,093732.40,A,2234.32411710,N,11431.88990225,E,0.187,322.4,051224,3.4,W,D*23
$GNVTG,323.305,T,326.738,M,0.19509,N,0.36131,K,D*35
$GNHDT,73.5029,T*21
$GPGGA,093732.60,2234.32412582,N,11431.88989525,E,4,23,0.7,1.1674,M,-1.3510,M,01,0000*78
$GPRMC,093732.60,A,2234.32412582,N,11431.88989525,E,0.195,323.3,051224,3.4,W,D*21
$GNVTG,320.092,T,323.525,M,0.32333,N,0.59880,K,D*3C
$GNHDT,73.7989,T*20
$GPGGA,093732.80,2234.32413965,N,11431.88988280,E,4,23,0.7,1.1662,M,-1.3510,M,00,0000*7D
$GPRMC,093732.80,A,2234.32413965,N,11431.88988280,E,0.323,320.1,051224,3.4,W,D*2C
$GNVTG,305.042,T,308.475,M,0.36195,N,0.67034,K,D*3B
$GNHDT,74.0885,T*2D
$GPGGA,093733.00,2234.32415123,N,11431.88986501,E,4,23,0.7,1.1565,M,-1.3511,M,01,0000*7C
$GPRMC,093733.00,A,2234.32415123,N,11431.88986501,E,0.362,305.0,051224,3.4,W,D*2A
$GNVTG,294.031,T,297.464,M,0.41400,N,0.76673,K,D*3D
$GNHDT,74.2710,T*2C
$GPGGA,093733.20,2234.32416063,N,11431.88984231,E,4,24,0.6,1.1436,M,-1.3511,M,01,0000*7F
$GPRMC,093733.20,A,2234.32416063,N,11431.88984231,E,0.414,294.0,051224,3.4,W,D*27
$GNVTG,290.993,T,294.426,M,0.40629,N,0.75245,K,D*37
$GNHDT,74.6790,T*20
$GPGGA,093733.40,2234.32416875,N,11431.88981954,E,4,24,0.6,1.1079,M,-1.3511,M,01,0000*74
$GPRMC,093733.40,A,2234.32416875,N,11431.88981954,E,0.406,291.0,051224,3.4,W,D*25
$GNVTG,288.884,T,292.317,M,0.25467,N,0.47164,K,D*30
$GNHDT,74.0009,T*21
$GPGGA,093733.60,2234.32417334,N,11431.88980508,E,4,24,0.6,1.0763,M,-1.3511,M,00,0000*71
$GPRMC,093733.60,A,2234.32417334,N,11431.88980508,E,0.255,288.9,051224,3.4,W,D*2D
$GNVTG,314.783,T,318.216,M,0.31191,N,0.57766,K,D*33
$GNHDT,74.5171,T*2A
$GPGGA,093733.80,2234.32418559,N,11431.88979179,E,4,24,0.6,1.0708,M,-1.3511,M,00,0000*74
$GPRMC,093733.80,A,2234.32418559,N,11431.88979179,E,0.312,314.8,051224,3.4,W,D*22
$GNVTG,347.403,T,350.835,M,0.23711,N,0.43912,K,D*3C
$GNHDT,74.1764,T*2C
$GPGGA,093734.00,2234.32419849,N,11431.88978868,E,4,24,0.6,1.0773,M,-1.3511,M,01,0000*73
$GPRMC,093734.00,A,2234.32419849,N,11431.88978868,E,0.237,347.4,051224,3.4,W,D*24
$GNVTG,346.491,T,349.924,M,0.27970,N,0.51801,K,D*32
$GNHDT,73.7913,T*23
$GPGGA,093734.20,2234.32421365,N,11431.88978476,E,4,24,0.6,1.1140,M,-1.3511,M,01,0000*7B
$GPRMC,093734.20,A,2234.32421365,N,11431.88978476,E,0.280,346.5,051224,3.4,W,D*27
$GNVTG,329.566,T,332.999,M,0.42924,N,0.79495,K,D*31
$GNHDT,74.4257,T*2C
$GPGGA,093734.40,2234.32423428,N,11431.88977171,E,4,22,0.7,1.1230,M,-1.3511,M,01,0000*7F
$GPRMC,093734.40,A,2234.32423428,N,11431.88977171,E,0.429,329.6,051224,3.4,W,D*2F
$GNVTG,322.727,T,326.160,M,0.30452,N,0.56396,K,D*36
$GNHDT,74.2985,T*2E
$GPGGA,093734.60,2234.32424779,N,11431.88976064,E,4,22,0.7,1.1566,M,-1.3511,M,01,0000*7D
$GPRMC,093734.60,A,2234.32424779,N,11431.88976064,E,0.305,322.7,051224,3.4,W,D*2A
$GNVTG,294.630,T,298.063,M,0.35221,N,0.65230,K,D*31
$GNHDT,74.1736,T*2B
$GPGGA,093734.80,2234.32425597,N,11431.88974142,E,4,22,0.7,1.1471,M,-1.3511,M,01,0000*70
$GPRMC,093734.80,A,2234.32425597,N,11431.88974142,E,0.352,294.6,051224,3.4,W,D*2F
$GNVTG,302.128,T,305.560,M,0.26785,N,0.49606,K,D*34
$GNHDT,74.4305,T*2A
$GPGGA,093735.00,2234.32426391,N,11431.88972781,E,4,24,0.6,1.1222,M,-1.3511,M,02,0000*71
$GPRMC,093735.00,A,2234.32426391,N,11431.88972781,E,0.268,302.1,051224,3.4,W,D*2B
$GNVTG,312.584,T,316.017,M,0.41724,N,0.77273,K,D*31
$GNHDT,74.9989,T*29
$GPGGA,093735.20,2234.32427965,N,11431.88970937,E,4,23,0.7,1.0953,M,-1.3511,M,02,0000*78
$GPRMC,093735.20,A,2234.32427965,N,11431.88970937,E,0.417,312.6,051224,3.4,W,D*20
$GNVTG,309.406,T,312.839,M,0.30510,N,0.56505,K,D*36
$GNHDT,74.7146,T*2C
$GPGGA,093735.40,2234.32429045,N,11431.88969521,E,4,23,0.7,1.0932,M,-1.3511,M,02,0000*7F
$GPRMC,093735.40,A,2234.32429045,N,11431.88969521,E,0.305,309.4,051224,3.4,W,D*2C
$GNVTG,317.778,T,321.211,M,0.21259,N,0.39371,K,D*35
$GNHDT,74.4759,T*27
$GPGGA,093735.60,2234.32429923,N,11431.88968664,E,4,23,0.7,1.0719,M,-1.3511,M,02,0000*70
$GPRMC,093735.60,A,2234.32429923,N,11431.88968664,E,0.213,317.8,051224,3.4,W,D*21
$GNVTG,330.779,T,334.211,M,0.31460,N,0.58264,K,D*3A
$GNHDT,74.4298,T*2F
$GPGGA,093735.80,2234.32431453,N,11431.88967742,E,4,23,0.7,1.0716,M,-1.3511,M,00,0000*7A
$GPRMC,093735.80,A,2234.32431453,N,11431.88967742,E,0.315,330.8,051224,3.4,W,D*24
$GNVTG,336.550,T,339.983,M,0.21273,N,0.39398,K,D*38
$GNHDT,74.5345,T*2F
$GPGGA,093736.00,2234.32432541,N,11431.88967234,E,4,23,0.7,1.1249,M,-1.3511,M,01,0000*7B
$GPRMC,093736.00,A,2234.32432541,N,11431.88967234,E,0.213,336.5,051224,3.4,W,D*26
$GNVTG,328.094,T,331.527,M,0.22098,N,0.40925,K,D*36
$GNHDT,74.3457,T*2D
$GPGGA,093736.20,2234.32433587,N,11431.88966533,E,4,22,0.7,1.1442,M,-1.3511,M,01,0000*7F
$GPRMC,093736.20,A,2234.32433587,N,11431.88966533,E,0.221,328.1,051224,3.4,W,D*24
$GNVTG,324.833,T,328.266,M,0.20041,N,0.37117,K,D*3A
$GNHDT,74.4600,T*2A
$GPGGA,093736.40,2234.32434500,N,11431.88965840,E,4,22,0.7,1.1395,M,-1.3511,M,01,0000*76
$GPRMC,093736.40,A,2234.32434500,N,11431.88965840,E,0.200,324.8,051224,3.4,W,D*26
$GNVTG,321.958,T,325.390,M,0.35041,N,0.64895,K,D*37
$GNHDT,75.0946,T*22
$GPGGA,093736.60,2234.32436039,N,11431.88964544,E,4,22,0.7,1.1690,M,-1.3511,M,01,0000*71
$GPRMC,093736.60,A,2234.32436039,N,11431.88964544,E,0.350,322.0,051224,3.4,W,D*2B
$GNVTG,291.764,T,295.196,M,0.33764,N,0.62531,K,D*31
$GNHDT,75.1056,T*2B
$GPGGA,093736.80,2234.32436737,N,11431.88962661,E,4,23,0.7,1.1772,M,-1.3511,M,01,0000*78
$GPRMC,093736.80,A,2234.32436737,N,11431.88962661,E,0.338,291.8,051224,3.4,W,D*21
$GNVTG,287.993,T,291.425,M,0.32412,N,0.60026,K,D*3B
$GNHDT,74.9664,T*25
$GPGGA,093737.00,2234.32437295,N,11431.88960811,E,4,22,0.7,1.1633,M,-1.3511,M,02,0000*70
$GPRMC,093737.00,A,2234.32437295,N,11431.88960811,E,0.324,288.0,051224,3.4,W,D*22
$GNVTG,288.101,T,291.534,M,0.33356,N,0.61774,K,D*31
$GNHDT,74.9322,T*22
$GPGGA,093737.20,2234.32437873,N,11431.88958908,E,4,22,0.7,1.1438,M,-1.3511,M,02,0000*7B
$GPRMC,093737.20,A,2234.32437873,N,11431.88958908,E,0.334,288.1,051224,3.4,W,D*20
$GNVTG,314.277,T,317.710,M,0.22032,N,0.40802,K,D*30
$GNHDT,74.6633,T*28
$GPGGA,093737.40,2234.32438730,N,11431.88957961,E,4,22,0.7,1.1433,M,-1.3511,M,02,0000*71
$GPRMC,093737.40,A,2234.32438730,N,11431.88957961,E,0.220,314.3,051224,3.4,W,D*23
$GNVTG,317.690,T,321.122,M,0.44334,N,0.82106,K,D*3A
$GNHDT,75.3728,T*27
$GPGGA,093737.60,2234.32440558,N,11431.88956170,E,4,22,0.7,1.1594,M,-1.3511,M,02,0000*75
$GPRMC,093737.60,A,2234.32440558,N,11431.88956170,E,0.443,317.7,051224,3.4,W,D*2F
$GNVTG,323.656,T,327.089,M,0.27159,N,0.50299,K,D*37
$GNHDT,75.0942,T*26
$GPGGA,093737.80,2234.32441777,N,11431.88955203,E,4,22,0.7,1.1771,M,-1.3511,M,00,0000*7A
$GPRMC,093737.80,A,2234.32441777,N,11431.88955203,E,0.272,323.7,051224,3.4,W,D*28
$GNVTG,315.258,T,318.691,M,0.27750,N,0.51393,K,D*3E
$GNHDT,75.0464,T*2F
$GPGGA,093738.00,2234.32442876,N,11431.88954031,E,4,22,0.7,1.1591,M,-1.3511,M,01,0000*7F
$GPRMC,093738.00,A,2234.32442876,N,11431.88954031,E,0.277,315.3,051224,3.4,W,D*24
$GNVTG,309.398,T,312.831,M,0.17646,N,0.32680,K,D*37
$GNHDT,74.5135,T*2A
$GPGGA,093738.20,2234.32443500,N,11431.88953212,E,4,23,0.7,1.1890,M,-1.3511,M,01,0000*79
$GPRMC,093738.20,A,2234.32443500,N,11431.88953212,E,0.176,309.4,051224,3.4,W,D*27
$GNVTG,295.190,T,298.623,M,0.52890,N,0.97953,K,D*3D
$GNHDT,75.0153,T*2E
$GPGGA,093738.40,2234.32444755,N,11431.88950339,E,4,23,0.7,1.1723,M,-1.3511,M,01,0000*76
$GPRMC,093738.40,A,2234.32444755,N,11431.88950339,E,0.529,295.2,051224,3.4,W,D*23
$GNVTG,287.672,T,291.105,M,0.29370,N,0.54394,K,D*38
$GNHDT,74.8968,T*27
$GPGGA,093738.60,2234.32445252,N,11431.88948660,E,4,23,0.7,1.1695,M,-1.3511,M,01,0000*7B
$GPRMC,093738.60,A,2234.32445252,N,11431.88948660,E,0.294,287.7,051224,3.4,W,D*25
$GNVTG,277.072,T,280.505,M,0.36898,N,0.68335,K,D*32
$GNHDT,74.6562,T*2F
$GPGGA,093738.80,2234.32445506,N,11431.88946462,E,4,22,0.7,1.1666,M,-1.3511,M,00,0000*71
$GPRMC,093738.80,A,2234.32445506,N,11431.88946462,E,0.369,277.1,051224,3.4,W,D*29
$GNVTG,278.369,T,281.802,M,0.37601,N,0.69637,K,D*36
$GNHDT,74.6267,T*2D
$GPGGA,093739.00,2234.32445811,N,11431.88944229,E,4,22,0.7,1.1536,M,-1.3511,M,01,0000*7F
$GPRMC,093739.00,A,2234.32445811,N,11431.88944229,E,0.376,278.4,051224,3.4,W,D*24
$GNVTG,294.723,T,298.156,M,0.43134,N,0.79884,K,D*3B
$GNHDT,75.3923,T*22
$GPGGA,093739.20,2234.32446816,N,11431.88941877,E,4,22,0.7,1.1565,M,-1.3511,M,01,0000*7B
$GPRMC,093739.20,A,2234.32446816,N,11431.88941877,E,0.431,294.7,051224,3.4,W,D*23
$GNVTG,319.251,T,322.684,M,0.17807,N,0.32979,K,D*33
$GNHDT,75.1722,T*2F
$GPGGA,093739.40,2234.32447568,N,11431.88941179,E,4,22,0.7,1.1511,M,-1.3511,M,01,0000*7C
$GPRMC,093739.40,A,2234.32447568,N,11431.88941179,E,0.178,319.3,051224,3.4,W,D*2F
$GNVTG,314.594,T,318.027,M,0.26112,N,0.48359,K,D*3C
$GNHDT,75.1880,T*28
$GPGGA,093739.60,2234.32448590,N,11431.88940063,E,4,22,0.7,1.1500,M,-1.3511,M,01,0000*7D
$GPRMC,093739.60,A,2234.32448590,N,11431.88940063,E,0.261,314.6,051224,3.4,W,D*2D
$GNVTG,340.285,T,343.718,M,0.30241,N,0.56007,K,D*3A
$GNHDT,75.4510,T*29
$GPGGA,093739.80,2234.32450177,N,11431.88939451,E,4,23,0.7,1.1406,M,-1.3511,M,00,0000*7B
$GPRMC,093739.80,A,2234.32450177,N,11431.88939451,E,0.302,340.3,051224,3.4,W,D*2C
$GNVTG,317.587,T,321.020,M,0.10270,N,0.19021,K,D*3A
$GNHDT,74.5668,T*25
$GPGGA,093740.00,2234.32450600,N,11431.88939035,E,4,23,0.7,1.1215,M,-1.3511,M,01,0000*79
$GPRMC,093740.00,A,2234.32450600,N,11431.88939035,E,0.103,317.6,051224,3.4,W,D*2F
$GNVTG,309.165,T,312.598,M,0.41242,N,0.76380,K,D*3F
$GNHDT,75.2675,T*2F
$GPGGA,093740.20,2234.32452052,N,11431.88937115,E,4,22,0.7,1.1281,M,-1.3511,M,01,0000*79
$GPRMC,093740.20,A,2234.32452052,N,11431.88937115,E,0.412,309.2,051224,3.4,W,D*2D
$GNVTG,303.282,T,306.715,M,0.28383,N,0.52565,K,D*35
$GNHDT,75.6576,T*2B
$GPGGA,093740.40,2234.32452920,N,11431.88935691,E,4,22,0.7,1.1290,M,-1.3511,M,01,0000*7A
$GPRMC,093740.40,A,2234.32452920,N,11431.88935691,E,0.284,303.3,051224,3.4,W,D*2C
$GNVTG,295.960,T,299.393,M,0.23440,N,0.43411,K,D*30
$GNHDT,75.4277,T*2F
$GPGGA,093740.60,2234.32453492,N,11431.88934426,E,4,22,0.7,1.0800,M,-1.3511,M,01,0000*70
$GPRMC,093740.60,A,2234.32453492,N,11431.88934426,E,0.234,296.0,051224,3.4,W,D*21
$GNVTG,314.901,T,318.334,M,0.18818,N,0.34852,K,D*38
$GNHDT,75.3107,T*2C
$GPGGA,093740.80,2234.32454233,N,11431.88933626,E,4,22,0.7,1.0925,M,-1.3511,M,00,0000*76
$GPRMC,093740.80,A,2234.32454233,N,11431.88933626,E,0.188,314.9,051224,3.4,W,D*26
$GNVTG,328.385,T,331.818,M,0.27978,N,0.51816,K,D*37
$GNHDT,75.7097,T*20
$GPGGA,093741.00,2234.32455561,N,11431.88932745,E,4,23,0.7,1.1091,M,-1.3511,M,01,0000*7C
$GPRMC,093741.00,A,2234.32455561,N,11431.88932745,E,0.280,328.4,051224,3.4,W,D*22
$GNVTG,327.807,T,331.240,M,0.21011,N,0.38913,K,D*35
$GNHDT,75.5646,T*28
$GPGGA,093741.20,2234.32456552,N,11431.88932073,E,4,23,0.7,1.1281,M,-1.3511,M,01,0000*7C
$GPRMC,093741.20,A,2234.32456552,N,11431.88932073,E,0.210,327.8,051224,3.4,W,D*2B
$GNVTG,4.370,T,7.803,M,0.25685,N,0.47568,K,D*30
$GNHDT,75.9713,T*25
$GPGGA,093741.40,2234.32457980,N,11431.88932191,E,4,22,0.7,1.1338,M,-1.3511,M,01,0000*77
$GPRMC,093741.40,A,2234.32457980,N,11431.88932191,E,0.257,4.4,051224,3.4,W,D*2F
$GNVTG,339.857,T,343.290,M,0.21354,N,0.39548,K,D*36
$GNHDT,75.6193,T*24
$GPGGA,093741.60,2234.32459098,N,11431.88931750,E,4,22,0.7,1.1481,M,-1.3511,M,01,0000*76
$GPRMC,093741.60,A,2234.32459098,N,11431.88931750,E,0.214,339.9,051224,3.4,W,D*2C
$GNVTG,324.976,T,328.409,M,0.28962,N,0.53637,K,D*32
$GNHDT,75.6256,T*2E
$GPGGA,093741.80,2234.32460420,N,11431.88930752,E,4,21,0.7,1.1498,M,-1.3511,M,00,0000*7C
$GPRMC,093741.80,A,2234.32460420,N,11431.88930752,E,0.290,325.0,051224,3.4,W,D*24
$GNVTG,311.423,T,314.856,M,0.36461,N,0.67526,K,D*35
$GNHDT,75.9193,T*2B
$GPGGA,093742.00,2234.32461765,N,11431.88929111,E,4,21,0.7,1.1231,M,-1.3511,M,01,0000*79
$GPRMC,093742.00,A,2234.32461765,N,11431.88929111,E,0.365,311.4,051224,3.4,W,D*2D
$GNVTG,291.009,T,294.442,M,0.27168,N,0.50315,K,D*3E
$GNHDT,75.3656,T*2F
$GPGGA,093742.20,2234.32462308,N,11431.88927588,E,4,22,0.7,1.1128,M,-1.3511,M,01,0000*75
$GPRMC,093742.20,A,2234.32462308,N,11431.88927588,E,0.272,291.0,051224,3.4,W,D*23
$GNVTG,294.009,T,297.442,M,0.30696,N,0.56849,K,D*3C
$GNHDT,75.4079,T*23
$GPGGA,093742.40,2234.32463004,N,11431.88925905,E,4,22,0.7,1.0553,M,-1.3511,M,01,0000*7F
$GPRMC,093742.40,A,2234.32463004,N,11431.88925905,E,0.307,294.0,051224,3.4,W,D*26
$GNVTG,310.102,T,313.534,M,0.28842,N,0.53415,K,D*38
$GNHDT,75.3911,T*23
$GPGGA,093742.60,2234.32464040,N,11431.88924581,E,4,22,0.7,1.0599,M,-1.3511,M,01,0000*7D
$GPRMC,093742.60,A,2234.32464040,N,11431.88924581,E,0.288,310.1,051224,3.4,W,D*28
$GNVTG,310.343,T,313.776,M,0.24592,N,0.45545,K,D*34
$GNHDT,75.2023,T*2A
$GPGGA,093742.80,2234.32464927,N,11431.88923456,E,4,23,0.7,1.0636,M,-1.3511,M,00,0000*71
$GPRMC,093742.80,A,2234.32464927,N,11431.88923456,E,0.246,310.3,051224,3.4,W,D*22
$GNVTG,337.815,T,341.248,M,0.32909,N,0.60948,K,D*39
$GNHDT,75.9011,T*20
$GPGGA,093743.00,2234.32466626,N,11431.88922710,E,4,23,0.7,1.0625,M,-1.3511,M,01,0000*77
$GPRMC,093743.00,A,2234.32466626,N,11431.88922710,E,0.329,337.8,051224,3.4,W,D*21
$GNVTG,321.445,T,324.878,M,0.33344,N,0.61752,K,D*3B
$GNHDT,75.7187,T*20
$GPGGA,093743.20,2234.32468079,N,11431.88921462,E,4,23,0.7,1.0717,M,-1.3511,M,01,0000*72
$GPRMC,093743.20,A,2234.32468079,N,11431.88921462,E,0.333,321.4,051224,3.4,W,D*24
$GNVTG,314.402,T,317.835,M,0.26902,N,0.49823,K,D*38
$GNHDT,75.8357,T*20
$GPGGA,093743.40,2234.32469129,N,11431.88920309,E,4,23,0.7,1.0840,M,-1.3511,M,01,0000*77
$GPRMC,093743.40,A,2234.32469129,N,11431.88920309,E,0.269,314.4,051224,3.4,W,D*24
$GNVTG,309.980,T,313.413,M,0.25094,N,0.46473,K,D*3C
$GNHDT,75.9918,T*20
$GPGGA,093743.60,2234.32470028,N,11431.88919154,E,4,23,0.7,1.0938,M,-1.3511,M,01,0000*73
$GPRMC,093743.60,A,2234.32470028,N,11431.88919154,E,0.251,310.0,051224,3.4,W,D*25
$GNVTG,293.475,T,296.908,M,0.28366,N,0.52535,K,D*37
$GNHDT,75.8827,T*2C
$GPGGA,093743.80,2234.32470658,N,11431.88917593,E,4,23,0.7,1.1008,M,-1.3511,M,00,0000*77
$GPRMC,093743.80,A,2234.32470658,N,11431.88917593,E,0.284,293.5,051224,3.4,W,D*2C
$GNVTG,302.200,T,305.633,M,0.35523,N,0.65788,K,D*3D
$GNHDT,76.0125,T*2C
$GPGGA,093744.00,2234.32471713,N,11431.88915788,E,4,24,0.6,1.1199,M,-1.3511,M,01,0000*73
$GPRMC,093744.00,A,2234.32471713,N,11431.88915788,E,0.355,302.2,051224,3.4,W,D*25
$GNVTG,314.148,T,317.581,M,0.25380,N,0.47004,K,D*31
$GNHDT,75.6760,T*2E
$GPGGA,093744.20,2234.32472698,N,11431.88914695,E,4,24,0.6,1.1541,M,-1.3511,M,01,0000*7D
$GPRMC,093744.20,A,2234.32472698,N,11431.88914695,E,0.254,314.1,051224,3.4,W,D*2E
$GNVTG,313.579,T,317.012,M,0.41871,N,0.77544,K,D*3A
$GNHDT,76.0368,T*27
$GPGGA,093744.40,2234.32474307,N,11431.88912874,E,4,23,0.6,1.1714,M,-1.3511,M,01,0000*7C
$GPRMC,093744.40,A,2234.32474307,N,11431.88912874,E,0.419,313.6,051224,3.4,W,D*25
$GNVTG,307.357,T,310.790,M,0.34556,N,0.63998,K,D*3D
$GNHDT,76.0374,T*2A
$GPGGA,093744.60,2234.32475476,N,11431.88911226,E,4,23,0.6,1.1927,M,-1.3511,M,01,0000*7E
$GPRMC,093744.60,A,2234.32475476,N,11431.88911226,E,0.346,307.4,051224,3.4,W,D*23
$GNVTG,301.612,T,305.045,M,0.38052,N,0.70473,K,D*33
$GNHDT,76.6377,T*2F
$GPGGA,093744.80,2234.32476588,N,11431.88909280,E,4,23,0.6,1.2228,M,-1.3511,M,00,0000*70
$GPRMC,093744.80,A,2234.32476588,N,11431.88909280,E,0.381,301.6,051224,3.4,W,D*24
$GNVTG,285.569,T,289.002,M,0.40124,N,0.74310,K,D*3E
$GNHDT,76.6453,T*2E
$GPGGA,093745.00,2234.32477189,N,11431.88906960,E,4,23,0.6,1.1852,M,-1.3511,M,01,0000*72
$GPRMC,093745.00,A,2234.32477189,N,11431.88906960,E,0.401,285.6,051224,3.4,W,D*21
$GNVTG,286.796,T,290.229,M,0.23181,N,0.42932,K,D*39
$GNHDT,76.1960,T*24
$GPGGA,093745.20,2234.32477562,N,11431.88905628,E,4,22,0.7,1.1688,M,-1.3511,M,01,0000*78
$GPRMC,093745.20,A,2234.32477562,N,11431.88905628,E,0.232,286.8,051224,3.4,W,D*29
$GNVTG,295.781,T,299.214,M,0.09712,N,0.17987,K,D*30
$GNHDT,75.4015,T*29
$GPGGA,093745.40,2234.32477797,N,11431.88905103,E,4,21,0.7,1.1566,M,-1.3511,M,01,0000*78
$GPRMC,093745.40,A,2234.32477797,N,11431.88905103,E,0.097,295.8,051224,3.4,W,D*26
$GNVTG,332.542,T,335.975,M,0.25595,N,0.47402,K,D*3C
$GNHDT,75.6031,T*2D
$GPGGA,093745.60,2234.32479064,N,11431.88904395,E,4,22,0.7,1.1545,M,-1.3511,M,01,0000*71
$GPRMC,093745.60,A,2234.32479064,N,11431.88904395,E,0.256,332.5,051224,3.4,W,D*23
$GNVTG,337.515,T,340.948,M,0.17002,N,0.31487,K,D*31
$GNHDT,75.4856,T*26
$GPGGA,093745.80,2234.32479939,N,11431.88904004,E,4,21,0.7,1.1666,M,-1.3511,M,00,0000*75
$GPRMC,093745.80,A,2234.32479939,N,11431.88904004,E,0.170,337.5,051224,3.4,W,D*25
$GNVTG,291.904,T,295.337,M,0.25328,N,0.46908,K,D*3B
$GNHDT,75.6610,T*28
$GPGGA,093746.00,2234.32480466,N,11431.88902594,E,4,22,0.7,1.1800,M,-1.3511,M,01,0000*79
$GPRMC,093746.00,A,2234.32480466,N,11431.88902594,E,0.253,291.9,051224,3.4,W,D*26
$GNVTG,281.515,T,284.947,M,0.26977,N,0.49962,K,D*3B
$GNHDT,75.8093,T*2B
$GPGGA,093746.20,2234.32480766,N,11431.88901007,E,4,22,0.7,1.1793,M,-1.3511,M,01,0000*71
$GPRMC,093746.20,A,2234.32480766,N,11431.88901007,E,0.270,281.5,051224,3.4,W,D*27
$GNVTG,280.182,T,283.615,M,0.31238,N,0.57853,K,D*35
$GNHDT,76.0350,T*2C
$GPGGA,093746.40,2234.32481074,N,11431.88899161,E,4,21,0.7,1.1522,M,-1.3511,M,01,0000*78
$GPRMC,093746.40,A,2234.32481074,N,11431.88899161,E,0.312,280.2,051224,3.4,W,D*26
$GNVTG,282.636,T,286.069,M,0.25211,N,0.46692,K,D*3A
$GNHDT,76.2724,T*29
$GPGGA,093746.60,2234.32481382,N,11431.88897685,E,4,22,0.7,1.1622,M,-1.3511,M,01,0000*73
$GPRMC,093746.60,A,2234.32481382,N,11431.88897685,E,0.252,282.6,051224,3.4,W,D*2E
$GNVTG,316.849,T,320.282,M,0.18461,N,0.34190,K,D*35
$GNHDT,76.5780,T*20
$GPGGA,093746.80,2234.32482132,N,11431.88896927,E,4,22,0.7,1.1649,M,-1.3511,M,00,0000*7D
$GPRMC,093746.80,A,2234.32482132,N,11431.88896927,E,0.185,316.8,051224,3.4,W,D*27
$GNVTG,4.763,T,8.196,M,0.14676,N,0.27179,K,D*30
$GNHDT,76.1097,T*25
$GPGGA,093747.00,2234.32482948,N,11431.88897000,E,4,23,0.7,1.1421,M,-1.3511,M,01,0000*70
$GPRMC,093747.00,A,2234.32482948,N,11431.88897000,E,0.147,4.8,051224,3.4,W,D*28
$GNVTG,346.842,T,350.274,M,0.20178,N,0.37369,K,D*34
$GNHDT,75.7975,T*25
$GPGGA,093747.20,2234.32484043,N,11431.88896724,E,4,24,0.6,1.1314,M,-1.3511,M,01,0000*71
$GPRMC,093747.20,A,2234.32484043,N,11431.88896724,E,0.202,346.8,051224,3.4,W,D*29
$GNVTG,325.635,T,329.068,M,0.39900,N,0.73894,K,D*38
$GNHDT,76.0898,T*23
$GPGGA,093747.40,2234.32485879,N,11431.88895372,E,4,24,0.6,1.1280,M,-1.3511,M,01,0000*7F
$GPRMC,093747.40,A,2234.32485879,N,11431.88895372,E,0.399,325.6,051224,3.4,W,D*23
$GNVTG,317.137,T,320.569,M,0.37043,N,0.68604,K,D*3C
$GNHDT,76.4155,T*2F
$GPGGA,093747.60,2234.32487393,N,11431.88893860,E,4,24,0.6,1.1203,M,-1.3511,M,01,0000*75
$GPRMC,093747.60,A,2234.32487393,N,11431.88893860,E,0.370,317.1,051224,3.4,W,D*23
$GNVTG,302.902,T,306.335,M,0.31875,N,0.59032,K,D*37
$GNHDT,76.4105,T*2A
$GPGGA,093747.80,2234.32488358,N,11431.88892253,E,4,25,0.6,1.1292,M,-1.3511,M,00,0000*70
$GPRMC,093747.80,A,2234.32488358,N,11431.88892253,E,0.319,302.9,051224,3.4,W,D*2D
$GNVTG,293.588,T,297.021,M,0.26412,N,0.48914,K,D*39
$GNHDT,76.3463,T*28
$GPGGA,093748.00,2234.32488947,N,11431.88890800,E,4,25,0.6,1.1035,M,-1.3511,M,01,0000*73
$GPRMC,093748.00,A,2234.32488947,N,11431.88890800,E,0.264,293.6,051224,3.4,W,D*2D
$GNVTG,302.420,T,305.853,M,0.22014,N,0.40769,K,D*3E
$GNHDT,76.2251,T*2E
$GPGGA,093748.20,2234.32489605,N,11431.88889685,E,4,25,0.6,1.1062,M,-1.3511,M,01,0000*70
$GPRMC,093748.20,A,2234.32489605,N,11431.88889685,E,0.220,302.4,051224,3.4,W,D*27
$GNVTG,318.255,T,321.688,M,0.28351,N,0.52506,K,D*3F
$GNHDT,76.2645,T*2F
$GPGGA,093748.40,2234.32490784,N,11431.88888552,E,4,24,0.7,1.1208,M,-1.3511,M,01,0000*70
$GPRMC,093748.40,A,2234.32490784,N,11431.88888552,E,0.284,318.3,051224,3.4,W,D*2B
$GNVTG,310.161,T,313.594,M,0.30527,N,0.56536,K,D*35
$GNHDT,76.2291,T*22
$GPGGA,093748.60,2234.32491882,N,11431.88887151,E,4,22,0.7,1.1231,M,-1.3511,M,01,0000*7E
$GPRMC,093748.60,A,2234.32491882,N,11431.88887151,E,0.305,310.2,051224,3.4,W,D*28
$GNVTG,326.054,T,329.487,M,0.34315,N,0.63552,K,D*3A
$GNHDT,76.5060,T*29
$GPGGA,093748.80,2234.32493469,N,11431.88886001,E,4,23,0.7,1.1217,M,-1.3511,M,00,0000*7A
$GPRMC,093748.80,A,2234.32493469,N,11431.88886001,E,0.343,326.1,051224,3.4,W,D*2C
$GNVTG,336.672,T,340.105,M,0.27485,N,0.50902,K,D*3C
$GNHDT,75.9843,T*2F
$GPGGA,093749.00,2234.32494876,N,11431.88885348,E,4,23,0.7,1.1193,M,-1.3511,M,01,0000*75
$GPRMC,093749.00,A,2234.32494876,N,11431.88885348,E,0.275,336.7,051224,3.4,W,D*2E
$GNVTG,323.417,T,326.850,M,0.39392,N,0.72953,K,D*3A
$GNHDT,76.4063,T*2B
$GPGGA,093749.20,2234.32496639,N,11431.88883938,E,4,23,0.7,1.1344,M,-1.3511,M,01,0000*73
$GPRMC,093749.20,A,2234.32496639,N,11431.88883938,E,0.394,323.4,051224,3.4,W,D*29
$GNVTG,322.750,T,326.183,M,0.27539,N,0.51002,K,D*38
$GNHDT,76.2453,T*2A
$GPGGA,093749.40,2234.32497861,N,11431.88882938,E,4,23,0.7,1.1331,M,-1.3511,M,01,0000*74
$GPRMC,093749.40,A,2234.32497861,N,11431.88882938,E,0.275,322.8,051224,3.4,W,D*2F
$GNVTG,292.180,T,295.613,M,0.29833,N,0.55251,K,D*37
$GNHDT,76.1808,T*2B
$GPGGA,093749.60,2234.32498489,N,11431.88881280,E,4,23,0.7,1.1493,M,-1.3511,M,01,0000*77
$GPRMC,093749.60,A,2234.32498489,N,11431.88881280,E,0.298,292.2,051224,3.4,W,D*20
$GNVTG,277.707,T,281.140,M,0.39288,N,0.72762,K,D*3A
$GNHDT,76.3448,T*21
$GPGGA,093749.80,2234.32498783,N,11431.88878943,E,4,23,0.7,1.1252,M,-1.3511,M,00,0000*78
$GPRMC,093749.80,A,2234.32498783,N,11431.88878943,E,0.393,277.7,051224,3.4,W,D*21
$GNVTG,271.085,T,274.518,M,0.38546,N,0.71387,K,D*3A
$GNHDT,76.1940,T*26
$GPGGA,093750.00,2234.32498823,N,11431.88876629,E,4,23,0.7,1.1385,M,-1.3511,M,01,0000*7A
$GPRMC,093750.00,A,2234.32498823,N,11431.88876629,E,0.385,271.1,051224,3.4,W,D*2E
$GNVTG,294.824,T,298.257,M,0.42883,N,0.79420,K,D*37
$GNHDT,76.7343,T*29
$GPGGA,093750.20,2234.32499827,N,11431.88874293,E,4,23,0.7,1.1401,M,-1.3511,M,01,0000*71
$GPRMC,093750.20,A,2234.32499827,N,11431.88874293,E,0.429,294.8,051224,3.4,W,D*2D
$GNVTG,304.901,T,308.334,M,0.35371,N,0.65506,K,D*3B
$GNHDT,76.4039,T*24
$GPGGA,093750.40,2234.32500955,N,11431.88872552,E,4,23,0.7,1.1537,M,-1.3511,M,01,0000*7A
$GPRMC,093750.40,A,2234.32500955,N,11431.88872552,E,0.354,304.9,051224,3.4,W,D*26
$GNVTG,317.254,T,320.687,M,0.27236,N,0.50441,K,D*30
$GNHDT,76.2039,T*22
$GPGGA,093750.60,2234.32502070,N,11431.88871442,E,4,23,0.7,1.1847,M,-1.3511,M,01,0000*7D
$GPRMC,093750.60,A,2234.32502070,N,11431.88871442,E,0.272,317.3,051224,3.4,W,D*26
$GNVTG,309.355,T,312.788,M,0.42894,N,0.79439,K,D*35
$GNHDT,76.6240,T*2A
$GPGGA,093750.80,2234.32503587,N,11431.88869451,E,4,23,0.7,1.1810,M,-1.3511,M,01,0000*76
$GPRMC,093750.80,A,2234.32503587,N,11431.88869451,E,0.429,309.4,051224,3.4,W,D*2F
$GNVTG,309.052,T,312.485,M,0.35750,N,0.66208,K,D*32
$GNHDT,76.7526,T*2C
$GPGGA,093751.00,2234.32504842,N,11431.88867785,E,4,23,0.7,1.1819,M,-1.3511,M,02,0000*72
$GPRMC,093751.00,A,2234.32504842,N,11431.88867785,E,0.357,309.1,051224,3.4,W,D*2A
$GNVTG,289.620,T,293.053,M,0.35602,N,0.65935,K,D*3F
$GNHDT,76.3307,T*2D
$GPGGA,093751.20,2234.32505509,N,11431.88865772,E,4,24,0.6,1.1517,M,-1.3511,M,02,0000*7C
$GPRMC,093751.20,A,2234.32505509,N,11431.88865772,E,0.356,289.6,051224,3.4,W,D*2E
$GNVTG,279.528,T,282.961,M,0.31748,N,0.58798,K,D*3F
$GNHDT,76.2854,T*21
$GPGGA,093751.40,2234.32505802,N,11431.88863892,E,4,24,0.6,1.1203,M,-1.3511,M,02,0000*79
$GPRMC,093751.40,A,2234.32505802,N,11431.88863892,E,0.317,279.5,051224,3.4,W,D*20
$GNVTG,282.054,T,285.487,M,0.26851,N,0.49728,K,D*3D
$GNHDT,76.2735,T*29
$GPGGA,093751.60,2234.32506114,N,11431.88862316,E,4,23,0.7,1.0882,M,-1.3511,M,02,0000*74
$GPRMC,093751.60,A,2234.32506114,N,11431.88862316,E,0.269,282.1,051224,3.4,W,D*21
$GNVTG,295.409,T,298.842,M,0.16118,N,0.29850,K,D*3F
$GNHDT,75.9520,T*27
$GPGGA,093751.80,2234.32506500,N,11431.88861442,E,4,23,0.7,1.0752,M,-1.3511,M,02,0000*7C
$GPRMC,093751.80,A,2234.32506500,N,11431.88861442,E,0.161,295.4,051224,3.4,W,D*23
$GNVTG,329.604,T,333.037,M,0.16487,N,0.30534,K,D*38
$GNHDT,75.8111,T*20
$GPGGA,093752.00,2234.32507292,N,11431.88860941,E,4,23,0.7,1.0537,M,-1.3511,M,03,0000*75
$GPRMC,093752.00,A,2234.32507292,N,11431.88860941,E,0.165,329.6,051224,3.4,W,D*2A
$GNVTG,354.506,T,357.939,M,0.13355,N,0.24734,K,D*3C
$GNHDT,76.0424,T*28
$GPGGA,093752.20,2234.32508033,N,11431.88860864,E,4,23,0.7,1.0938,M,-1.3511,M,03,0000*74
$GPRMC,093752.20,A,2234.32508033,N,11431.88860864,E,0.134,354.5,051224,3.4,W,D*25
$GNVTG,311.792,T,315.225,M,0.23150,N,0.42874,K,D*3D
$GNHDT,76.3190,T*21
$GPGGA,093752.40,2234.32508894,N,11431.88859828,E,4,23,0.7,1.1044,M,-1.3511,M,03,0000*76
$GPRMC,093752.40,A,2234.32508894,N,11431.88859828,E,0.231,311.8,051224,3.4,W,D*2E
$GNVTG,303.398,T,306.831,M,0.21170,N,0.39206,K,D*3E
$GNHDT,76.4873,T*22
$GPGGA,093752.60,2234.32509543,N,11431.88858767,E,4,23,0.7,1.1332,M,-1.3511,M,03,0000*75
$GPRMC,093752.60,A,2234.32509543,N,11431.88858767,E,0.212,303.4,051224,3.4,W,D*21
$GNVTG,310.398,T,313.831,M,0.17008,N,0.31498,K,D*3A
$GNHDT,76.8035,T*24
$GPGGA,093752.80,2234.32510158,N,11431.88857990,E,4,23,0.7,1.1568,M,-1.3511,M,03,0000*7D
$GPRMC,093752.80,A,2234.32510158,N,11431.88857990,E,0.170,310.4,051224,3.4,W,D*25
$GNVTG,307.096,T,310.529,M,0.16794,N,0.31102,K,D*33
$GNHDT,76.5312,T*2F
$GPGGA,093753.00,2234.32510722,N,11431.88857186,E,4,22,0.7,1.1671,M,-1.3511,M,04,0000*7D
$GPRMC,093753.00,A,2234.32510722,N,11431.88857186,E,0.168,307.1,051224,3.4,W,D*22
$GNVTG,310.407,T,313.840,M,0.27103,N,0.50194,K,D*3A
$GNHDT,76.8515,T*23
$GPGGA,093753.20,2234.32511702,N,11431.88855947,E,4,22,0.7,1.1320,M,-1.3511,M,04,0000*7A
$GPRMC,093753.20,A,2234.32511702,N,11431.88855947,E,0.271,310.4,051224,3.4,W,D*2C
$GNVTG,349.586,T,353.019,M,0.09046,N,0.16754,K,D*3A
$GNHDT,76.2861,T*27
$GPGGA,093753.40,2234.32512198,N,11431.88855849,E,4,23,0.7,1.1244,M,-1.3511,M,04,0000*77
$GPRMC,093753.40,A,2234.32512198,N,11431.88855849,E,0.090,349.6,051224,3.4,W,D*20
$GNVTG,317.762,T,321.195,M,0.31596,N,0.58516,K,D*34
$GNHDT,76.6854,T*25
$GPGGA,093753.60,2234.32513502,N,11431.88854574,E,4,23,0.7,1.1000,M,-1.3511,M,04,0000*73
$GPRMC,093753.60,A,2234.32513502,N,11431.88854574,E,0.316,317.8,051224,3.4,W,D*2E
$GNVTG,353.312,T,356.745,M,0.20614,N,0.38177,K,D*30
$GNHDT,76.4700,T*29
$GPGGA,093753.80,2234.32514643,N,11431.88854430,E,4,23,0.7,1.0870,M,-1.3511,M,00,0000*77
$GPRMC,093753.80,A,2234.32514643,N,11431.88854430,E,0.206,353.3,051224,3.4,W,D*2B
$GNVTG,335.567,T,339.000,M,0.21910,N,0.40577,K,D*3A
$GNHDT,76.1415,T*2B
$GPGGA,093754.00,2234.32515755,N,11431.88853886,E,4,22,0.7,1.0977,M,-1.3511,M,01,0000*7F
$GPRMC,093754.00,A,2234.32515755,N,11431.88853886,E,0.219,335.6,051224,3.4,W,D*2E
$GNVTG,328.258,T,331.691,M,0.21490,N,0.39800,K,D*3D
$GNHDT,76.2366,T*2B
$GPGGA,093754.20,2234.32516774,N,11431.88853207,E,4,22,0.7,1.1112,M,-1.3511,M,01,0000*74
$GPRMC,093754.20,A,2234.32516774,N,11431.88853207,E,0.215,328.3,051224,3.4,W,D*2A
$GNVTG,305.215,T,308.648,M,0.42037,N,0.77853,K,D*35
$GNHDT,76.5816,T*20
$GPGGA,093754.40,2234.32518125,N,11431.88851146,E,4,22,0.7,1.1027,M,-1.3512,M,01,0000*7E
$GPRMC,093754.40,A,2234.32518125,N,11431.88851146,E,0.420,305.2,051224,3.4,W,D*2A
$GNVTG,294.951,T,298.384,M,0.32538,N,0.60261,K,D*3A
$GNHDT,76.6026,T*28
$GPGGA,093754.60,2234.32518890,N,11431.88849375,E,4,22,0.7,1.1412,M,-1.3512,M,01,0000*72
$GPRMC,093754.60,A,2234.32518890,N,11431.88849375,E,0.325,295.0,051224,3.4,W,D*2C
$GNVTG,300.739,T,304.172,M,0.28846,N,0.53422,K,D*37
$GNHDT,77.0226,T*2D
$GPGGA,093754.80,2234.32519712,N,11431.88847887,E,4,23,0.7,1.1507,M,-1.3512,M,00,0000*75
$GPRMC,093754.80,A,2234.32519712,N,11431.88847887,E,0.288,300.7,051224,3.4,W,D*22
$GNVTG,292.818,T,296.251,M,0.30532,N,0.56545,K,D*3B
$GNHDT,77.0311,T*28
$GPGGA,093755.00,2234.32520372,N,11431.88846197,E,4,23,0.7,1.1362,M,-1.3512,M,01,0000*79
$GPRMC,093755.00,A,2234.32520372,N,11431.88846197,E,0.305,292.8,051224,3.4,W,D*2B
$GNVTG,330.752,T,334.185,M,0.18120,N,0.33558,K,D*32
$GNHDT,76.4321,T*2E
$GPGGA,093755.20,2234.32521254,N,11431.88845666,E,4,23,0.7,1.1372,M,-1.3512,M,01,0000*74
$GPRMC,093755.20,A,2234.32521254,N,11431.88845666,E,0.181,330.8,051224,3.4,W,D*20
$GNVTG,326.320,T,329.753,M,0.21117,N,0.39109,K,D*31
$GNHDT,75.9572,T*20
$GPGGA,093755.40,2234.32522233,N,11431.88844963,E,4,23,0.7,1.1250,M,-1.3512,M,01,0000*7A
$GPRMC,093755.40,A,2234.32522233,N,11431.88844963,E,0.211,326.3,051224,3.4,W,D*29
$GNVTG,332.318,T,335.751,M,0.31818,N,0.58928,K,D*3B
$GNHDT,76.1719,T*24
$GPGGA,093755.60,2234.32523804,N,11431.88844076,E,4,23,0.7,1.1216,M,-1.3512,M,01,0000*78
$GPRMC,093755.60,A,2234.32523804,N,11431.88844076,E,0.318,332.3,051224,3.4,W,D*24
$GNVTG,336.760,T,340.193,M,0.26361,N,0.48820,K,D*35
$GNHDT,76.1771,T*2A
$GPGGA,093755.80,2234.32525154,N,11431.88843451,E,4,23,0.7,1.0981,M,-1.3512,M,00,0000*7F
$GPRMC,093755.80,A,2234.32525154,N,11431.88843451,E,0.264,336.8,051224,3.4,W,D*23
$GNVTG,312.800,T,316.233,M,0.32151,N,0.59544,K,D*3B
$GNHDT,76.5570,T*2D
$GPGGA,093756.00,2234.32526372,N,11431.88842035,E,4,23,0.6,1.0910,M,-1.3512,M,01,0000*7E
$GPRMC,093756.00,A,2234.32526372,N,11431.88842035,E,0.322,312.8,051224,3.4,W,D*2F
$GNVTG,289.041,T,292.474,M,0.30735,N,0.56920,K,D*3A
$GNHDT,76.4099,T*2E
$GPGGA,093756.20,2234.32526931,N,11431.88840291,E,4,23,0.6,1.0701,M,-1.3512,M,01,0000*71
$GPRMC,093756.20,A,2234.32526931,N,11431.88840291,E,0.307,289.0,051224,3.4,W,D*22
$GNVTG,317.553,T,320.986,M,0.30795,N,0.57033,K,D*32
$GNHDT,77.1159,T*27
$GPGGA,093756.40,2234.32528198,N,11431.88839044,E,4,23,0.6,1.1015,M,-1.3512,M,01,0000*75
$GPRMC,093756.40,A,2234.32528198,N,11431.88839044,E,0.308,317.6,051224,3.4,W,D*2A
$GNVTG,306.641,T,310.074,M,0.28680,N,0.53116,K,D*3B
$GNHDT,76.8147,T*20
$GPGGA,093756.60,2234.32529152,N,11431.88837662,E,4,24,0.6,1.1166,M,-1.3512,M,01,0000*7E
$GPRMC,093756.60,A,2234.32529152,N,11431.88837662,E,0.287,306.6,051224,3.4,W,D*25
$GNVTG,324.360,T,327.793,M,0.30808,N,0.57056,K,D*31
$GNHDT,76.8710,T*24
$GPGGA,093756.80,2234.32530548,N,11431.88836585,E,4,24,0.6,1.1571,M,-1.3512,M,00,0000*7F
$GPRMC,093756.80,A,2234.32530548,N,11431.88836585,E,0.308,324.4,051224,3.4,W,D*23
$GNVTG,317.650,T,321.082,M,0.30001,N,0.55561,K,D*34
$GNHDT,76.8243,T*27
$GPGGA,093757.00,2234.32531784,N,11431.88835372,E,4,24,0.6,1.1651,M,-1.3512,M,01,0000*78
$GPRMC,093757.00,A,2234.32531784,N,11431.88835372,E,0.300,317.6,051224,3.4,W,D*2E
$GNVTG,319.975,T,323.408,M,0.32222,N,0.59676,K,D*3E
$GNHDT,76.9274,T*22
$GPGGA,093757.20,2234.32533160,N,11431.88834128,E,4,24,0.6,1.1951,M,-1.3512,M,01,0000*77
$GPRMC,093757.20,A,2234.32533160,N,11431.88834128,E,0.322,320.0,051224,3.4,W,D*2C
$GNVTG,295.443,T,298.876,M,0.39122,N,0.72454,K,D*34
$GNHDT,76.1372,T*2D
$GPGGA,093757.40,2234.32534096,N,11431.88832007,E,4,24,0.6,1.1663,M,-1.3512,M,01,0000*7A
$GPRMC,093757.40,A,2234.32534096,N,11431.88832007,E,0.391,295.4,051224,3.4,W,D*2C
$GNVTG,302.788,T,306.221,M,0.31837,N,0.58962,K,D*34
$GNHDT,75.8465,T*26
$GPGGA,093757.60,2234.32535058,N,11431.88830400,E,4,23,0.7,1.1886,M,-1.3512,M,01,0000*79
$GPRMC,093757.60,A,2234.32535058,N,11431.88830400,E,0.318,302.8,051224,3.4,W,D*2E
$GNVTG,305.680,T,309.113,M,0.47717,N,0.88373,K,D*3C
$GNHDT,76.4210,T*2D
$GPGGA,093757.80,2234.32536609,N,11431.88828074,E,4,23,0.7,1.1741,M,-1.3512,M,00,0000*7D
$GPRMC,093757.80,A,2234.32536609,N,11431.88828074,E,0.477,305.7,051224,3.4,W,D*29
$GNVTG,315.393,T,318.826,M,0.23650,N,0.43801,K,D*3C
$GNHDT,76.2564,T*2F
$GPGGA,093758.00,2234.32537548,N,11431.88827077,E,4,23,0.7,1.1718,M,-1.3512,M,01,0000*7C
$GPRMC,093758.00,A,2234.32537548,N,11431.88827077,E,0.237,315.4,051224,3.4,W,D*25
$GNVTG,297.609,T,301.042,M,0.40868,N,0.75688,K,D*39
$GNHDT,76.3576,T*2D
$GPGGA,093758.20,2234.32538604,N,11431.88824903,E,4,23,0.7,1.1275,M,-1.3512,M,01,0000*7D
$GPRMC,093758.20,A,2234.32538604,N,11431.88824903,E,0.409,297.6,051224,3.4,W,D*28
$GNVTG,304.529,T,307.962,M,0.28910,N,0.53542,K,D*3F
$GNHDT,76.7169,T*23
$GPGGA,093758.40,2234.32539517,N,11431.88823473,E,4,24,0.6,1.1340,M,-1.3512,M,01,0000*77
$GPRMC,093758.40,A,2234.32539517,N,11431.88823473,E,0.289,304.5,051224,3.4,W,D*25
$GNVTG,285.515,T,288.948,M,0.30754,N,0.56957,K,D*3C
$GNHDT,76.8006,T*24
$GPGGA,093758.60,2234.32539976,N,11431.88821694,E,4,24,0.6,1.1122,M,-1.3512,M,01,0000*71
$GPRMC,093758.60,A,2234.32539976,N,11431.88821694,E,0.308,285.5,051224,3.4,W,D*25
$GNVTG,285.245,T,288.678,M,0.35690,N,0.66098,K,D*37
$GNHDT,76.8241,T*25
$GPGGA,093758.80,2234.32540499,N,11431.88819628,E,4,24,0.6,1.1327,M,-1.3512,M,00,0000*77
$GPRMC,093758.80,A,2234.32540499,N,11431.88819628,E,0.357,285.2,051224,3.4,W,D*28
$GNVTG,293.922,T,297.355,M,0.24779,N,0.45890,K,D*39
$GNHDT,76.4173,T*2B
$GPGGA,093759.00,2234.32541059,N,11431.88818268,E,4,24,0.6,1.1501,M,-1.3512,M,01,0000*75
$GPRMC,093759.00,A,2234.32541059,N,11431.88818268,E,0.248,293.9,051224,3.4,W,D*2A
$GNVTG,305.354,T,308.787,M,0.31749,N,0.58798,K,D*3C
$GNHDT,76.4126,T*2B
$GPGGA,093759.20,2234.32542083,N,11431.88816714,E,4,22,0.7,1.1556,M,-1.3512,M,01,0000*76
$GPRMC,093759.20,A,2234.32542083,N,11431.88816714,E,0.317,305.4,051224,3.4,W,D*24
$GNVTG,304.011,T,307.444,M,0.14927,N,0.27645,K,D*34
$GNHDT,76.0307,T*2E
$GPGGA,093759.40,2234.32542549,N,11431.88815971,E,4,22,0.7,1.1708,M,-1.3512,M,01,0000*74
$GPRMC,093759.40,A,2234.32542549,N,11431.88815971,E,0.149,304.0,051224,3.4,W,D*23
$GNVTG,318.966,T,322.399,M,0.34468,N,0.63835,K,D*3D
$GNHDT,76.1938,T*29
$GPGGA,093759.60,2234.32543998,N,11431.88814613,E,4,22,0.7,1.1811,M,-1.3512,M,01,0000*7A
$GPRMC,093759.60,A,2234.32543998,N,11431.88814613,E,0.345,319.0,051224,3.4,W,D*28
$GNVTG,286.014,T,289.446,M,0.31358,N,0.58074,K,D*36
$GNHDT,76.4197,T*21
$GPGGA,093759.80,2234.32544480,N,11431.88812803,E,4,22,0.7,1.1782,M,-1.3512,M,00,0000*7A
$GPRMC,093759.80,A,2234.32544480,N,11431.88812803,E,0.314,286.0,051224,3.4,W,D*2F
$GNVTG,286.077,T,289.510,M,0.33782,N,0.62565,K,D*3C
$GNHDT,76.3484,T*21
$GPGGA,093800.00,2234.32545002,N,11431.88810855,E,4,22,0.7,1.1734,M,-1.3512,M,01,0000*73
$GPRMC,093800.00,A,2234.32545002,N,11431.88810855,E,0.338,286.1,051224,3.4,W,D*25
$GNVTG,290.119,T,293.552,M,0.43094,N,0.79811,K,D*3C
$GNHDT,76.6287,T*21
$GPGGA,093800.20,2234.32545828,N,11431.88808426,E,4,24,0.6,1.1640,M,-1.3512,M,01,0000*75
$GPRMC,093800.20,A,2234.32545828,N,11431.88808426,E,0.431,290.1,051224,3.4,W,D*2F
$GNVTG,284.443,T,287.875,M,0.33828,N,0.62650,K,D*37
$GNHDT,76.1659,T*21
$GPGGA,093800.40,2234.32546299,N,11431.88806459,E,4,24,0.6,1.1295,M,-1.3512,M,01,0000*7A
$GPRMC,093800.40,A,2234.32546299,N,11431.88806459,E,0.338,284.4,051224,3.4,W,D*22
$GNVTG,300.054,T,303.486,M,0.31436,N,0.58220,K,D*3E
$GNHDT,76.3777,T*2E
$GPGGA,093800.60,2234.32547176,N,11431.88804826,E,4,24,0.6,1.1218,M,-1.3512,M,01,0000*78
$GPRMC,093800.60,A,2234.32547176,N,11431.88804826,E,0.314,300.1,051224,3.4,W,D*23
$GNVTG,307.313,T,310.746,M,0.25903,N,0.47972,K,D*38
$GNHDT,76.3125,T*2F
$GPGGA,093800.80,2234.32548052,N,11431.88803589,E,4,24,0.6,1.1124,M,-1.3512,M,00,0000*7C
$GPRMC,093800.80,A,2234.32548052,N,11431.88803589,E,0.259,307.3,051224,3.4,W,D*27
$GNVTG,315.386,T,318.819,M,0.18771,N,0.34764,K,D*32
$GNHDT,76.2905,T*24
$GPGGA,093801.00,2234.32548796,N,11431.88802798,E,4,24,0.6,1.0975,M,-1.3512,M,01,0000*75
$GPRMC,093801.00,A,2234.32548796,N,11431.88802798,E,0.188,315.4,051224,3.4,W,D*29
$GNVTG,317.781,T,321.214,M,0.28183,N,0.52195,K,D*3E
$GNHDT,76.2339,T*21
$GPGGA,093801.20,2234.32549960,N,11431.88801661,E,4,24,0.6,1.0904,M,-1.3512,M,01,0000*73
$GPRMC,093801.20,A,2234.32549960,N,11431.88801661,E,0.282,317.8,051224,3.4,W,D*2E
$GNVTG,350.256,T,353.688,M,0.22313,N,0.41323,K,D*3A
$GNHDT,76.1724,T*2A
$GPGGA,093801.40,2234.32551186,N,11431.88801434,E,4,23,0.7,1.0947,M,-1.3512,M,01,0000*7F
$GPRMC,093801.40,A,2234.32551186,N,11431.88801434,E,0.223,350.3,051224,3.4,W,D*20
$GNVTG,341.461,T,344.894,M,0.12016,N,0.22254,K,D*3C
$GNHDT,75.7607,T*2F
$GPGGA,093801.60,2234.32551821,N,11431.88801205,E,4,22,0.7,1.0838,M,-1.3512,M,01,0000*75
$GPRMC,093801.60,A,2234.32551821,N,11431.88801205,E,0.120,341.5,051224,3.4,W,D*24
$GNVTG,335.234,T,338.667,M,0.23933,N,0.44324,K,D*3A
$GNHDT,76.2051,T*2C
$GPGGA,093801.80,2234.32553032,N,11431.88800603,E,4,22,0.7,1.0829,M,-1.3512,M,00,0000*71
$GPRMC,093801.80,A,2234.32553032,N,11431.88800603,E,0.239,335.2,051224,3.4,W,D*2E
$GNVTG,315.918,T,319.351,M,0.18751,N,0.34727,K,D*3C
$GNHDT,75.9877,T*28
$GPGGA,093802.00,2234.32553783,N,11431.88799820,E,4,22,0.7,1.0491,M,-1.3512,M,01,0000*79
$GPRMC,093802.00,A,2234.32553783,N,11431.88799820,E,0.188,315.9,051224,3.4,W,D*28
$GNVTG,335.009,T,338.442,M,0.22769,N,0.42168,K,D*3F
$GNHDT,76.3316,T*2D
$GPGGA,093802.20,2234.32554934,N,11431.88799243,E,4,22,0.7,1.0315,M,-1.3512,M,01,0000*7A
$GPRMC,093802.20,A,2234.32554934,N,11431.88799243,E,0.228,335.0,051224,3.4,W,D*22
$GNVTG,327.384,T,330.817,M,0.14541,N,0.26930,K,D*34
$GNHDT,76.2117,T*2F
$GPGGA,093802.40,2234.32555617,N,11431.88798772,E,4,22,0.7,1.0338,M,-1.3512,M,01,0000*7A
$GPRMC,093802.40,A,2234.32555617,N,11431.88798772,E,0.145,327.4,051224,3.4,W,D*22
$GNVTG,337.692,T,341.125,M,0.26560,N,0.49189,K,D*38
$GNHDT,76.3078,T*26
$GPGGA,093802.60,2234.32556986,N,11431.88798167,E,4,22,0.7,1.0240,M,-1.3512,M,01,0000*70
$GPRMC,093802.60,A,2234.32556986,N,11431.88798167,E,0.266,337.7,051224,3.4,W,D*26
$GNVTG,17.043,T,20.476,M,0.26597,N,0.49257,K,D*3C
$GNHDT,76.0384,T*25
$GPGGA,093802.80,2234.32558404,N,11431.88798635,E,4,22,0.7,1.0574,M,-1.3512,M,00,0000*76
$GPRMC,093802.80,A,2234.32558404,N,11431.88798635,E,0.266,17.0,051224,3.4,W,D*17
$GNVTG,337.969,T,341.402,M,0.35312,N,0.65398,K,D*3E
$GNHDT,76.7307,T*29
$GPGGA,093803.00,2234.32560229,N,11431.88797840,E,4,22,0.7,1.0857,M,-1.3512,M,01,0000*73
$GPRMC,093803.00,A,2234.32560229,N,11431.88797840,E,0.353,338.0,051224,3.4,W,D*26
$GNVTG,329.563,T,332.995,M,0.35183,N,0.65158,K,D*34
$GNHDT,76.8104,T*27
$GPGGA,093803.20,2234.32561920,N,11431.88796770,E,4,23,0.7,1.1080,M,-1.3512,M,01,0000*7D
$GPRMC,093803.20,A,2234.32561920,N,11431.88796770,E,0.352,329.6,051224,3.4,W,D*2D
$GNVTG,322.008,T,325.440,M,0.32084,N,0.59419,K,D*3A
$GNHDT,76.5993,T*2C
$GPGGA,093803.40,2234.32563329,N,11431.88795585,E,4,23,0.7,1.0984,M,-1.3512,M,01,0000*7D
$GPRMC,093803.40,A,2234.32563329,N,11431.88795585,E,0.321,322.0,051224,3.4,W,D*28
$GNVTG,325.467,T,328.900,M,0.31479,N,0.58299,K,D*3E
$GNHDT,76.6638,T*21
$GPGGA,093803.60,2234.32564775,N,11431.88794513,E,4,23,0.7,1.1142,M,-1.3512,M,01,0000*78
$GPRMC,093803.60,A,2234.32564775,N,11431.88794513,E,0.315,325.5,051224,3.4,W,D*2B
$GNVTG,312.742,T,316.175,M,0.24226,N,0.44867,K,D*37
$GNHDT,76.4948,T*2B
$GPGGA,093803.80,2234.32565692,N,11431.88793445,E,4,23,0.7,1.1063,M,-1.3512,M,00,0000*79
$GPRMC,093803.80,A,2234.32565692,N,11431.88793445,E,0.242,312.7,051224,3.4,W,D*2C
$GNVTG,293.431,T,296.863,M,0.31100,N,0.57598,K,D*33
$GNHDT,76.3466,T*2D
$GPGGA,093804.00,2234.32566381,N,11431.88791733,E,4,23,0.7,1.1335,M,-1.3512,M,01,0000*73
$GPRMC,093804.00,A,2234.32566381,N,11431.88791733,E,0.311,293.4,051224,3.4,W,D*2B
$GNVTG,289.232,T,292.665,M,0.42492,N,0.78696,K,D*3B
$GNHDT,76.6946,T*27
$GPGGA,093804.20,2234.32567161,N,11431.88789324,E,4,23,0.7,1.1441,M,-1.3512,M,01,0000*73
$GPRMC,093804.20,A,2234.32567161,N,11431.88789324,E,0.425,289.2,051224,3.4,W,D*22
$GNVTG,288.210,T,291.643,M,0.41228,N,0.76353,K,D*3B
$GNHDT,76.8832,T*2B
$GPGGA,093804.40,2234.32567880,N,11431.88786973,E,4,22,0.7,1.1827,M,-1.3512,M,01,0000*79
$GPRMC,093804.40,A,2234.32567880,N,11431.88786973,E,0.412,288.2,051224,3.4,W,D*20
$GNVTG,284.193,T,287.626,M,0.48776,N,0.90333,K,D*32
$GNHDT,77.3281,T*23
$GPGGA,093804.60,2234.32568546,N,11431.88784135,E,4,22,0.7,1.1861,M,-1.3512,M,01,0000*79
$GPRMC,093804.60,A,2234.32568546,N,11431.88784135,E,0.488,284.2,051224,3.4,W,D*2D
$GNVTG,283.968,T,287.401,M,0.37459,N,0.69374,K,D*3D
$GNHDT,77.2196,T*27
$GPGGA,093804.80,2234.32569050,N,11431.88781953,E,4,22,0.7,1.2219,M,-1.3512,M,01,0000*7F
$GPRMC,093804.80,A,2234.32569050,N,11431.88781953,E,0.375,284.0,051224,3.4,W,D*2A
$GNVTG,307.335,T,310.768,M,0.36348,N,0.67316,K,D*3D
$GNHDT,77.4490,T*22
$GPGGA,093805.00,2234.32570279,N,11431.88780218,E,4,22,0.7,1.2518,M,-1.3512,M,02,0000*77
$GPRMC,093805.00,A,2234.32570279,N,11431.88780218,E,0.363,307.3,051224,3.4,W,D*29
$GNVTG,299.437,T,302.870,M,0.42460,N,0.78636,K,D*3C
$GNHDT,77.3839,T*2A
$GPGGA,093805.20,2234.32571443,N,11431.88777998,E,4,22,0.7,1.2090,M,-1.3512,M,02,0000*75
$GPRMC,093805.20,A,2234.32571443,N,11431.88777998,E,0.425,299.4,051224,3.4,W,D*2A
$GNVTG,298.530,T,301.963,M,0.12448,N,0.23054,K,D*38
$GNHDT,76.8177,T*23
$GPGGA,093805.40,2234.32571774,N,11431.88777342,E,4,22,0.7,1.1970,M,-1.3512,M,02,0000*7D
$GPRMC,093805.40,A,2234.32571774,N,11431.88777342,E,0.124,298.5,051224,3.4,W,D*22
$GNVTG,290.938,T,294.371,M,0.37937,N,0.70259,K,D*3B
$GNHDT,76.8591,T*2F
$GPGGA,093805.60,2234.32572530,N,11431.88775215,E,4,22,0.7,1.1813,M,-1.3512,M,02,0000*7B
$GPRMC,093805.60,A,2234.32572530,N,11431.88775215,E,0.379,290.9,051224,3.4,W,D*2E
$GNVTG,292.471,T,295.903,M,0.37072,N,0.68658,K,D*33
$GNHDT,77.0148,T*26
$GPGGA,093805.80,2234.32573320,N,11431.88773159,E,4,22,0.7,1.1613,M,-1.3512,M,02,0000*70
$GPRMC,093805.80,A,2234.32573320,N,11431.88773159,E,0.371,292.5,051224,3.4,W,D*2D
$GNVTG,298.478,T,301.911,M,0.52696,N,0.97593,K,D*34
$GNHDT,77.8872,T*2E
$GPGGA,093806.00,2234.32574720,N,11431.88770378,E,4,22,0.7,1.1458,M,-1.3512,M,03,0000*76
$GPRMC,093806.00,A,2234.32574720,N,11431.88770378,E,0.527,298.5,051224,3.4,W,D*28
$GNVTG,286.685,T,290.118,M,0.28819,N,0.53373,K,D*37
$GNHDT,77.2685,T*22
$GPGGA,093806.20,2234.32575182,N,11431.88768721,E,4,23,0.7,1.1327,M,-1.3512,M,03,0000*74
$GPRMC,093806.20,A,2234.32575182,N,11431.88768721,E,0.288,286.7,051224,3.4,W,D*2B
$GNVTG,304.710,T,308.143,M,0.23993,N,0.44435,K,D*34
$GNHDT,77.7758,T*26
$GPGGA,093806.40,2234.32575943,N,11431.88767537,E,4,22,0.7,1.1478,M,-1.3512,M,03,0000*71
$GPRMC,093806.40,A,2234.32575943,N,11431.88767537,E,0.240,304.7,051224,3.4,W,D*2D
$GNVTG,329.811,T,333.244,M,0.20412,N,0.37802,K,D*32
$GNHDT,77.7844,T*24
$GPGGA,093806.60,2234.32576927,N,11431.88766921,E,4,22,0.7,1.1434,M,-1.3512,M,03,0000*70
$GPRMC,093806.60,A,2234.32576927,N,11431.88766921,E,0.204,329.8,051224,3.4,W,D*24
$GNVTG,322.831,T,326.264,M,0.09264,N,0.17157,K,D*3A
$GNHDT,77.2703,T*2D
$GPGGA,093806.80,2234.32577338,N,11431.88766585,E,4,21,0.7,1.1442,M,-1.3512,M,00,0000*78
$GPRMC,093806.80,A,2234.32577338,N,11431.88766585,E,0.093,322.8,051224,3.4,W,D*2A
$GNVTG,319.077,T,322.510,M,0.18723,N,0.34676,K,D*3B
$GNHDT,77.1220,T*2A
$GPGGA,093807.00,2234.32578127,N,11431.88765849,E,4,21,0.7,1.1583,M,-1.3512,M,01,0000*71
$GPRMC,093807.00,A,2234.32578127,N,11431.88765849,E,0.187,319.1,051224,3.4,W,D*2B
$GNVTG,310.667,T,314.100,M,0.46713,N,0.86513,K,D*34
$GNHDT,77.3164,T*2B
$GPGGA,093807.20,2234.32579824,N,11431.88763722,E,4,21,0.7,1.1267,M,-1.3512,M,01,0000*71
$GPRMC,093807.20,A,2234.32579824,N,11431.88763722,E,0.467,310.7,051224,3.4,W,D*22
$GNVTG,307.768,T,311.200,M,0.36737,N,0.68038,K,D*37
$GNHDT,77.6588,T*28
$GPGGA,093807.40,2234.32581078,N,11431.88761979,E,4,22,0.7,1.1424,M,-1.3512,M,01,0000*71
$GPRMC,093807.40,A,2234.32581078,N,11431.88761979,E,0.367,307.8,051224,3.4,W,D*2E
$GNVTG,306.401,T,309.834,M,0.28570,N,0.52911,K,D*3B
$GNHDT,77.6143,T*2B
$GPGGA,093807.60,2234.32582024,N,11431.88760598,E,4,21,0.7,1.1243,M,-1.3512,M,01,0000*7F
$GPRMC,093807.60,A,2234.32582024,N,11431.88760598,E,0.286,306.4,051224,3.4,W,D*27
$GNVTG,292.416,T,295.848,M,0.25439,N,0.47114,K,D*36
$GNHDT,77.6560,T*2E
$GPGGA,093807.80,2234.32582564,N,11431.88759187,E,4,22,0.7,1.1321,M,-1.3512,M,00,0000*77
$GPRMC,093807.80,A,2234.32582564,N,11431.88759187,E,0.254,292.4,051224,3.4,W,D*2B
$GNVTG,300.655,T,304.088,M,0.25211,N,0.46690,K,D*32
$GNHDT,77.8557,T*24
$GPGGA,093808.00,2234.32583281,N,11431.88757885,E,4,22,0.7,1.1086,M,-1.3512,M,01,0000*77
$GPRMC,093808.00,A,2234.32583281,N,11431.88757885,E,0.252,300.7,051224,3.4,W,D*2B
$GNVTG,302.472,T,305.905,M,0.33598,N,0.62224,K,D*36
$GNHDT,78.4892,T*23
$GPGGA,093808.20,2234.32584287,N,11431.88756183,E,4,22,0.7,1.0866,M,-1.3512,M,01,0000*7D
$GPRMC,093808.20,A,2234.32584287,N,11431.88756183,E,0.336,302.5,051224,3.4,W,D*25
$GNVTG,298.905,T,302.338,M,0.18568,N,0.34387,K,D*37
$GNHDT,77.7541,T*2C
$GPGGA,093808.40,2234.32584787,N,11431.88755208,E,4,22,0.7,1.0897,M,-1.3512,M,01,0000*73
$GPRMC,093808.40,A,2234.32584787,N,11431.88755208,E,0.186,298.9,051224,3.4,W,D*22
$GNVTG,324.813,T,328.245,M,0.31734,N,0.58771,K,D*33
$GNHDT,78.1212,T*24
$GPGGA,093808.60,2234.32586233,N,11431.88754110,E,4,22,0.7,1.0893,M,-1.3512,M,01,0000*76
$GPRMC,093808.60,A,2234.32586233,N,11431.88754110,E,0.317,324.8,051224,3.4,W,D*2E
$GNVTG,347.698,T,351.131,M,0.19562,N,0.36229,K,D*3E
$GNHDT,77.5971,T*21
$GPGGA,093808.80,2234.32587298,N,11431.88753860,E,4,21,0.7,1.1033,M,-1.3512,M,00,0000*70
$GPRMC,093808.80,A,2234.32587298,N,11431.88753860,E,0.196,347.7,051224,3.4,W,D*28
$GNVTG,350.317,T,353.749,M,0.32946,N,0.61015,K,D*3D
$GNHDT,77.9959,T*27
$GPGGA,093809.00,2234.32589109,N,11431.88753527,E,4,21,0.7,1.1142,M,-1.3512,M,01,0000*74
$GPRMC,093809.00,A,2234.32589109,N,11431.88753527,E,0.329,350.3,051224,3.4,W,D*2E
$GNVTG,336.107,T,339.540,M,0.29076,N,0.53849,K,D*39
$GNHDT,78.1888,T*2D
$GPGGA,093809.20,2234.32590591,N,11431.88752820,E,4,22,0.7,1.0837,M,-1.3512,M,01,0000*79
$GPRMC,093809.20,A,2234.32590591,N,11431.88752820,E,0.291,336.1,051224,3.4,W,D*2A
$GNVTG,317.893,T,321.326,M,0.05742,N,0.10635,K,D*3D
$GNHDT,78.2157,T*25
$GPGGA,093809.40,2234.32590828,N,11431.88752589,E,4,22,0.7,1.0634,M,-1.3512,M,01,0000*73
$GPRMC,093809.40,A,2234.32590828,N,11431.88752589,E,0.057,317.9,051224,3.4,W,D*2E
$GNVTG,321.960,T,325.393,M,0.29725,N,0.55052,K,D*36
$GNHDT,78.9997,T*2A
$GPGGA,093809.60,2234.32592133,N,11431.88751490,E,4,22,0.7,1.0616,M,-1.3512,M,01,0000*7A
$GPRMC,093809.60,A,2234.32592133,N,11431.88751490,E,0.297,322.0,051224,3.4,W,D*26
$GNVTG,269.965,T,273.398,M,0.16539,N,0.30630,K,D*35
$GNHDT,78.5811,T*29
$GPGGA,093809.80,2234.32592133,N,11431.88750497,E,4,22,0.7,1.0630,M,-1.3512,M,00,0000*77
$GPRMC,093809.80,A,2234.32592133,N,11431.88750497,E,0.165,270.0,051224,3.4,W,D*26
$GNVTG,287.461,T,290.894,M,0.29839,N,0.55262,K,D*37
$GNHDT,78.4607,T*21
$GPGGA,093810.00,2234.32592632,N,11431.88748788,E,4,21,0.7,1.0661,M,-1.3512,M,01,0000*73
$GPRMC,093810.00,A,2234.32592632,N,11431.88748788,E,0.298,287.5,051224,3.4,W,D*28
$GNVTG,299.960,T,303.393,M,0.34641,N,0.64155,K,D*3B
$GNHDT,78.6661,T*23
$GPGGA,093810.20,2234.32593596,N,11431.88746987,E,4,21,0.7,1.0830,M,-1.3512,M,01,0000*78
$GPRMC,093810.20,A,2234.32593596,N,11431.88746987,E,0.346,300.0,051224,3.4,W,D*20
$GNVTG,301.829,T,305.262,M,0.44761,N,0.82897,K,D*35
$GNHDT,79.2091,T*2F
$GPGGA,093810.40,2234.32594912,N,11431.88744704,E,4,23,0.7,1.1117,M,-1.3512,M,01,0000*71
$GPRMC,093810.40,A,2234.32594912,N,11431.88744704,E,0.448,301.8,051224,3.4,W,D*26
$GNVTG,300.575,T,304.008,M,0.37558,N,0.69557,K,D*37
$GNHDT,79.1286,T*28
$GPGGA,093810.60,2234.32595977,N,11431.88742763,E,4,23,0.7,1.1431,M,-1.3512,M,01,0000*77
$GPRMC,093810.60,A,2234.32595977,N,11431.88742763,E,0.376,300.6,051224,3.4,W,D*24
$GNVTG,319.199,T,322.632,M,0.31142,N,0.57676,K,D*36
$GNHDT,79.0616,T*24
$GPGGA,093810.80,2234.32597291,N,11431.88741541,E,4,23,0.7,1.1644,M,-1.3512,M,00,0000*78
$GPRMC,093810.80,A,2234.32597291,N,11431.88741541,E,0.311,319.2,051224,3.4,W,D*27
$GNVTG,311.514,T,314.947,M,0.29006,N,0.53718,K,D*32
$GNHDT,78.8650,T*2F
$GPGGA,093811.00,2234.32598363,N,11431.88740238,E,4,23,0.7,1.1618,M,-1.3512,M,01,0000*72
$GPRMC,093811.00,A,2234.32598363,N,11431.88740238,E,0.290,311.5,051224,3.4,W,D*22
$GNVTG,324.767,T,328.200,M,0.27584,N,0.51086,K,D*36
$GNHDT,78.6868,T*24
$GPGGA,093811.20,2234.32599619,N,11431.88739283,E,4,23,0.7,1.1446,M,-1.3512,M,01,0000*7E
$GPRMC,093811.20,A,2234.32599619,N,11431.88739283,E,0.276,324.8,051224,3.4,W,D*24
$GNVTG,323.137,T,326.570,M,0.41529,N,0.76912,K,D*3A
$GNHDT,78.6474,T*25
$GPGGA,093811.40,2234.32601472,N,11431.88737787,E,4,23,0.7,1.1525,M,-1.3512,M,01,0000*7E
$GPRMC,093811.40,A,2234.32601472,N,11431.88737787,E,0.415,323.1,051224,3.4,W,D*2D
$GNVTG,300.195,T,303.628,M,0.40085,N,0.74237,K,D*36
$GNHDT,78.6197,T*2D
$GPGGA,093811.60,2234.32602595,N,11431.88735707,E,4,23,0.7,1.1218,M,-1.3512,M,01,0000*74
$GPRMC,093811.60,A,2234.32602595,N,11431.88735707,E,0.401,300.2,051224,3.4,W,D*29
$GNVTG,291.427,T,294.860,M,0.44091,N,0.81656,K,D*36
$GNHDT,78.7703,T*27
$GPGGA,093811.80,2234.32603493,N,11431.88733244,E,4,22,0.7,1.1196,M,-1.3512,M,00,0000*7D
$GPRMC,093811.80,A,2234.32603493,N,11431.88733244,E,0.441,291.4,051224,3.4,W,D*2E
$GNVTG,289.014,T,292.446,M,0.56645,N,1.04906,K,D*3F
$GNHDT,79.5566,T*25
$GPGGA,093812.00,2234.32604522,N,11431.88730029,E,4,22,0.7,1.1063,M,-1.3512,M,01,0000*7A
$GPRMC,093812.00,A,2234.32604522,N,11431.88730029,E,0.566,289.0,051224,3.4,W,D*2A
$GNVTG,286.155,T,289.588,M,0.39478,N,0.73114,K,D*32
$GNHDT,79.4283,T*28
$GPGGA,093812.20,2234.32605134,N,11431.88727753,E,4,22,0.7,1.1250,M,-1.3512,M,01,0000*74
$GPRMC,093812.20,A,2234.32605134,N,11431.88727753,E,0.395,286.2,051224,3.4,W,D*21
$GNVTG,297.125,T,300.558,M,0.32979,N,0.61077,K,D*38
$GNHDT,79.6078,T*2C
$GPGGA,093812.40,2234.32605973,N,11431.88725991,E,4,22,0.7,1.1368,M,-1.3512,M,01,0000*71
$GPRMC,093812.40,A,2234.32605973,N,11431.88725991,E,0.330,297.1,051224,3.4,W,D*22
$GNVTG,304.478,T,307.910,M,0.35699,N,0.66115,K,D*3D
$GNHDT,79.6200,T*21
$GPGGA,093812.60,2234.32607099,N,11431.88724224,E,4,22,0.7,1.1563,M,-1.3512,M,01,0000*75
$GPRMC,093812.60,A,2234.32607099,N,11431.88724224,E,0.357,304.5,051224,3.4,W,D*25
$GNVTG,306.519,T,309.952,M,0.30067,N,0.55684,K,D*3C
$GNHDT,79.4958,T*25
$GPGGA,093812.80,2234.32608097,N,11431.88722774,E,4,22,0.7,1.2186,M,-1.3512,M,00,0000*71
$GPRMC,093812.80,A,2234.32608097,N,11431.88722774,E,0.301,306.5,051224,3.4,W,D*2D
$GNVTG,330.652,T,334.085,M,0.19948,N,0.36945,K,D*30
$GNHDT,79.3557,T*21
$GPGGA,093813.00,2234.32609066,N,11431.88722187,E,4,22,0.7,1.2038,M,-1.3512,M,01,0000*78
$GPRMC,093813.00,A,2234.32609066,N,11431.88722187,E,0.199,330.7,051224,3.4,W,D*25
$GNVTG,293.184,T,296.617,M,0.41206,N,0.76313,K,D*31
$GNHDT,79.5647,T*25
$GPGGA,093813.20,2234.32609970,N,11431.88719913,E,4,22,0.7,1.2437,M,-1.3513,M,01,0000*73
$GPRMC,093813.20,A,2234.32609970,N,11431.88719913,E,0.412,293.2,051224,3.4,W,D*2F
$GNVTG,312.245,T,315.677,M,0.30290,N,0.56097,K,D*3F
$GNHDT,79.6547,T*25
$GPGGA,093813.40,2234.32611106,N,11431.88718567,E,4,22,0.7,1.2054,M,-1.3513,M,01,0000*7A
$GPRMC,093813.40,A,2234.32611106,N,11431.88718567,E,0.303,312.2,051224,3.4,W,D*28
$GNVTG,277.075,T,280.507,M,0.40270,N,0.74580,K,D*3F
$GNHDT,79.4839,T*23
$GPGGA,093813.60,2234.32611382,N,11431.88716168,E,4,22,0.7,1.1758,M,-1.3513,M,01,0000*7B
$GPRMC,093813.60,A,2234.32611382,N,11431.88716168,E,0.403,277.1,051224,3.4,W,D*27
$GNVTG,296.847,T,300.280,M,0.43099,N,0.79819,K,D*3E
$GNHDT,80.2085,T*2C
$GPGGA,093813.80,2234.32612467,N,11431.88713860,E,4,22,0.7,1.1439,M,-1.3513,M,00,0000*7B
$GPRMC,093813.80,A,2234.32612467,N,11431.88713860,E,0.431,296.8,051224,3.4,W,D*25
$GNVTG,286.933,T,290.365,M,0.32206,N,0.59646,K,D*3B
$GNHDT,79.9201,T*2F
$GPGGA,093814.00,2234.32612990,N,11431.88712011,E,4,21,0.7,1.1343,M,-1.3513,M,01,0000*76
$GPRMC,093814.00,A,2234.32612990,N,11431.88712011,E,0.322,286.9,051224,3.4,W,D*25
$GNVTG,296.588,T,300.021,M,0.25457,N,0.47146,K,D*31
$GNHDT,79.6011,T*23
$GPGGA,093814.20,2234.32613625,N,11431.88710644,E,4,22,0.7,1.1344,M,-1.3513,M,01,0000*74
$GPRMC,093814.20,A,2234.32613625,N,11431.88710644,E,0.255,296.6,051224,3.4,W,D*2C
$GNVTG,301.933,T,305.366,M,0.30153,N,0.55844,K,D*3A
$GNHDT,80.0268,T*2F
$GPGGA,093814.40,2234.32614514,N,11431.88709108,E,4,22,0.7,1.1367,M,-1.3513,M,01,0000*72
$GPRMC,093814.40,A,2234.32614514,N,11431.88709108,E,0.302,301.9,051224,3.4,W,D*28
$GNVTG,331.089,T,334.521,M,0.32233,N,0.59696,K,D*3C
$GNHDT,80.3773,T*23
$GPGGA,093814.60,2234.32616087,N,11431.88708173,E,4,22,0.7,1.1739,M,-1.3513,M,01,0000*7F
$GPRMC,093814.60,A,2234.32616087,N,11431.88708173,E,0.322,331.1,051224,3.4,W,D*23
$GNVTG,327.476,T,330.909,M,0.27760,N,0.51412,K,D*3C
$GNHDT,80.7236,T*23
$GPGGA,093814.80,2234.32617392,N,11431.88707277,E,4,22,0.7,1.1719,M,-1.3513,M,00,0000*7C
$GPRMC,093814.80,A,2234.32617392,N,11431.88707277,E,0.278,327.5,051224,3.4,W,D*2E
$GNVTG,333.661,T,337.094,M,0.24660,N,0.45670,K,D*36
$GNHDT,80.3222,T*22
$GPGGA,093815.00,2234.32618624,N,11431.88706620,E,4,21,0.7,1.1655,M,-1.3513,M,01,0000*7E
$GPRMC,093815.00,A,2234.32618624,N,11431.88706620,E,0.247,333.7,051224,3.4,W,D*2C
$GNVTG,321.674,T,325.106,M,0.27807,N,0.51499,K,D*34
$GNHDT,80.2929,T*23
$GPGGA,093815.20,2234.32619840,N,11431.88705585,E,4,22,0.7,1.1210,M,-1.3513,M,01,0000*78
$GPRMC,093815.20,A,2234.32619840,N,11431.88705585,E,0.278,321.7,051224,3.4,W,D*23
$GNVTG,318.705,T,322.138,M,0.37303,N,0.69085,K,D*3F
$GNHDT,80.7975,T*2F
$GPGGA,093815.40,2234.32621403,N,11431.88704107,E,4,22,0.7,1.0996,M,-1.3513,M,01,0000*75
$GPRMC,093815.40,A,2234.32621403,N,11431.88704107,E,0.373,318.7,051224,3.4,W,D*2A
$GNVTG,305.990,T,309.423,M,0.19179,N,0.35519,K,D*3D
$GNHDT,80.0610,T*24
$GPGGA,093815.60,2234.32622031,N,11431.88703176,E,4,22,0.7,1.0566,M,-1.3513,M,01,0000*73
$GPRMC,093815.60,A,2234.32622031,N,11431.88703176,E,0.192,306.0,051224,3.4,W,D*2A
$GNVTG,319.303,T,322.736,M,0.28240,N,0.52301,K,D*3B
$GNHDT,80.3468,T*2A
$GPGGA,093815.80,2234.32623225,N,11431.88702070,E,4,22,0.7,1.0438,M,-1.3513,M,01,0000*77
$GPRMC,093815.80,A,2234.32623225,N,11431.88702070,E,0.282,319.3,051224,3.4,W,D*2B
$GNVTG,17.728,T,21.160,M,0.19546,N,0.36199,K,D*3C
$GNHDT,80.0021,T*20
$GPGGA,093816.00,2234.32624263,N,11431.88702428,E,4,22,0.7,1.0482,M,-1.3513,M,02,0000*72
$GPRMC,093816.00,A,2234.32624263,N,11431.88702428,E,0.195,17.7,051224,3.4,W,D*10
$GNVTG,13.424,T,16.857,M,0.20632,N,0.38211,K,D*39
$GNHDT,79.6547,T*25
$GPGGA,093816.20,2234.32625381,N,11431.88702715,E,4,22,0.7,1.0604,M,-1.3513,M,02,0000*7D
$GPRMC,093816.20,A,2234.32625381,N,11431.88702715,E,0.206,13.4,051224,3.4,W,D*1D
$GNVTG,7.262,T,10.694,M,0.29485,N,0.54607,K,D*01
$GNHDT,79.9171,T*2B
$GPGGA,093816.40,2234.32627012,N,11431.88702939,E,4,23,0.7,1.1025,M,-1.3513,M,02,0000*75
$GPRMC,093816.40,A,2234.32627012,N,11431.88702939,E,0.295,7.3,051224,3.4,W,D*28
$GNVTG,340.254,T,343.687,M,0.21822,N,0.40415,K,D*3E
$GNHDT,80.0487,T*28
$GPGGA,093816.60,2234.32628157,N,11431.88702496,E,4,22,0.7,1.1098,M,-1.3513,M,02,0000*77
$GPRMC,093816.60,A,2234.32628157,N,11431.88702496,E,0.218,340.3,051224,3.4,W,D*28
$GNVTG,309.247,T,312.680,M,0.30517,N,0.56518,K,D*32
$GNHDT,80.6439,T*2B
$GPGGA,093816.80,2234.32629233,N,11431.88701078,E,4,22,0.7,1.1141,M,-1.3513,M,00,0000*79
$GPRMC,093816.80,A,2234.32629233,N,11431.88701078,E,0.305,309.2,051224,3.4,W,D*20
$GNVTG,301.796,T,305.229,M,0.29696,N,0.54998,K,D*36
$GNHDT,80.8711,T*2C
$GPGGA,093817.00,2234.32630105,N,11431.88699563,E,4,23,0.7,1.1170,M,-1.3513,M,01,0000*73
