.9005,M,-1.3383,M,01,0000*5F
$GPRMC,080550.00,A,2234.21301333,N,11432.05676768,E,0.459,175.3,061224,3.4,W,D*2D
$GNVTG,185.393,T,188.832,M,0.46438,N,0.86004,K,D*32
$GNHDT,8.1519,T*1F
$GPGGA,080550.20,2234.21298756,N,11432.05676506,E,4,25,0.6,-3.8903,M,-1.3383,M,01,0000*5F
$GPRMC,080550.20,A,2234.21298756,N,11432.05676506,E,0.464,185.4,061224,3.4,W,D*25
$GNVTG,182.446,T,185.885,M,0.56687,N,1.04984,K,D*36
$GNHDT,8.4245,T*14
$GPGGA,080550.40,2234.21295599,N,11432.05676361,E,4,25,0.6,-3.9033,M,-1.3383,M,01,0000*59
$GPRMC,080550.40,A,2234.21295599,N,11432.05676361,E,0.567,182.4,061224,3.4,W,D*2D
$GNVTG,189.659,T,193.098,M,0.45560,N,0.84377,K,D*35
$GNHDT,8.6770,T*15
$GPGGA,080550.60,2234.21293095,N,11432.05675902,E,4,25,0.6,-3.9014,M,-1.3383,M,01,0000*5D
$GPRMC,080550.60,A,2234.21293095,N,11432.05675902,E,0.456,189.7,061224,3.4,W,D*27
$GNVTG,188.837,T,192.276,M,0.56923,N,1.05421,K,D*34
$GNHDT,9.0814,T*1F
$GPGGA,080550.80,2234.21289959,N,11432.05675377,E,4,25,0.6,-3.9296,M,-1.3383,M,01,0000*51
$GPRMC,080550.80,A,2234.21289959,N,11432.05675377,E,0.569,188.8,061224,3.4,W,D*20
$GNVTG,185.406,T,188.845,M,0.55856,N,1.03445,K,D*32
$GNHDT,9.4381,T*1C
$GPGGA,080551.00,2234.21286859,N,11432.05675061,E,4,25,0.6,-3.9645,M,-1.3383,M,02,0000*5B
$GPRMC,080551.00,A,2234.21286859,N,11432.05675061,E,0.559,185.4,061224,3.4,W,D*21
$GNVTG,173.052,T,176.491,M,0.53106,N,0.98353,K,D*33
$GNHDT,9.6154,T*14
$GPGGA,080551.20,2234.21283921,N,11432.05675447,E,4,25,0.6,-3.9901,M,-1.3383,M,02,0000*5D
$GPRMC,080551.20,A,2234.21283921,N,11432.05675447,E,0.531,173.1,061224,3.4,W,D*2A
$GNVTG,165.838,T,169.277,M,0.60411,N,1.11881,K,D*37
$GNHDT,9.6978,T*12
$GPGGA,080551.40,2234.21280655,N,11432.05676334,E,4,25,0.6,-4.0269,M,-1.3383,M,02,0000*5F
$GPRMC,080551.40,A,2234.21280655,N,11432.05676334,E,0.604,165.8,061224,3.4,W,D*28
$GNVTG,170.176,T,173.615,M,0.51327,N,0.95058,K,D*3A
$GNHDT,9.9093,T*11
$GPGGA,080551.60,2234.21277836,N,11432.05676860,E,4,25,0.6,-4.0133,M,-1.3383,M,02,0000*58
$GPRMC,080551.60,A,2234.21277836,N,11432.05676860,E,0.513,170.2,061224,3.4,W,D*28
$GNVTG,182.526,T,185.965,M,0.47720,N,0.88377,K,D*31
$GNHDT,10.6054,T*2D
$GPGGA,080551.80,2234.21275178,N,11432.05676734,E,4,25,0.6,-3.9910,M,-1.3383,M,02,0000*5E
$GPRMC,080551.80,A,2234.21275178,N,11432.05676734,E,0.477,182.5,061224,3.4,W,D*20
$GNVTG,181.539,T,184.978,M,0.46366,N,0.85870,K,D*37
$GNHDT,10.8641,T*21
$GPGGA,080552.00,2234.21272594,N,11432.05676659,E,4,25,0.6,-3.9484,M,-1.3383,M,03,0000*5F
$GPRMC,080552.00,A,2234.21272594,N,11432.05676659,E,0.464,181.5,061224,3.4,W,D*21
$GNVTG,193.178,T,196.616,M,0.52891,N,0.97954,K,D*33
$GNHDT,11.6809,T*2C
$GPGGA,080552.20,2234.21269723,N,11432.05675935,E,4,25,0.6,-3.8964,M,-1.3383,M,03,0000*5D
$GPRMC,080552.20,A,2234.21269723,N,11432.05675935,E,0.529,193.2,061224,3.4,W,D*2D
$GNVTG,181.871,T,185.310,M,0.57161,N,1.05862,K,D*3C
$GNHDT,12.2620,T*2E
$GPGGA,080552.40,2234.21266539,N,11432.05675823,E,4,25,0.6,-3.8877,M,-1.3383,M,03,0000*58
$GPRMC,080552.40,A,2234.21266539,N,11432.05675823,E,0.572,181.9,061224,3.4,W,D*2D
$GNVTG,179.403,T,182.841,M,0.58470,N,1.08286,K,D*3D
$GNHDT,12.5281,T*26
$GPGGA,080552.60,2234.21263279,N,11432.05675860,E,4,25,0.6,-3.9170,M,-1.3383,M,03,0000*54
$GPRMC,080552.60,A,2234.21263279,N,11432.05675860,E,0.585,179.4,061224,3.4,W,D*2C
$GNVTG,174.229,T,177.667,M,0.63611,N,1.17807,K,D*3E
$GNHDT,12.0487,T*23
$GPGGA,080552.80,2234.21259751,N,11432.05676244,E,4,25,0.6,-3.9319,M,-1.3383,M,03,0000*5E
$GPRMC,080552.80,A,2234.21259751,N,11432.05676244,E,0.636,174.2,061224,3.4,W,D*2B
$GNVTG,188.188,T,191.627,M,0.61444,N,1.13794,K,D*38
$GNHDT,12.2180,T*23
$GPGGA,080553.00,2234.21256361,N,11432.05675718,E,4,25,0.6,-3.9452,M,-1.3382,M,01,0000*5B
$GPRMC,080553.00,A,2234.21256361,N,11432.05675718,E,0.614,188.2,061224,3.4,W,D*26
$GNVTG,186.602,T,190.040,M,0.64676,N,1.19780,K,D*3C
$GNHDT,11.9924,T*2D
$GPGGA,080553.20,2234.21252779,N,11432.05675272,E,4,25,0.6,-3.9540,M,-1.3382,M,01,0000*5B
$GPRMC,080553.20,A,2234.21252779,N,11432.05675272,E,0.647,186.6,061224,3.4,W,D*28
$GNVTG,191.463,T,194.901,M,0.46822,N,0.86715,K,D*33
$GNHDT,12.3525,T*29
$GPGGA,080553.40,2234.21250221,N,11432.05674714,E,4,25,0.6,-3.9413,M,-1.3382,M,01,0000*54
$GPRMC,080553.40,A,2234.21250221,N,11432.05674714,E,0.468,191.5,061224,3.4,W,D*2A
$GNVTG,208.141,T,211.579,M,0.31459,N,0.58262,K,D*3E
$GNHDT,12.5249,T*22
$GPGGA,080553.60,2234.21248674,N,11432.05673823,E,4,25,0.6,-3.9151,M,-1.3382,M,01,0000*54
$GPRMC,080553.60,A,2234.21248674,N,11432.05673823,E,0.315,208.1,061224,3.4,W,D*23
$GNVTG,190.111,T,193.550,M,0.25870,N,0.47912,K,D*3B
$GNHDT,12.7718,T*21
$GPGGA,080553.80,2234.21247255,N,11432.05673550,E,4,25,0.6,-3.9284,M,-1.3382,M,00,0000*51
$GPRMC,080553.80,A,2234.21247255,N,11432.05673550,E,0.259,190.1,061224,3.4,W,D*27
$GNVTG,183.173,T,186.612,M,0.40500,N,0.75007,K,D*39
$GNHDT,13.2037,T*2F
$GPGGA,080554.00,2234.21245000,N,11432.05673416,E,4,25,0.6,-3.9343,M,-1.3382,M,01,0000*56
$GPRMC,080554.00,A,2234.21245000,N,11432.05673416,E,0.405,183.2,061224,3.4,W,D*25
$GNVTG,174.107,T,177.545,M,0.58931,N,1.09140,K,D*32
$GNHDT,13.6011,T*2F
$GPGGA,080554.20,2234.21241732,N,11432.05673779,E,4,24,0.6,-3.9644,M,-1.3382,M,01,0000*5F
$GPRMC,080554.20,A,2234.21241732,N,11432.05673779,E,0.589,174.1,061224,3.4,W,D*21
$GNVTG,169.346,T,172.785,M,0.78472,N,1.45329,K,D*3F
$GNHDT,13.1878,T*2F
$GPGGA,080554.40,2234.21237433,N,11432.05674650,E,4,24,0.6,-3.9734,M,-1.3382,M,01,0000*51
$GPRMC,080554.40,A,2234.21237433,N,11432.05674650,E,0.785,169.3,061224,3.4,W,D*29
$GNVTG,174.494,T,177.933,M,0.77548,N,1.43618,K,D*3B
$GNHDT,13.6643,T*2E
$GPGGA,080554.60,2234.21233130,N,11432.05675096,E,4,24,0.6,-3.9754,M,-1.3382,M,01,0000*5A
$GPRMC,080554.60,A,2234.21233130,N,11432.05675096,E,0.775,174.5,061224,3.4,W,D*21
$GNVTG,176.962,T,180.401,M,0.70844,N,1.31203,K,D*34
$GNHDT,13.4969,T*2B
$GPGGA,080554.80,2234.21229186,N,11432.05675322,E,4,24,0.6,-3.9626,M,-1.3382,M,00,0000*5B
$GPRMC,080554.80,A,2234.21229186,N,11432.05675322,E,0.708,177.0,061224,3.4,W,D*29
$GNVTG,191.905,T,195.343,M,0.42253,N,0.78252,K,D*3C
$GNHDT,14.0188,T*2F
$GPGGA,080555.00,2234.21226882,N,11432.05674799,E,4,24,0.6,-3.9210,M,-1.3382,M,01,0000*55
$GPRMC,080555.00,A,2234.21226882,N,11432.05674799,E,0.423,191.9,061224,3.4,W,D*2C
$GNVTG,204.758,T,208.196,M,0.29718,N,0.55037,K,D*31
$GNHDT,14.1926,T*22
$GPGGA,080555.20,2234.21225377,N,11432.05674051,E,4,24,0.6,-3.8885,M,-1.3382,M,01,0000*51
$GPRMC,080555.20,A,2234.21225377,N,11432.05674051,E,0.297,204.8,061224,3.4,W,D*28
$GNVTG,199.192,T,202.630,M,0.30749,N,0.56947,K,D*36
$GNHDT,14.2605,T*2F
$GPGGA,080555.40,2234.21223758,N,11432.05673445,E,4,24,0.6,-3.8673,M,-1.3382,M,01,0000*59
$GPRMC,080555.40,A,2234.21223758,N,11432.05673445,E,0.307,199.2,061224,3.4,W,D*22
$GNVTG,183.807,T,187.246,M,0.40009,N,0.74096,K,D*32
$GNHDT,14.5132,T*2B
$GPGGA,080555.60,2234.21221533,N,11432.05673285,E,4,24,0.6,-3.8793,M,-1.3382,M,01,0000*53
$GPRMC,080555.60,A,2234.21221533,N,11432.05673285,E,0.400,183.8,061224,3.4,W,D*26
$GNVTG,177.088,T,180.527,M,0.65675,N,1.21630,K,D*30
$GNHDT,14.5808,T*2B
$GPGGA,080555.80,2234.21217876,N,11432.05673486,E,4,24,0.6,-3.9224,M,-1.3382,M,00,0000*58
$GPRMC,080555.80,A,2234.21217876,N,11432.05673486,E,0.657,177.1,061224,3.4,W,D*26
$GNVTG,172.509,T,175.947,M,0.81604,N,1.51131,K,D*34
$GNHDT,14.1709,T*21
$GPGGA,080556.00,2234.21213366,N,11432.05674124,E,4,24,0.6,-3.9955,M,-1.3382,M,01,0000*5B
$GPRMC,080556.00,A,2234.21213366,N,11432.05674124,E,0.816,172.5,061224,3.4,W,D*23
$GNVTG,184.761,T,188.200,M,0.72143,N,1.33609,K,D*3B
$GNHDT,14.6236,T*2F
$GPGGA,080556.20,2234.21209358,N,11432.05673765,E,4,24,0.6,-4.0124,M,-1.3382,M,01,0000*5B
$GPRMC,080556.20,A,2234.21209358,N,11432.05673765,E,0.721,184.8,061224,3.4,W,D*2C
$GNVTG,179.764,T,183.203,M,0.61138,N,1.13228,K,D*3F
$GNHDT,14.6914,T*24
$GPGGA,080556.40,2234.21205950,N,11432.05673780,E,4,24,0.6,-3.9836,M,-1.3382,M,01,0000*5C
$GPRMC,080556.40,A,2234.21205950,N,11432.05673780,E,0.611,179.8,061224,3.4,W,D*2F
$GNVTG,190.386,T,193.825,M,0.31225,N,0.57828,K,D*3E
$GNHDT,14.8800,T*2E
$GPGGA,080556.60,2234.21204238,N,11432.05673442,E,4,24,0.6,-3.9904,M,-1.3382,M,01,0000*57
$GPRMC,080556.60,A,2234.21204238,N,11432.05673442,E,0.312,190.4,061224,3.4,W,D*29
$GNVTG,168.586,T,172.025,M,0.19972,N,0.36987,K,D*38
$GNHDT,15.0985,T*2B
$GPGGA,080556.80,2234.21203146,N,11432.05673679,E,4,24,0.6,-3.9599,M,-1.3382,M,00,0000*57
$GPRMC,080556.80,A,2234.21203146,N,11432.05673679,E,0.200,168.6,061224,3.4,W,D*27
$GNVTG,147.021,T,150.459,M,0.17606,N,0.32606,K,D*32
$GNHDT,15.1218,T*25
$GPGGA,080557.00,2234.21202323,N,11432.05674254,E,4,24,0.6,-3.9258,M,-1.3382,M,01,0000*59
$GPRMC,080557.00,A,2234.21202323,N,11432.05674254,E,0.176,147.0,061224,3.4,W,D*2B
$GNVTG,170.368,T,173.807,M,0.47415,N,0.87813,K,D*3F
$GNHDT,15.5647,T*2F
$GPGGA,080557.20,2234.21199717,N,11432.05674731,E,4,24,0.6,-3.9025,M,-1.3382,M,01,0000*57
$GPRMC,080557.20,A,2234.21199717,N,11432.05674731,E,0.474,170.4,061224,3.4,W,D*2A
$GNVTG,169.786,T,173.224,M,0.66748,N,1.23618,K,D*3A
$GNHDT,15.7415,T*28
$GPGGA,080557.40,2234.21196055,N,11432.05675441,E,4,24,0.6,-3.9337,M,-1.3382,M,01,0000*5A
$GPRMC,080557.40,A,2234.21196055,N,11432.05675441,E,0.667,169.8,061224,3.4,W,D*23
$GNVTG,180.353,T,183.792,M,0.91567,N,1.69583,K,D*3E
$GNHDT,16.1897,T*2B
$GPGGA,080557.60,2234.21190950,N,11432.05675407,E,4,24,0.6,-3.9280,M,-1.3382,M,01,0000*5D
$GPRMC,080557.60,A,2234.21190950,N,11432.05675407,E,0.916,180.4,061224,3.4,W,D*2B
$GNVTG,185.828,T,189.266,M,0.77420,N,1.43382,K,D*3D
$GNHDT,16.8650,T*27
$GPGGA,080557.80,2234.21186657,N,11432.05674935,E,4,24,0.6,-3.9436,M,-1.3382,M,00,0000*5B
$GPRMC,080557.80,A,2234.21186657,N,11432.05674935,E,0.774,185.8,061224,3.4,W,D*24
$GNVTG,185.575,T,189.013,M,0.60912,N,1.12809,K,D*3E
$GNHDT,16.8981,T*24
$GPGGA,080558.00,2234.21183277,N,11432.05674580,E,4,24,0.6,-3.9460,M,-1.3382,M,01,0000*5F
$GPRMC,080558.00,A,2234.21183277,N,11432.05674580,E,0.609,185.6,061224,3.4,W,D*27
$GNVTG,186.556,T,189.995,M,0.31806,N,0.58905,K,D*39
$GNHDT,16.6856,T*21
$GPGGA,080558.20,2234.21181516,N,11432.05674362,E,4,24,0.6,-3.9461,M,-1.3382,M,01,0000*54
$GPRMC,080558.20,A,2234.21181516,N,11432.05674362,E,0.318,186.6,061224,3.4,W,D*2B
$GNVTG,187.220,T,190.659,M,0.30029,N,0.55614,K,D*3F
$GNHDT,16.9002,T*27
$GPGGA,080558.40,2234.21179855,N,11432.05674136,E,4,24,0.6,-3.9498,M,-1.3382,M,01,0000*5A
$GPRMC,080558.40,A,2234.21179855,N,11432.05674136,E,0.300,187.2,061224,3.4,W,D*2F
$GNVTG,172.142,T,175.581,M,0.28774,N,0.53290,K,D*37
$GNHDT,16.7975,T*20
$GPGGA,080558.60,2234.21178266,N,11432.05674372,E,4,24,0.6,-3.9570,M,-1.3382,M,01,0000*56
$GPRMC,080558.60,A,2234.21178266,N,11432.05674372,E,0.288,172.1,061224,3.4,W,D*2C
$GNVTG,175.858,T,179.297,M,0.51830,N,0.95989,K,D*36
$GNHDT,16.7014,T*2E
$GPGGA,080558.80,2234.21175384,N,11432.05674596,E,4,24,0.6,-3.9654,M,-1.3382,M,01,0000*51
$GPRMC,080558.80,A,2234.21175384,N,11432.05674596,E,0.518,175.9,061224,3.4,W,D*2F
$GNVTG,175.563,T,179.002,M,0.67041,N,1.24159,K,D*38
$GNHDT,17.0693,T*21
$GPGGA,080559.00,2234.21171658,N,11432.05674908,E,4,24,0.6,-3.9767,M,-1.3382,M,02,0000*51
$GPRMC,080559.00,A,2234.21171658,N,11432.05674908,E,0.670,175.6,061224,3.4,W,D*2F
$GNVTG,170.588,T,174.027,M,0.68465,N,1.26798,K,D*36
$GNHDT,16.9286,T*29
$GPGGA,080559.20,2234.21167892,N,11432.05675580,E,4,24,0.6,-3.9656,M,-1.3382,M,02,0000*52
$GPRMC,080559.20,A,2234.21167892,N,11432.05675580,E,0.685,170.6,061224,3.4,W,D*20
$GNVTG,185.893,T,189.332,M,0.62761,N,1.16234,K,D*33
$GNHDT,17.8541,T*25
$GPGGA,080559.40,2234.21164412,N,11432.05675193,E,4,24,0.6,-3.9308,M,-1.3382,M,02,0000*5B
$GPRMC,080559.40,A,2234.21164412,N,11432.05675193,E,0.628,185.9,061224,3.4,W,D*25
$GNVTG,186.008,T,189.446,M,0.57298,N,1.06115,K,D*3A
$GNHDT,18.4442,T*24
$GPGGA,080559.60,2234.21161236,N,11432.05674833,E,4,24,0.6,-3.8937,M,-1.3382,M,02,0000*59
$GPRMC,080559.60,A,2234.21161236,N,11432.05674833,E,0.573,186.0,061224,3.4,W,D*27
$GNVTG,194.103,T,197.542,M,0.46960,N,0.86970,K,D*37
$GNHDT,19.3091,T*28
$GPGGA,080559.80,2234.21158697,N,11432.05674146,E,4,24,0.6,-3.8786,M,-1.3382,M,00,0000*5F
$GPRMC,080559.80,A,2234.21158697,N,11432.05674146,E,0.470,194.1,061224,3.4,W,D*27
$GNVTG,183.924,T,187.363,M,0.44754,N,0.82884,K,D*3D
$GNHDT,19.5961,T*28
$GPGGA,080600.00,2234.21156207,N,11432.05673962,E,4,24,0.6,-3.8740,M,-1.3382,M,01,0000*59
$GPRMC,080600.00,A,2234.21156207,N,11432.05673962,E,0.448,183.9,061224,3.4,W,D*2F
$GNVTG,181.392,T,184.831,M,0.48618,N,0.90040,K,D*31
$GNHDT,19.6892,T*26
$GPGGA,080600.20,2234.21153498,N,11432.05673891,E,4,25,0.6,-3.9230,M,-1.3382,M,01,0000*51
$GPRMC,080600.20,A,2234.21153498,N,11432.05673891,E,0.486,181.4,061224,3.4,W,D*28
$GNVTG,181.094,T,184.533,M,0.58994,N,1.09256,K,D*35
$GNHDT,19.6322,T*26
$GPGGA,080600.40,2234.21150210,N,11432.05673824,E,4,25,0.6,-3.9607,M,-1.3382,M,01,0000*5C
$GPRMC,080600.40,A,2234.21150210,N,11432.05673824,E,0.590,181.1,061224,3.4,W,D*26
$GNVTG,173.529,T,176.968,M,0.49765,N,0.92165,K,D*34
$GNHDT,19.2183,T*2B
$GPGGA,080600.60,2234.21147453,N,11432.05674160,E,4,25,0.6,-3.9778,M,-1.3382,M,01,0000*5E
$GPRMC,080600.60,A,2234.21147453,N,11432.05674160,E,0.498,173.5,061224,3.4,W,D*2D
$GNVTG,181.015,T,184.454,M,0.50492,N,0.93511,K,D*39
$GNHDT,19.5232,T*25
$GPGGA,080600.80,2234.21144639,N,11432.05674107,E,4,24,0.6,-3.9712,M,-1.3382,M,00,0000*50
$GPRMC,080600.80,A,2234.21144639,N,11432.05674107,E,0.505,181.0,061224,3.4,W,D*22
$GNVTG,175.685,T,179.124,M,0.60332,N,1.11736,K,D*3F
$GNHDT,19.4164,T*24
$GPGGA,080601.00,2234.21141285,N,11432.05674379,E,4,24,0.6,-3.9788,M,-1.3382,M,01,0000*56
$GPRMC,080601.00,A,2234.21141285,N,11432.05674379,E,0.603,175.7,061224,3.4,W,D*2F
$GNVTG,168.714,T,172.153,M,0.48293,N,0.89439,K,D*3D
$GNHDT,19.8058,T*26
$GPGGA,080601.20,2234.21138645,N,11432.05674947,E,4,24,0.6,-3.9909,M,-1.3382,M,01,0000*52
$GPRMC,080601.20,A,2234.21138645,N,11432.05674947,E,0.483,168.7,061224,3.4,W,D*2A
$GNVTG,174.329,T,177.768,M,0.39524,N,0.73199,K,D*36
$GNHDT,20.4887,T*2A
$GPGGA,080601.40,2234.21136452,N,11432.05675181,E,4,24,0.6,-3.9838,M,-1.3382,M,01,0000*5E
$GPRMC,080601.40,A,2234.21136452,N,11432.05675181,E,0.395,174.3,061224,3.4,W,D*2C
$GNVTG,168.598,T,172.037,M,0.45068,N,0.83466,K,D*33
$GNHDT,20.7608,T*20
$GPGGA,080601.60,2234.21133990,N,11432.05675716,E,4,24,0.6,-3.9956,M,-1.3382,M,01,0000*5B
$GPRMC,080601.60,A,2234.21133990,N,11432.05675716,E,0.451,168.6,061224,3.4,W,D*27
$GNVTG,167.345,T,170.784,M,0.46842,N,0.86752,K,D*35
$GNHDT,21.0430,T*2F
$GPGGA,080601.80,2234.21131442,N,11432.05676332,E,4,24,0.6,-3.9750,M,-1.3382,M,00,0000*5D
$GPRMC,080601.80,A,2234.21131442,N,11432.05676332,E,0.468,167.3,061224,3.4,W,D*28
$GNVTG,174.503,T,177.942,M,0.60069,N,1.11249,K,D*35
$GNHDT,21.5716,T*2D
$GPGGA,080602.00,2234.21128108,N,11432.05676677,E,4,24,0.6,-3.9744,M,-1.3382,M,01,0000*55
$GPRMC,080602.00,A,2234.21128108,N,11432.05676677,E,0.601,174.5,061224,3.4,W,D*2D
$GNVTG,167.785,T,171.224,M,0.67677,N,1.25338,K,D*38
$GNHDT,21.2285,T*25
$GPGGA,080602.20,2234.21124421,N,11432.05677537,E,4,24,0.6,-3.9718,M,-1.3382,M,01,0000*5A
$GPRMC,080602.20,A,2234.21124421,N,11432.05677537,E,0.677,167.8,061224,3.4,W,D*25
$GNVTG,190.825,T,194.264,M,0.53972,N,0.99957,K,D*32
$GNHDT,21.9161,T*27
$GPGGA,080602.40,2234.21121466,N,11432.05676928,E,4,24,0.6,-3.9845,M,-1.3382,M,01,0000*5E
$GPRMC,080602.40,A,2234.21121466,N,11432.05676928,E,0.540,190.8,061224,3.4,W,D*29
$GNVTG,173.345,T,176.784,M,0.50619,N,0.93746,K,D*30
$GNHDT,21.5007,T*2A
$GPGGA,080602.60,2234.21118663,N,11432.05677280,E,4,25,0.6,-3.9629,M,-1.3382,M,01,0000*5C
$GPRMC,080602.60,A,2234.21118663,N,11432.05677280,E,0.506,173.3,061224,3.4,W,D*2A
$GNVTG,194.059,T,197.497,M,0.38422,N,0.71157,K,D*37
$GNHDT,22.2730,T*2D
$GPGGA,080602.80,2234.21116585,N,11432.05676720,E,4,25,0.6,-3.9596,M,-1.3382,M,00,0000*5F
$GPRMC,080602.80,A,2234.21116585,N,11432.05676720,E,0.384,194.1,061224,3.4,W,D*28
$GNVTG,172.420,T,175.858,M,0.33978,N,0.62926,K,D*33
$GNHDT,22.2256,T*28
$GPGGA,080603.00,2234.21114707,N,11432.05676989,E,4,25,0.6,-3.9581,M,-1.3382,M,01,0000*56
$GPRMC,080603.00,A,2234.21114707,N,11432.05676989,E,0.340,172.4,061224,3.4,W,D*23
$GNVTG,172.817,T,176.255,M,0.43831,N,0.81175,K,D*37
$GNHDT,22.3029,T*23
$GPGGA,080603.20,2234.21112283,N,11432.05677318,E,4,25,0.6,-3.9294,M,-1.3382,M,01,0000*5B
$GPRMC,080603.20,A,2234.21112283,N,11432.05677318,E,0.438,172.8,061224,3.4,W,D*29
$GNVTG,167.438,T,170.877,M,0.55254,N,1.02330,K,D*39
$GNHDT,22.0785,T*21
$GPGGA,080603.40,2234.21109277,N,11432.05678040,E,4,25,0.6,-3.9387,M,-1.3382,M,01,0000*5E
$GPRMC,080603.40,A,2234.21109277,N,11432.05678040,E,0.553,167.4,061224,3.4,W,D*2B
$GNVTG,186.880,T,190.318,M,0.63583,N,1.17756,K,D*3D
$GNHDT,22.5309,T*24
$GPGGA,080603.60,2234.21105758,N,11432.05677582,E,4,25,0.6,-3.9394,M,-1.3382,M,01,0000*5E
$GPRMC,080603.60,A,2234.21105758,N,11432.05677582,E,0.636,186.9,061224,3.4,W,D*2B
$GNVTG,179.796,T,183.234,M,0.65590,N,1.21473,K,D*3D
$GNHDT,22.8592,T*2D
$GPGGA,080603.80,2234.21102101,N,11432.05677596,E,4,25,0.6,-3.9087,M,-1.3382,M,00,0000*58
$GPRMC,080603.80,A,2234.21102101,N,11432.05677596,E,0.656,179.8,061224,3.4,W,D*2A
$GNVTG,179.846,T,183.284,M,0.53718,N,0.99486,K,D*3B
$GNHDT,23.2187,T*26
$GPGGA,080604.00,2234.21099107,N,11432.05677605,E,4,25,0.6,-3.8850,M,-1.3382,M,01,0000*59
$GPRMC,080604.00,A,2234.21099107,N,11432.05677605,E,0.537,179.8,061224,3.4,W,D*2D
$GNVTG,192.981,T,196.420,M,0.68986,N,1.27763,K,D*35
$GNHDT,23.5073,T*2B
$GPGGA,080604.20,2234.21095359,N,11432.05676675,E,4,25,0.6,-3.8745,M,-1.3382,M,01,0000*53
$GPRMC,080604.20,A,2234.21095359,N,11432.05676675,E,0.690,193.0,061224,3.4,W,D*2E
$GNVTG,176.037,T,179.476,M,0.55402,N,1.02604,K,D*31
$GNHDT,23.8200,T*20
$GPGGA,080604.40,2234.21092278,N,11432.05676905,E,4,25,0.6,-3.8691,M,-1.3382,M,01,0000*50
$GPRMC,080604.40,A,2234.21092278,N,11432.05676905,E,0.554,176.0,061224,3.4,W,D*25
$GNVTG,187.465,T,190.903,M,0.44894,N,0.83143,K,D*3B
$GNHDT,24.2320,T*2E
$GPGGA,080604.60,2234.21089796,N,11432.05676555,E,4,25,0.6,-3.8927,M,-1.3382,M,01,0000*56
$GPRMC,080604.60,A,2234.21089796,N,11432.05676555,E,0.449,187.5,061224,3.4,W,D*27
$GNVTG,177.805,T,181.243,M,0.43077,N,0.79779,K,D*39
$GNHDT,24.1346,T*2D
$GPGGA,080604.80,2234.21087397,N,11432.05676654,E,4,25,0.6,-3.8957,M,-1.3382,M,00,0000*57
$GPRMC,080604.80,A,2234.21087397,N,11432.05676654,E,0.431,177.8,061224,3.4,W,D*2D
$GNVTG,183.924,T,187.363,M,0.52089,N,0.96468,K,D*36
$GNHDT,23.8372,T*24
$GPGGA,080605.00,2234.21084500,N,11432.05676440,E,4,25,0.6,-3.9211,M,-1.3382,M,01,0000*5B
$GPRMC,080605.00,A,2234.21084500,N,11432.05676440,E,0.521,183.9,061224,3.4,W,D*22
$GNVTG,171.451,T,174.890,M,0.54354,N,1.00663,K,D*3D
$GNHDT,23.7257,T*2D
$GPGGA,080605.20,2234.21081503,N,11432.05676925,E,4,25,0.6,-3.9117,M,-1.3382,M,01,0000*54
$GPRMC,080605.20,A,2234.21081503,N,11432.05676925,E,0.544,171.5,061224,3.4,W,D*2A
$GNVTG,164.082,T,167.520,M,0.53069,N,0.98284,K,D*30
$GNHDT,23.5571,T*2C
$GPGGA,080605.40,2234.21078658,N,11432.05677798,E,4,25,0.6,-3.9235,M,-1.3382,M,01,0000*53
$GPRMC,080605.40,A,2234.21078658,N,11432.05677798,E,0.531,164.1,061224,3.4,W,D*2C
$GNVTG,164.774,T,168.213,M,0.42967,N,0.79575,K,D*37
$GNHDT,24.0418,T*20
$GPGGA,080605.60,2234.21076347,N,11432.05678476,E,4,23,0.6,-3.9094,M,-1.3382,M,01,0000*57
$GPRMC,080605.60,A,2234.21076347,N,11432.05678476,E,0.430,164.8,061224,3.4,W,D*2E
$GNVTG,161.340,T,164.779,M,0.34646,N,0.64164,K,D*31
$GNHDT,24.4067,T*28
$GPGGA,080605.80,2234.21074517,N,11432.05679141,E,4,23,0.6,-3.9074,M,-1.3382,M,00,0000*57
$GPRMC,080605.80,A,2234.21074517,N,11432.05679141,E,0.346,161.3,061224,3.4,W,D*29
$GNVTG,168.122,T,171.561,M,0.38500,N,0.71302,K,D*3A
$GNHDT,24.6784,T*20
$GPGGA,080606.00,2234.21072417,N,11432.05679617,E,4,23,0.6,-3.9005,M,-1.3382,M,01,0000*58
$GPRMC,080606.00,A,2234.21072417,N,11432.05679617,E,0.385,168.1,061224,3.4,W,D*25
$GNVTG,152.916,T,156.355,M,0.38964,N,0.72162,K,D*31
$GNHDT,24.4683,T*24
$GPGGA,080606.20,2234.21070483,N,11432.05680682,E,4,23,0.6,-3.9113,M,-1.3382,M,01,0000*59
$GPRMC,080606.20,A,2234.21070483,N,11432.05680682,E,0.390,152.9,061224,3.4,W,D*27
$GNVTG,165.558,T,168.997,M,0.36189,N,0.67021,K,D*3D
$GNHDT,24.9644,T*22
$GPGGA,080606.40,2234.21068529,N,11432.05681223,E,4,23,0.6,-3.9489,M,-1.3382,M,01,0000*5F
$GPRMC,080606.40,A,2234.21068529,N,11432.05681223,E,0.362,165.6,061224,3.4,W,D*21
$GNVTG,166.485,T,169.923,M,0.60865,N,1.12723,K,D*3F
$GNHDT,24.6749,T*21
$GPGGA,080606.60,2234.21065230,N,11432.05682077,E,4,23,0.6,-3.9797,M,-1.3382,M,01,0000*53
$GPRMC,080606.60,A,2234.21065230,N,11432.05682077,E,0.609,166.5,061224,3.4,W,D*29
$GNVTG,170.497,T,173.936,M,0.64610,N,1.19658,K,D*3A
$GNHDT,24.7376,T*28
$GPGGA,080606.80,2234.21061678,N,11432.05682718,E,4,23,0.6,-4.0030,M,-1.3382,M,00,0000*5A
$GPRMC,080606.80,A,2234.21061678,N,11432.05682718,E,0.646,170.5,061224,3.4,W,D*29
$GNVTG,167.170,T,170.609,M,0.60849,N,1.12693,K,D*3A
$GNHDT,25.0182,T*27
$GPGGA,080607.00,2234.21058370,N,11432.05683529,E,4,23,0.6,-4.0094,M,-1.3382,M,01,0000*5A
$GPRMC,080607.00,A,2234.21058370,N,11432.05683529,E,0.608,167.2,061224,3.4,W,D*2D
$GNVTG,162.617,T,166.055,M,0.58183,N,1.07755,K,D*3A
$GNHDT,24.6014,T*2E
$GPGGA,080607.20,2234.21055275,N,11432.05684572,E,4,25,0.6,-3.9987,M,-1.3382,M,01,0000*5B
$GPRMC,080607.20,A,2234.21055275,N,11432.05684572,E,0.582,162.6,061224,3.4,W,D*2F
$GNVTG,138.143,T,141.581,M,0.32580,N,0.60339,K,D*3F
$GNHDT,24.5872,T*25
$GPGGA,080607.40,2234.21053922,N,11432.05685877,E,4,25,0.6,-3.9819,M,-1.3382,M,01,0000*5D
$GPRMC,080607.40,A,2234.21053922,N,11432.05685877,E,0.326,138.1,061224,3.4,W,D*2F
$GNVTG,126.096,T,129.535,M,0.29514,N,0.54660,K,D*31
$GNHDT,24.4689,T*2E
$GPGGA,080607.60,2234.21052953,N,11432.05687309,E,4,25,0.6,-3.9661,M,-1.3382,M,01,0000*59
$GPRMC,080607.60,A,2234.21052953,N,11432.05687309,E,0.295,126.1,061224,3.4,W,D*2C
$GNVTG,110.328,T,113.766,M,0.21863,N,0.40490,K,D*32
$GNHDT,24.3900,T*27
$GPGGA,080607.80,2234.21052529,N,11432.05688539,E,4,24,0.6,-3.9483,M,-1.3382,M,01,0000*53
$GPRMC,080607.80,A,2234.21052529,N,11432.05688539,E,0.219,110.3,061224,3.4,W,D*2A
$GNVTG,163.127,T,166.566,M,0.36261,N,0.67156,K,D*3F
$GNHDT,24.7057,T*28
$GPGGA,080608.00,2234.21050595,N,11432.05689171,E,4,25,0.6,-3.9476,M,-1.3382,M,02,0000*50
$GPRMC,080608.00,A,2234.21050595,N,11432.05689171,E,0.363,163.1,061224,3.4,W,D*2B
$GNVTG,171.728,T,175.167,M,0.64760,N,1.19936,K,D*37
$GNHDT,24.5117,T*2F
$GPGGA,080608.20,2234.21047022,N,11432.05689730,E,4,25,0.6,-3.9612,M,-1.3382,M,02,0000*5E
$GPRMC,080608.20,A,2234.21047022,N,11432.05689730,E,0.648,171.7,061224,3.4,W,D*2C
$GNVTG,166.660,T,170.099,M,0.91645,N,1.69727,K,D*3C
$GNHDT,24.1024,T*2A
$GPGGA,080608.40,2234.21042051,N,11432.05690999,E,4,25,0.6,-3.9764,M,-1.3382,M,02,0000*5C
$GPRMC,080608.40,A,2234.21042051,N,11432.05690999,E,0.916,166.7,061224,3.4,W,D*2C
$GNVTG,168.091,T,171.530,M,0.62441,N,1.15640,K,D*3C
$GNHDT,24.8144,T*24
$GPGGA,080608.60,2234.21038645,N,11432.05691773,E,4,25,0.6,-3.9827,M,-1.3382,M,02,0000*53
$GPRMC,080608.60,A,2234.21038645,N,11432.05691773,E,0.624,168.1,061224,3.4,W,D*2D
$GNVTG,161.803,T,165.242,M,0.55269,N,1.02358,K,D*33
$GNHDT,24.6365,T*2B
$GPGGA,080608.80,2234.21035718,N,11432.05692809,E,4,25,0.6,-3.9755,M,-1.3382,M,00,0000*50
$GPRMC,080608.80,A,2234.21035718,N,11432.05692809,E,0.553,161.8,061224,3.4,W,D*25
$GNVTG,152.672,T,156.111,M,0.35013,N,0.64843,K,D*37
$GNHDT,24.9586,T*2F
$GPGGA,080609.00,2234.21033984,N,11432.05693774,E,4,25,0.6,-3.9520,M,-1.3382,M,01,0000*51
$GPRMC,080609.00,A,2234.21033984,N,11432.05693774,E,0.350,152.7,061224,3.4,W,D*2F
$GNVTG,153.697,T,157.135,M,0.37044,N,0.68606,K,D*39
$GNHDT,24.7911,T*23
$GPGGA,080609.20,2234.21032133,N,11432.05694759,E,4,25,0.6,-3.9298,M,-1.3382,M,01,0000*5A
$GPRMC,080609.20,A,2234.21032133,N,11432.05694759,E,0.370,153.7,061224,3.4,W,D*23
$GNVTG,170.009,T,173.448,M,0.30809,N,0.57058,K,D*37
$GNHDT,24.7535,T*29
$GPGGA,080609.40,2234.21030441,N,11432.05695080,E,4,25,0.6,-3.8817,M,-1.3382,M,01,0000*50
$GPRMC,080609.40,A,2234.21030441,N,11432.05695080,E,0.308,170.0,061224,3.4,W,D*2C
$GNVTG,169.021,T,172.459,M,0.40528,N,0.75057,K,D*32
$GNHDT,24.9266,T*26
$GPGGA,080609.60,2234.21028223,N,11432.05695543,E,4,25,0.6,-3.8675,M,-1.3382,M,01,0000*59
$GPRMC,080609.60,A,2234.21028223,N,11432.05695543,E,0.405,169.0,061224,3.4,W,D*2D
$GNVTG,165.192,T,168.631,M,0.40481,N,0.74971,K,D*3E
$GNHDT,24.9178,T*2A
$GPGGA,080609.80,2234.21026042,N,11432.05696164,E,4,25,0.6,-3.8781,M,-1.3382,M,00,0000*55
$GPRMC,080609.80,A,2234.21026042,N,11432.05696164,E,0.405,165.2,061224,3.4,W,D*24
$GNVTG,167.733,T,171.172,M,0.62925,N,1.16538,K,D*3E
$GNHDT,24.4737,T*2A
$GPGGA,080610.00,2234.21022614,N,11432.05696967,E,4,25,0.6,-3.8960,M,-1.3382,M,01,0000*5F
$GPRMC,080610.00,A,2234.21022614,N,11432.05696967,E,0.629,167.7,061224,3.4,W,D*25
$GNVTG,164.384,T,167.823,M,0.54356,N,1.00668,K,D*35
$GNHDT,24.6671,T*2B
$GPGGA,080610.20,2234.21019696,N,11432.05697845,E,4,25,0.6,-3.9466,M,-1.3382,M,01,0000*55
$GPRMC,080610.20,A,2234.21019696,N,11432.05697845,E,0.544,164.4,061224,3.4,W,D*2D
$GNVTG,160.998,T,164.437,M,0.52743,N,0.97680,K,D*33
$GNHDT,24.3617,T*2E
$GPGGA,080610.40,2234.21016915,N,11432.05698876,E,4,25,0.6,-3.9609,M,-1.3382,M,01,0000*5C
$GPRMC,080610.40,A,2234.21016915,N,11432.05698876,E,0.527,161.0,061224,3.4,W,D*2B
$GNVTG,168.133,T,171.572,M,0.42177,N,0.78111,K,D*38
$GNHDT,24.5926,T*25
$GPGGA,080610.60,2234.21014614,N,11432.05699396,E,4,25,0.6,-3.9483,M,-1.3382,M,01,0000*56
$GPRMC,080610.60,A,2234.21014614,N,11432.05699396,E,0.422,168.1,061224,3.4,W,D*2D
$GNVTG,155.985,T,159.424,M,0.34873,N,0.64585,K,D*33
$GNHDT,24.7614,T*29
$GPGGA,080610.80,2234.21012839,N,11432.05700248,E,4,25,0.6,-3.9268,M,-1.3382,M,01,0000*5F
$GPRMC,080610.80,A,2234.21012839,N,11432.05700248,E,0.349,156.0,061224,3.4,W,D*21
$GNVTG,153.713,T,157.151,M,0.28969,N,0.53650,K,D*35
$GNHDT,24.6808,T*2B
$GPGGA,080611.00,2234.21011391,N,11432.05701018,E,4,25,0.6,-3.9115,M,-1.3382,M,02,0000*50
$GPRMC,080611.00,A,2234.21011391,N,11432.05701018,E,0.290,153.7,061224,3.4,W,D*23
$GNVTG,161.238,T,164.677,M,0.42964,N,0.79570,K,D*33
$GNHDT,24.7713,T*2F
$GPGGA,080611.20,2234.21009123,N,11432.05701848,E,4,25,0.6,-3.8824,M,-1.3382,M,02,0000*57
$GPRMC,080611.20,A,2234.21009123,N,11432.05701848,E,0.430,161.2,061224,3.4,W,D*26
$GNVTG,167.028,T,170.467,M,0.41380,N,0.76636,K,D*3D
$GNHDT,25.6155,T*2B
$GPGGA,080611.40,2234.21006875,N,11432.05702406,E,4,25,0.6,-3.9038,M,-1.3382,M,02,0000*55
$GPRMC,080611.40,A,2234.21006875,N,11432.05702406,E,0.414,167.0,061224,3.4,W,D*22
$GNVTG,160.704,T,164.142,M,0.62023,N,1.14866,K,D*31
$GNHDT,25.2726,T*2D
$GPGGA,080611.60,2234.21003612,N,11432.05703636,E,4,25,0.6,-3.9399,M,-1.3382,M,02,0000*55
$GPRMC,080611.60,A,2234.21003612,N,11432.05703636,E,0.620,160.7,061224,3.4,W,D*2F
$GNVTG,155.744,T,159.183,M,0.57645,N,1.06759,K,D*30
$GNHDT,25.0114,T*28
$GPGGA,080611.80,2234.21000682,N,11432.05705057,E,4,25,0.6,-3.9650,M,-1.3382,M,02,0000*56
$GPRMC,080611.80,A,2234.21000682,N,11432.05705057,E,0.576,155.7,061224,3.4,W,D*2A
$GNVTG,140.023,T,143.462,M,0.46113,N,0.85401,K,D*33
$GNHDT,24.1144,T*2D
$GPGGA,080612.00,2234.20998712,N,11432.05706836,E,4,25,0.6,-3.9844,M,-1.3382,M,03,0000*5A
$GPRMC,080612.00,A,2234.20998712,N,11432.05706836,E,0.461,140.0,061224,3.4,W,D*28
$GNVTG,153.571,T,157.010,M,0.42666,N,0.79018,K,D*39
$GNHDT,24.0157,T*2E
$GPGGA,080612.20,2234.20996582,N,11432.05707976,E,4,25,0.6,-3.9870,M,-1.3382,M,03,0000*5E
$GPRMC,080612.20,A,2234.20996582,N,11432.05707976,E,0.427,153.6,061224,3.4,W,D*2D
$GNVTG,129.059,T,132.498,M,0.27980,N,0.51819,K,D*3B
$GNHDT,24.2897,T*29
$GPGGA,080612.40,2234.20995599,N,11432.05709280,E,4,25,0.6,-3.9982,M,-1.3382,M,03,0000*51
$GPRMC,080612.40,A,2234.20995599,N,11432.05709280,E,0.280,129.1,061224,3.4,W,D*2F
$GNVTG,145.431,T,148.869,M,0.35868,N,0.66428,K,D*3A
$GNHDT,23.9246,T*23
$GPGGA,080612.60,2234.20993952,N,11432.05710501,E,4,25,0.6,-3.9600,M,-1.3382,M,03,0000*5D
$GPRMC,080612.60,A,2234.20993952,N,11432.05710501,E,0.359,145.4,061224,3.4,W,D*2C
$GNVTG,165.786,T,169.225,M,0.39965,N,0.74015,K,D*3F
$GNHDT,24.5675,T*2C
$GPGGA,080612.80,2234.20991793,N,11432.05711090,E,4,25,0.6,-3.9249,M,-1.3382,M,00,0000*54
$GPRMC,080612.80,A,2234.20991793,N,11432.05711090,E,0.400,165.8,061224,3.4,W,D*2A
$GNVTG,161.325,T,164.764,M,0.59725,N,1.10611,K,D*36
$GNHDT,24.6860,T*25
$GPGGA,080613.00,2234.20988639,N,11432.05712238,E,4,24,0.6,-3.9072,M,-1.3382,M,01,0000*5D
$GPRMC,080613.00,A,2234.20988639,N,11432.05712238,E,0.597,161.3,061224,3.4,W,D*29
$GNVTG,164.162,T,167.601,M,0.62033,N,1.14886,K,D*3F
$GNHDT,24.8950,T*29
$GPGGA,080613.20,2234.20985312,N,11432.05713255,E,4,24,0.6,-3.8991,M,-1.3382,M,01,0000*51
$GPRMC,080613.20,A,2234.20985312,N,11432.05713255,E,0.620,164.2,061224,3.4,W,D*2B
$GNVTG,159.884,T,163.322,M,0.55802,N,1.03346,K,D*3F
$GNHDT,24.7624,T*2A
$GPGGA,080613.40,2234.20982391,N,11432.05714407,E,4,24,0.6,-3.9309,M,-1.3382,M,01,0000*57
$GPRMC,080613.40,A,2234.20982391,N,11432.05714407,E,0.558,159.9,061224,3.4,W,D*2E
$GNVTG,156.486,T,159.924,M,0.51100,N,0.94637,K,D*38
$GNHDT,23.8909,T*22
$GPGGA,080613.60,2234.20979778,N,11432.05715630,E,4,24,0.6,-3.9418,M,-1.3381,M,01,0000*51
$GPRMC,080613.60,A,2234.20979778,N,11432.05715630,E,0.511,156.5,061224,3.4,W,D*22
$GNVTG,157.044,T,160.482,M,0.39784,N,0.73680,K,D*39
$GNHDT,23.4737,T*2D
$GPGGA,080613.80,2234.20977736,N,11432.05716562,E,4,24,0.6,-3.9299,M,-1.3381,M,00,0000*52
$GPRMC,080613.80,A,2234.20977736,N,11432.05716562,E,0.398,157.0,061224,3.4,W,D*2C
$GNVTG,154.537,T,157.975,M,0.35266,N,0.65313,K,D*37
$GNHDT,23.1457,T*2D
$GPGGA,080614.00,2234.20975961,N,11432.05717472,E,4,25,0.6,-3.9142,M,-1.3381,M,01,0000*57
$GPRMC,080614.00,A,2234.20975961,N,11432.05717472,E,0.353,154.5,061224,3.4,W,D*2D
$GNVTG,169.207,T,172.646,M,0.33122,N,0.61342,K,D*30
$GNHDT,23.0822,T*22
$GPGGA,080614.20,2234.20974147,N,11432.05717844,E,4,25,0.6,-3.8756,M,-1.3381,M,01,0000*53
$GPRMC,080614.20,A,2234.20974147,N,11432.05717844,E,0.331,169.2,061224,3.4,W,D*26
$GNVTG,169.278,T,172.717,M,0.32082,N,0.59415,K,D*39
$GNHDT,23.4142,T*29
$GPGGA,080614.40,2234.20972390,N,11432.05718202,E,4,25,0.6,-3.8777,M,-1.3381,M,01,0000*5F
$GPRMC,080614.40,A,2234.20972390,N,11432.05718202,E,0.321,169.3,061224,3.4,W,D*29
$GNVTG,165.968,T,169.407,M,0.30819,N,0.57078,K,D*3E
$GNHDT,23.3854,T*20
$GPGGA,080614.60,2234.20970723,N,11432.05718651,E,4,25,0.6,-3.8943,M,-1.3381,M,01,0000*58
$GPRMC,080614.60,A,2234.20970723,N,11432.05718651,E,0.308,166.0,061224,3.4,W,D*20
$GNVTG,157.952,T,161.391,M,0.43518,N,0.80594,K,D*33
$GNHDT,22.8627,T*20
$GPGGA,080614.80,2234.20968475,N,11432.05719632,E,4,25,0.6,-3.9435,M,-1.3381,M,00,0000*57
$GPRMC,080614.80,A,2234.20968475,N,11432.05719632,E,0.435,158.0,061224,3.4,W,D*27
$GNVTG,143.918,T,147.357,M,0.40913,N,0.75771,K,D*31
$GNHDT,22.2149,T*25
$GPGGA,080615.00,2234.20966632,N,11432.05721078,E,4,25,0.6,-4.0229,M,-1.3381,M,01,0000*56
$GPRMC,080615.00,A,2234.20966632,N,11432.05721078,E,0.409,143.9,061224,3.4,W,D*2E
$GNVTG,152.191,T,155.630,M,0.47758,N,0.88448,K,D*32
$GNHDT,21.6389,T*2C
$GPGGA,080615.20,2234.20964277,N,11432.05722415,E,4,25,0.6,-4.0617,M,-1.3381,M,01,0000*56
$GPRMC,080615.20,A,2234.20964277,N,11432.05722415,E,0.478,152.2,061224,3.4,W,D*2A
$GNVTG,148.280,T,151.719,M,0.41788,N,0.77391,K,D*3C
$GNHDT,21.2312,T*2A
$GPGGA,080615.40,2234.20962295,N,11432.05723734,E,4,25,0.6,-4.0469,M,-1.3381,M,01,0000*50
$GPRMC,080615.40,A,2234.20962295,N,11432.05723734,E,0.418,148.3,061224,3.4,W,D*2B
$GNVTG,140.496,T,143.935,M,0.41386,N,0.76646,K,D*32
$GNHDT,20.8200,T*23
$GPGGA,080615.60,2234.20960515,N,11432.05725314,E,4,25,0.6,-4.0015,M,-1.3381,M,01,0000*50
$GPRMC,080615.60,A,2234.20960515,N,11432.05725314,E,0.414,140.5,061224,3.4,W,D*26
$GNVTG,146.688,T,150.127,M,0.31406,N,0.58163,K,D*34
$GNHDT,21.0081,T*21
$GPGGA,080615.80,2234.20959052,N,11432.05726350,E,4,25,0.6,-3.9390,M,-1.3381,M,00,0000*50
$GPRMC,080615.80,A,2234.20959052,N,11432.05726350,E,0.314,146.7,061224,3.4,W,D*24
$GNVTG,154.294,T,157.733,M,0.26608,N,0.49279,K,D*38
$GNHDT,21.3228,T*23
$GPGGA,080616.00,2234.20957715,N,11432.05727043,E,4,24,0.6,-3.8721,M,-1.3381,M,01,0000*5E
$GPRMC,080616.00,A,2234.20957715,N,11432.05727043,E,0.266,154.3,061224,3.4,W,D*26
$GNVTG,157.546,T,160.985,M,0.39195,N,0.72589,K,D*39
$GNHDT,21.2617,T*2A
$GPGGA,080616.20,2234.20955696,N,11432.05727941,E,4,25,0.6,-3.8609,M,-1.3381,M,01,0000*55
$GPRMC,080616.20,A,2234.20955696,N,11432.05727941,E,0.392,157.5,061224,3.4,W,D*28
$GNVTG,151.118,T,154.557,M,0.47666,N,0.88278,K,D*3A
$GNHDT,20.9771,T*21
$GPGGA,080616.40,2234.20953369,N,11432.05729323,E,4,26,0.6,-3.8704,M,-1.3381,M,01,0000*5F
$GPRMC,080616.40,A,2234.20953369,N,11432.05729323,E,0.477,151.1,061224,3.4,W,D*23
$GNVTG,157.954,T,161.392,M,0.54396,N,1.00742,K,D*30
$GNHDT,20.1441,T*29
$GPGGA,080616.60,2234.20950558,N,11432.05730549,E,4,26,0.6,-3.9215,M,-1.3381,M,01,0000*5C
$GPRMC,080616.60,A,2234.20950558,N,11432.05730549,E,0.544,158.0,061224,3.4,W,D*2D
$GNVTG,166.306,T,169.744,M,0.66372,N,1.22921,K,D*38
$GNHDT,19.6468,T*2F
$GPGGA,080616.80,2234.20946964,N,11432.05731492,E,4,26,0.6,-3.9404,M,-1.3381,M,00,0000*57
$GPRMC,080616.80,A,2234.20946964,N,11432.05731492,E,0.664,166.3,061224,3.4,W,D*2E
$GNVTG,160.502,T,163.941,M,0.56227,N,1.04133,K,D*30
$GNHDT,19.0479,T*29
$GPGGA,080617.00,2234.20944009,N,11432.05732618,E,4,25,0.6,-3.9743,M,-1.3381,M,01,0000*5F
$GPRMC,080617.00,A,2234.20944009,N,11432.05732618,E,0.562,160.5,061224,3.4,W,D*21
$GNVTG,146.143,T,149.581,M,0.46481,N,0.86082,K,D*36
$GNHDT,18.0169,T*2C
$GPGGA,080617.20,2234.20941857,N,11432.05734173,E,4,25,0.6,-3.9520,M,-1.3381,M,01,0000*50
$GPRMC,080617.20,A,2234.20941857,N,11432.05734173,E,0.465,146.1,061224,3.4,W,D*2F
$GNVTG,119.346,T,122.784,M,0.17757,N,0.32886,K,D*3E
$GNHDT,17.9655,T*22
$GPGGA,080617.40,2234.20941372,N,11432.05735102,E,4,25,0.6,-3.9564,M,-1.3381,M,01,0000*5D
$GPRMC,080617.40,A,2234.20941372,N,11432.05735102,E,0.178,119.3,061224,3.4,W,D*23
$GNVTG,130.846,T,134.285,M,0.23692,N,0.43878,K,D*35
$GNHDT,17.6033,T*2B
$GPGGA,080617.60,2234.20940508,N,11432.05736178,E,4,25,0.6,-3.9250,M,-1.3381,M,01,0000*5B
$GPRMC,080617.60,A,2234.20940508,N,11432.05736178,E,0.237,130.8,061224,3.4,W,D*2D
$GNVTG,130.909,T,134.347,M,0.26473,N,0.49028,K,D*3F
$GNHDT,17.3717,T*2F
$GPGGA,080617.80,2234.20939542,N,11432.05737379,E,4,25,0.6,-3.9296,M,-1.3381,M,00,0000*5C
$GPRMC,080617.80,A,2234.20939542,N,11432.05737379,E,0.265,130.9,061224,3.4,W,D*27
$GNVTG,142.905,T,146.344,M,0.45216,N,0.83741,K,D*3E
$GNHDT,17.0729,T*21
$GPGGA,080618.00,2234.20937531,N,11432.05739016,E,4,24,0.6,-3.9425,M,-1.3381,M,01,0000*5B
$GPRMC,080618.00,A,2234.20937531,N,11432.05739016,E,0.452,142.9,061224,3.4,W,D*29
$GNVTG,141.807,T,145.246,M,0.56675,N,1.04962,K,D*3C
$GNHDT,16.4044,T*28
$GPGGA,080618.20,2234.20935048,N,11432.05741119,E,4,24,0.6,-3.9495,M,-1.3381,M,01,0000*5A
$GPRMC,080618.20,A,2234.20935048,N,11432.05741119,E,0.567,141.8,061224,3.4,W,D*26
$GNVTG,152.251,T,155.690,M,0.66898,N,1.23895,K,D*3B
$GNHDT,16.3156,T*2D
$GPGGA,080618.40,2234.20931747,N,11432.05742989,E,4,24,0.6,-3.9557,M,-1.3381,M,01,0000*5D
$GPRMC,080618.40,A,2234.20931747,N,11432.05742989,E,0.669,152.3,061224,3.4,W,D*2A
$GNVTG,156.801,T,160.240,M,0.56180,N,1.04046,K,D*3F
$GNHDT,16.0474,T*2B
$GPGGA,080618.60,2234.20928869,N,11432.05744317,E,4,24,0.6,-3.9449,M,-1.3381,M,01,0000*51
$GPRMC,080618.60,A,2234.20928869,N,11432.05744317,E,0.562,156.8,061224,3.4,W,D*2F
$GNVTG,158.052,T,161.491,M,0.38322,N,0.70972,K,D*3A
$GNHDT,15.6756,T*2D
$GPGGA,080618.80,2234.20926887,N,11432.05745177,E,4,24,0.6,-3.9192,M,-1.3381,M,00,0000*56
$GPRMC,080618.80,A,2234.20926887,N,11432.05745177,E,0.383,158.1,061224,3.4,W,D*24
$GNVTG,159.946,T,163.384,M,0.29115,N,0.53921,K,D*37
$GNHDT,15.5069,T*25
$GPGGA,080619.00,2234.20925363,N,11432.05745776,E,4,24,0.6,-3.8868,M,-1.3381,M,01,0000*56
$GPRMC,080619.00,A,2234.20925363,N,11432.05745776,E,0.291,159.9,061224,3.4,W,D*23
$GNVTG,118.488,T,121.927,M,0.16703,N,0.30933,K,D*33
$GNHDT,15.0601,T*28
$GPGGA,080619.20,2234.20924918,N,11432.05746657,E,4,24,0.6,-3.9113,M,-1.3381,M,01,0000*56
$GPRMC,080619.20,A,2234.20924918,N,11432.05746657,E,0.167,118.5,061224,3.4,W,D*24
$GNVTG,154.613,T,158.052,M,0.23099,N,0.42779,K,D*39
$GNHDT,14.5800,T*23
$GPGGA,080619.40,2234.20923755,N,11432.05747252,E,4,24,0.6,-3.9137,M,-1.3381,M,01,0000*56
$GPRMC,080619.40,A,2234.20923755,N,11432.05747252,E,0.231,154.6,061224,3.4,W,D*29
$GNVTG,146.105,T,149.544,M,0.38222,N,0.70787,K,D*30
$GNHDT,13.8130,T*23
$GPGGA,080619.60,2234.20921986,N,11432.05748531,E,4,24,0.6,-3.9478,M,-1.3381,M,01,0000*55
$GPRMC,080619.60,A,2234.20921986,N,11432.05748531,E,0.382,146.1,061224,3.4,W,D*29
$GNVTG,165.045,T,168.483,M,0.48076,N,0.89038,K,D*3C
$GNHDT,13.7042,T*28
$GPGGA,080619.80,2234.20919397,N,11432.05749276,E,4,24,0.6,-3.9681,M,-1.3381,M,00,0000*5A
$GPRMC,080619.80,A,2234.20919397,N,11432.05749276,E,0.481,165.0,061224,3.4,W,D*27
$GNVTG,162.533,T,165.972,M,0.65005,N,1.20390,K,D*39
$GNHDT,13.3547,T*2C
$GPGGA,080620.00,2234.20915940,N,11432.05750447,E,4,24,0.6,-3.9490,M,-1.3381,M,01,0000*5B
$GPRMC,080620.00,A,2234.20915940,N,11432.05750447,E,0.650,162.5,061224,3.4,W,D*29
$GNVTG,165.982,T,169.421,M,0.59116,N,1.09482,K,D*3C
$GNHDT,13.1940,T*25
$GPGGA,080620.20,2234.20912743,N,11432.05751307,E,4,24,0.6,-3.9394,M,-1.3381,M,01,0000*52
$GPRMC,080620.20,A,2234.20912743,N,11432.05751307,E,0.591,166.0,061224,3.4,W,D*2C
$GNVTG,171.784,T,175.222,M,0.56723,N,1.05051,K,D*30
$GNHDT,13.3135,T*2D
$GPGGA,080620.40,2234.20909613,N,11432.05751793,E,4,24,0.6,-3.8956,M,-1.3381,M,01,0000*56
$GPRMC,080620.40,A,2234.20909613,N,11432.05751793,E,0.567,171.8,061224,3.4,W,D*2A
$GNVTG,168.141,T,171.580,M,0.39703,N,0.73530,K,D*35
$GNHDT,13.4290,T*26
$GPGGA,080620.60,2234.20907447,N,11432.05752283,E,4,24,0.6,-3.8690,M,-1.3381,M,01,0000*5B
$GPRMC,080620.60,A,2234.20907447,N,11432.05752283,E,0.397,168.1,061224,3.4,W,D*2A
$GNVTG,164.212,T,167.650,M,0.29150,N,0.53987,K,D*36
$GNHDT,13.0463,T*28
$GPGGA,080620.80,2234.20905883,N,11432.05752759,E,4,24,0.6,-3.8783,M,-1.3381,M,00,0000*53
$GPRMC,080620.80,A,2234.20905883,N,11432.05752759,E,0.292,164.2,061224,3.4,W,D*2B
$GNVTG,146.036,T,149.474,M,0.24125,N,0.44680,K,D*3B
$GNHDT,12.5516,T*2F
$GPGGA,080621.00,2234.20904768,N,11432.05753568,E,4,24,0.6,-3.9195,M,-1.3381,M,01,0000*51
$GPRMC,080621.00,A,2234.20904768,N,11432.05753568,E,0.241,146.0,061224,3.4,W,D*24
$GNVTG,154.289,T,157.728,M,0.27174,N,0.50326,K,D*30
$GNHDT,12.0424,T*2A
$GPGGA,080621.20,2234.20903403,N,11432.05754276,E,4,24,0.6,-3.9505,M,-1.3381,M,01,0000*58
$GPRMC,080621.20,A,2234.20903403,N,11432.05754276,E,0.272,154.3,061224,3.4,W,D*20
$GNVTG,156.860,T,160.299,M,0.43550,N,0.80655,K,D*38
$GNHDT,11.2851,T*25
$GPGGA,080621.40,2234.20901171,N,11432.05755303,E,4,24,0.6,-4.0053,M,-1.3381,M,01,0000*56
$GPRMC,080621.40,A,2234.20901171,N,11432.05755303,E,0.436,156.9,061224,3.4,W,D*28
$GNVTG,153.927,T,157.366,M,0.42498,N,0.78706,K,D*3E
$GNHDT,10.9808,T*23
$GPGGA,080621.60,2234.20899043,N,11432.05756425,E,4,24,0.6,-4.0203,M,-1.3381,M,01,0000*53
$GPRMC,080621.60,A,2234.20899043,N,11432.05756425,E,0.425,153.9,061224,3.4,W,D*2D
$GNVTG,155.220,T,158.659,M,0.53936,N,0.99889,K,D*3C
$GNHDT,10.7073,T*29
$GPGGA,080621.80,2234.20896313,N,11432.05757781,E,4,24,0.6,-4.0047,M,-1.3381,M,00,0000*5B
$GPRMC,080621.80,A,2234.20896313,N,11432.05757781,E,0.539,155.2,061224,3.4,W,D*27
$GNVTG,155.860,T,159.299,M,0.49599,N,0.91857,K,D*32
$GNHDT,10.8964,T*29
$GPGGA,080622.00,2234.20893789,N,11432.05758999,E,4,24,0.6,-3.9869,M,-1.3381,M,01,0000*51
$GPRMC,080622.00,A,2234.20893789,N,11432.05758999,E,0.496,155.9,061224,3.4,W,D*29
$GNVTG,146.457,T,149.895,M,0.35984,N,0.66643,K,D*37
$GNHDT,11.0603,T*2E
$GPGGA,080622.20,2234.20892117,N,11432.05760193,E,4,24,0.6,-3.9567,M,-1.3381,M,01,0000*59
$GPRMC,080622.20,A,2234.20892117,N,11432.05760193,E,0.360,146.5,061224,3.4,W,D*22
$GNVTG,143.784,T,147.223,M,0.30350,N,0.56208,K,D*38
$GNHDT,11.1628,T*26
$GPGGA,080622.40,2234.20890752,N,11432.05761269,E,4,24,0.6,-3.9343,M,-1.3381,M,01,0000*5D
$GPRMC,080622.40,A,2234.20890752,N,11432.05761269,E,0.303,143.8,061224,3.4,W,D*2B
$GNVTG,144.339,T,147.778,M,0.31912,N,0.59102,K,D*3D
$GNHDT,10.6403,T*2B
$GPGGA,080622.60,2234.20889307,N,11432.05762386,E,4,24,0.6,-3.9248,M,-1.3381,M,01,0000*5A
$GPRMC,080622.60,A,2234.20889307,N,11432.05762386,E,0.319,144.3,061224,3.4,W,D*21
$GNVTG,156.094,T,159.533,M,0.31655,N,0.58625,K,D*37
$GNHDT,10.6460,T*2E
$GPGGA,080622.80,2234.20887694,N,11432.05763156,E,4,24,0.6,-3.9385,M,-1.3381,M,00,0000*5A
$GPRMC,080622.80,A,2234.20887694,N,11432.05763156,E,0.317,156.1,061224,3.4,W,D*2F
$GNVTG,157.800,T,161.239,M,0.42971,N,0.79582,K,D*35
$GNHDT,10.1167,T*2B
$GPGGA,080623.00,2234.20885476,N,11432.05764130,E,4,24,0.6,-3.9633,M,-1.3381,M,01,0000*51
$GPRMC,080623.00,A,2234.20885476,N,11432.05764130,E,0.430,157.8,061224,3.4,W,D*27
$GNVTG,163.131,T,166.570,M,0.59169,N,1.09580,K,D*3B
$GNHDT,9.5415,T*17
$GPGGA,080623.20,2234.20882319,N,11432.05765161,E,4,24,0.6,-3.9812,M,-1.3381,M,01,0000*52
$GPRMC,080623.20,A,2234.20882319,N,11432.05765161,E,0.592,163.1,061224,3.4,W,D*2E
$GNVTG,164.644,T,168.083,M,0.47949,N,0.88802,K,D*34
$GNHDT,9.3151,T*14
$GPGGA,080623.40,2234.20879742,N,11432.05765923,E,4,24,0.6,-3.9787,M,-1.3381,M,01,0000*57
$GPRMC,080623.40,A,2234.20879742,N,11432.05765923,E,0.479,164.6,061224,3.4,W,D*2C
$GNVTG,168.344,T,171.783,M,0.46121,N,0.85416,K,D*31
$GNHDT,9.4880,T*16
$GPGGA,080623.60,2234.20877224,N,11432.05766482,E,4,24,0.6,-3.9791,M,-1.3381,M,01,0000*5C
$GPRMC,080623.60,A,2234.20877224,N,11432.05766482,E,0.461,168.3,061224,3.4,W,D*20
$GNVTG,159.817,T,163.256,M,0.44030,N,0.81544,K,D*31
$GNHDT,9.5302,T*16
$GPGGA,080623.80,2234.20874920,N,11432.05767394,E,4,24,0.6,-3.9467,M,-1.3381,M,00,0000*54
$GPRMC,080623.80,A,2234.20874920,N,11432.05767394,E,0.440,159.8,061224,3.4,W,D*29
$GNVTG,146.679,T,150.118,M,0.36533,N,0.67659,K,D*34
$GNHDT,9.1766,T*14
$GPGGA,080624.00,2234.20873218,N,11432.05768599,E,4,24,0.6,-3.9404,M,-1.3381,M,01,0000*5C
$GPRMC,080624.00,A,2234.20873218,N,11432.05768599,E,0.365,146.7,061224,3.4,W,D*24
$GNVTG,158.525,T,161.964,M,0.46804,N,0.86682,K,D*37
$GNHDT,8.7829,T*17
$GPGGA,080624.20,2234.20870790,N,11432.05769627,E,4,24,0.6,-3.9283,M,-1.3381,M,01,0000*56
$GPRMC,080624.20,A,2234.20870790,N,11432.05769627,E,0.468,158.5,061224,3.4,W,D*20
$GNVTG,163.883,T,167.321,M,0.54979,N,1.01820,K,D*33
$GNHDT,8.8438,T*14
$GPGGA,080624.40,2234.20867845,N,11432.05770544,E,4,24,0.6,-3.9007,M,-1.3381,M,01,0000*51
$GPRMC,080624.40,A,2234.20867845,N,11432.05770544,E,0.550,163.9,061224,3.4,W,D*27
$GNVTG,169.556,T,172.994,M,0.53118,N,0.98374,K,D*3F
$GNHDT,8.7584,T*1D
$GPGGA,080624.60,2234.20864933,N,11432.05771122,E,4,25,0.6,-3.8972,M,-1.3381,M,01,0000*5E
$GPRMC,080624.60,A,2234.20864933,N,11432.05771122,E,0.531,169.6,061224,3.4,W,D*21
$GNVTG,175.841,T,179.279,M,0.46828,N,0.86725,K,D*3B
$GNHDT,8.4203,T*16
$GPGGA,080624.80,2234.20862330,N,11432.05771325,E,4,25,0.6,-3.8854,M,-1.3381,M,00,0000*5E
$GPRMC,080624.80,A,2234.20862330,N,11432.05771325,E,0.468,175.8,061224,3.4,W,D*2B
$GNVTG,174.025,T,177.464,M,0.48602,N,0.90012,K,D*38
$GNHDT,8.4862,T*1B
$GPGGA,080625.00,2234.20859635,N,11432.05771629,E,4,25,0.6,-3.8904,M,-1.3381,M,01,0000*53
$GPRMC,080625.00,A,2234.20859635,N,11432.05771629,E,0.486,174.0,061224,3.4,W,D*2A
$GNVTG,169.283,T,172.722,M,0.54555,N,1.01035,K,D*3E
$GNHDT,8.1751,T*11
$GPGGA,080625.20,2234.20856647,N,11432.05772238,E,4,25,0.6,-3.9134,M,-1.3381,M,01,0000*56
$GPRMC,080625.20,A,2234.20856647,N,11432.05772238,E,0.546,169.3,061224,3.4,W,D*27
$GNVTG,160.798,T,164.237,M,0.55380,N,1.02564,K,D*33
$GNHDT,7.4100,T*19
$GPGGA,080625.40,2234.20853731,N,11432.05773331,E,4,25,0.6,-3.9233,M,-1.3381,M,01,0000*58
$GPRMC,080625.40,A,2234.20853731,N,11432.05773331,E,0.554,160.8,061224,3.4,W,D*2C
$GNVTG,159.724,T,163.163,M,0.44201,N,0.81861,K,D*31
$GNHDT,7.1618,T*12
$GPGGA,080625.60,2234.20851420,N,11432.05774251,E,4,25,0.6,-3.9488,M,-1.3381,M,01,0000*5D
$GPRMC,080625.60,A,2234.20851420,N,11432.05774251,E,0.442,159.7,061224,3.4,W,D*2C
$GNVTG,159.362,T,162.800,M,0.35861,N,0.66415,K,D*36
$GNHDT,6.8295,T*1B
$GPGGA,080625.80,2234.20849549,N,11432.05775010,E,4,25,0.6,-3.9354,M,-1.3381,M,01,0000*54
$GPRMC,080625.80,A,2234.20849549,N,11432.05775010,E,0.359,159.4,061224,3.4,W,D*2D
$GNVTG,162.121,T,165.559,M,0.22413,N,0.41509,K,D*3B
$GNHDT,6.6238,T*12
$GPGGA,080626.00,2234.20848360,N,11432.05775423,E,4,25,0.6,-3.9369,M,-1.3381,M,02,0000*5A
$GPRMC,080626.00,A,2234.20848360,N,11432.05775423,E,0.224,162.1,061224,3.4,W,D*28
$GNVTG,161.333,T,164.772,M,0.27301,N,0.50562,K,D*3F
$GNHDT,6.6004,T*1F
$GPGGA,080626.20,2234.20846918,N,11432.05775947,E,4,25,0.6,-3.9237,M,-1.3381,M,02,0000*56
$GPRMC,080626.20,A,2234.20846918,N,11432.05775947,E,0.273,161.3,061224,3.4,W,D*2D
$GNVTG,162.517,T,165.956,M,0.28277,N,0.52370,K,D*3D
$GNHDT,6.3361,T*1A
$GPGGA,080626.40,2234.20845414,N,11432.05776457,E,4,25,0.6,-3.9313,M,-1.3381,M,02,0000*5A
$GPRMC,080626.40,A,2234.20845414,N,11432.05776457,E,0.283,162.5,061224,3.4,W,D*2C
$GNVTG,156.928,T,160.366,M,0.51722,N,0.95789,K,D*34
$GNHDT,5.7183,T*13
$GPGGA,080626.60,2234.20842762,N,11432.05777674,E,4,25,0.6,-3.9122,M,-1.3381,M,02,0000*5F
$GPRMC,080626.60,A,2234.20842762,N,11432.05777674,E,0.517,156.9,061224,3.4,W,D*28
$GNVTG,151.520,T,154.959,M,0.52709,N,0.97616,K,D*39
$GNHDT,5.3314,T*1B
$GPGGA,080626.80,2234.20840179,N,11432.05779182,E,4,25,0.6,-3.9356,M,-1.3381,M,00,0000*5C
$GPRMC,080626.80,A,2234.20840179,N,11432.05779182,E,0.527,151.5,061224,3.4,W,D*20
$GNVTG,158.947,T,162.386,M,0.68607,N,1.27059,K,D*31
$GNHDT,4.9213,T*16
$GPGGA,080627.00,2234.20836609,N,11432.05780662,E,4,25,0.6,-3.9276,M,-1.3381,M,01,0000*59
$GPRMC,080627.00,A,2234.20836609,N,11432.05780662,E,0.686,158.9,061224,3.4,W,D*2A
$GNVTG,161.492,T,164.930,M,0.43592,N,0.80732,K,D*3F
$GNHDT,4.9552,T*14
$GPGGA,080627.20,2234.20834305,N,11432.05781492,E,4,25,0.6,-3.9146,M,-1.3381,M,01,0000*5C
$GPRMC,080627.20,A,2234.20834305,N,11432.05781492,E,0.436,161.5,061224,3.4,W,D*20
$GNVTG,154.026,T,157.465,M,0.23788,N,0.44055,K,D*3E
$GNHDT,4.7617,T*18
$GPGGA,080627.40,2234.20833113,N,11432.05782118,E,4,25,0.6,-3.9471,M,-1.3381,M,01,0000*5D
$GPRMC,080627.40,A,2234.20833113,N,11432.05782118,E,0.238,154.0,061224,3.4,W,D*2B
$GNVTG,135.510,T,138.949,M,0.13641,N,0.25263,K,D*34
$GNHDT,4.7179,T*17
$GPGGA,080627.60,2234.20832570,N,11432.05782692,E,4,25,0.6,-3.9652,M,-1.3381,M,01,0000*59
$GPRMC,080627.60,A,2234.20832570,N,11432.05782692,E,0.136,135.5,061224,3.4,W,D*23
$GNVTG,146.247,T,149.686,M,0.19155,N,0.35475,K,D*37
$GNHDT,4.4453,T*19
$GPGGA,080627.80,2234.20831683,N,11432.05783330,E,4,25,0.6,-3.9695,M,-1.3381,M,01,0000*5C
$GPRMC,080627.80,A,2234.20831683,N,11432.05783330,E,0.192,146.2,061224,3.4,W,D*20
$GNVTG,140.413,T,143.851,M,0.19418,N,0.35963,K,D*3E
$GNHDT,4.3056,T*1F
$GPGGA,080628.00,2234.20830848,N,11432.05784073,E,4,25,0.6,-3.9947,M,-1.3381,M,02,0000*53
$GPRMC,080628.00,A,2234.20830848,N,11432.05784073,E,0.194,140.4,061224,3.4,W,D*2A
$GNVTG,149.336,T,152.775,M,0.61448,N,1.13802,K,D*37
$GNHDT,3.3460,T*19
$GPGGA,080628.20,2234.20827902,N,11432.05785954,E,4,25,0.6,-3.9843,M,-1.3381,M,02,0000*50
$GPRMC,080628.20,A,2234.20827902,N,11432.05785954,E,0.614,149.3,061224,3.4,W,D*2D
$GNVTG,155.497,T,158.936,M,0.47012,N,0.87066,K,D*3C
$GNHDT,2.9017,T*16
$GPGGA,080628.40,2234.20825517,N,11432.05787125,E,4,25,0.6,-3.9764,M,-1.3381,M,02,0000*5A
$GPRMC,080628.40,A,2234.20825517,N,11432.05787125,E,0.470,155.5,061224,3.4,W,D*26
$GNVTG,164.444,T,167.882,M,0.49231,N,0.91175,K,D*3B
$GNHDT,3.0246,T*18
$GPGGA,080628.60,2234.20822873,N,11432.05787917,E,4,25,0.6,-3.9520,M,-1.3381,M,02,0000*5B
$GPRMC,080628.60,A,2234.20822873,N,11432.05787917,E,0.492,164.4,061224,3.4,W,D*2A
$GNVTG,158.593,T,162.032,M,0.41625,N,0.77089,K,D*3A
$GNHDT,2.8573,T*10
$GPGGA,080628.80,2234.20820713,N,11432.05788829,E,4,25,0.6,-3.9016,M,-1.3381,M,00,0000*5F
$GPRMC,080628.80,A,2234.20820713,N,11432.05788829,E,0.416,158.6,061224,3.4,W,D*2D
$GNVTG,162.735,T,166.173,M,0.39678,N,0.73483,K,D*30
$GNHDT,2.9461,T*13
$GPGGA,080629.00,2234.20818600,N,11432.05789536,E,4,25,0.6,-3.8815,M,-1.3381,M,01,0000*57
$GPRMC,080629.00,A,2234.20818600,N,11432.05789536,E,0.397,162.7,061224,3.4,W,D*28
$GNVTG,170.661,T,174.100,M,0.40333,N,0.74696,K,D*31
$GNHDT,3.4468,T*16
$GPGGA,080629.20,2234.20816382,N,11432.05789929,E,4,25,0.6,-3.8675,M,-1.3381,M,01,0000*5E
$GPRMC,080629.20,A,2234.20816382,N,11432.05789929,E,0.403,170.7,061224,3.4,W,D*20
$GNVTG,168.671,T,172.110,M,0.43427,N,0.80427,K,D*3C
$GNHDT,2.8732,T*17
$GPGGA,080629.40,2234.20814008,N,11432.05790441,E,4,24,0.7,-3.8620,M,-1.3381,M,01,0000*50
$GPRMC,080629.40,A,2234.20814008,N,11432.05790441,E,0.434,168.7,061224,3.4,W,D*23
$GNVTG,163.971,T,167.410,M,0.50455,N,0.93442,K,D*3F
$GNHDT,2.1368,T*15
$GPGGA,080629.60,2234.20811305,N,11432.05791277,E,4,24,0.7,-3.8919,M,-1.3381,M,01,0000*5E
$GPRMC,080629.60,A,2234.20811305,N,11432.05791277,E,0.505,164.0,061224,3.4,W,D*20
$GNVTG,174.245,T,177.683,M,0.51894,N,0.96108,K,D*32
$GNHDT,1.9474,T*14
$GPGGA,080629.80,2234.20808426,N,11432.05791590,E,4,24,0.7,-3.9194,M,-1.3381,M,00,0000*5D
$GPRMC,080629.80,A,2234.20808426,N,11432.05791590,E,0.519,174.2,061224,3.4,W,D*20
$GNVTG,165.394,T,168.832,M,0.33633,N,0.62289,K,D*33
$GNHDT,1.6032,T*1D
$GPGGA,080630.00,2234.20806612,N,11432.05792099,E,4,24,0.7,-3.9331,M,-1.3381,M,01,0000*55
$GPRMC,080630.00,A,2234.20806612,N,11432.05792099,E,0.336,165.4,061224,3.4,W,D*29
$GNVTG,160.688,T,164.126,M,0.27778,N,0.51444,K,D*32
$GNHDT,1.2156,T*1A
$GPGGA,080630.20,2234.20805150,N,11432.05792650,E,4,24,0.7,-3.9350,M,-1.3381,M,01,0000*51
$GPRMC,080630.20,A,2234.20805150,N,11432.05792650,E,0.278,160.7,061224,3.4,W,D*27
$GNVTG,157.482,T,160.921,M,0.55582,N,1.02938,K,D*36
$GNHDT,1.1136,T*1F
$GPGGA,080630.40,2234.20802288,N,11432.05793928,E,4,24,0.7,-3.9390,M,-1.3381,M,01,0000*5B
$GPRMC,080630.40,A,2234.20802288,N,11432.05793928,E,0.556,157.5,061224,3.4,W,D*2C
$GNVTG,164.502,T,167.940,M,0.56962,N,1.05493,K,D*35
$GNHDT,1.1646,T*1F
$GPGGA,080630.60,2234.20799228,N,11432.05794842,E,4,24,0.7,-3.9236,M,-1.3380,M,01,0000*58
$GPRMC,080630.60,A,2234.20799228,N,11432.05794842,E,0.570,164.5,061224,3.4,W,D*27
$GNVTG,167.120,T,170.558,M,0.63684,N,1.17943,K,D*33
$GNHDT,1.1193,T*10
$GPGGA,080630.80,2234.20795767,N,11432.05795694,E,4,25,0.6,-3.8912,M,-1.3380,M,00,0000*5D
$GPRMC,080630.80,A,2234.20795767,N,11432.05795694,E,0.637,167.1,061224,3.4,W,D*28
$GNVTG,171.260,T,174.699,M,0.55451,N,1.02694,K,D*37
$GNHDT,1.3536,T*19
$GPGGA,080631.00,2234.20792712,N,11432.05796200,E,4,25,0.6,-3.8718,M,-1.3380,M,01,0000*5E
$GPRMC,080631.00,A,2234.20792712,N,11432.05796200,E,0.555,171.3,061224,3.4,W,D*2C
$GNVTG,185.243,T,188.682,M,0.41246,N,0.76388,K,D*3B
$GNHDT,1.2849,T*1D
$GPGGA,080631.20,2234.20790422,N,11432.05795973,E,4,25,0.6,-3.8480,M,-1.3380,M,01,0000*50
$GPRMC,080631.20,A,2234.20790422,N,11432.05795973,E,0.412,185.2,061224,3.4,W,D*28
$GNVTG,179.342,T,182.780,M,0.29814,N,0.55216,K,D*35
$GNHDT,1.0911,T*13
$GPGGA,080631.40,2234.20788760,N,11432.05795994,E,4,25,0.6,-3.8476,M,-1.3380,M,01,0000*5A
$GPRMC,080631.40,A,2234.20788760,N,11432.05795994,E,0.298,179.3,061224,3.4,W,D*2D
$GNVTG,171.701,T,175.140,M,0.33218,N,0.61519,K,D*3E
$GNHDT,0.5886,T*18
$GPGGA,080631.60,2234.20786928,N,11432.05796282,E,4,25,0.6,-3.8707,M,-1.3380,M,01,0000*5E
$GPRMC,080631.60,A,2234.20786928,N,11432.05796282,E,0.332,171.7,061224,3.4,W,D*21
$GNVTG,170.510,T,173.949,M,0.52171,N,0.96621,K,D*31
$GNHDT,0.2343,T*1D
$GPGGA,080631.80,2234.20784059,N,11432.05796798,E,4,25,0.6,-3.9011,M,-1.3380,M,01,0000*52
$GPRMC,080631.80,A,2234.20784059,N,11432.05796798,E,0.522,170.5,061224,3.4,W,D*28
$GNVTG,172.865,T,176.304,M,0.52277,N,0.96816,K,D*35
$GNHDT,0.0981,T*1B
$GPGGA,080632.00,2234.20781168,N,11432.05797188,E,4,25,0.6,-3.9561,M,-1.3380,M,02,0000*58
$GPRMC,080632.00,A,2234.20781168,N,11432.05797188,E,0.523,172.9,061224,3.4,W,D*2C
$GNVTG,171.445,T,174.884,M,0.50719,N,0.93931,K,D*37
$GNHDT,0.2840,T*15
$GPGGA,080632.20,2234.20778372,N,11432.05797641,E,4,24,0.7,-3.9753,M,-1.3380,M,02,0000*54
$GPRMC,080632.20,A,2234.20778372,N,11432.05797641,E,0.507,171.4,061224,3.4,W,D*2B
$GNVTG,165.603,T,169.042,M,0.52359,N,0.96969,K,D*36
$GNHDT,0.1313,T*1B
$GPGGA,080632.40,2234.20775544,N,11432.05798422,E,4,24,0.7,-3.9989,M,-1.3380,M,01,0000*5E
$GPRMC,080632.40,A,2234.20775544,N,11432.05798422,E,0.524,165.6,061224,3.4,W,D*2D
$GNVTG,155.294,T,158.732,M,0.35700,N,0.66116,K,D*3B
$GNHDT,0.4413,T*19
$GPGGA,080632.60,2234.20773736,N,11432.05799318,E,4,24,0.7,-3.9895,M,-1.3380,M,01,0000*5E
$GPRMC,080632.60,A,2234.20773736,N,11432.05799318,E,0.357,155.3,061224,3.4,W,D*25
$GNVTG,155.295,T,158.734,M,0.39851,N,0.73805,K,D*34
$GNHDT,0.3468,T*12
$GPGGA,080632.80,2234.20771718,N,11432.05800317,E,4,24,0.7,-3.9741,M,-1.3380,M,01,0000*58
$GPRMC,080632.80,A,2234.20771718,N,11432.05800317,E,0.399,155.3,061224,3.4,W,D*27
$GNVTG,147.555,T,150.994,M,0.40243,N,0.74529,K,D*33
$GNHDT,0.1725,T*1A
$GPGGA,080633.00,2234.20769825,N,11432.05801613,E,4,24,0.7,-3.9435,M,-1.3380,M,02,0000*5A
$GPRMC,080633.00,A,2234.20769825,N,11432.05801613,E,0.402,147.6,061224,3.4,W,D*25
$GNVTG,154.688,T,158.126,M,0.54971,N,1.01806,K,D*37
$GNHDT,359.9074,T*1E
$GPGGA,080633.20,2234.20767055,N,11432.05803024,E,4,24,0.7,-3.9173,M,-1.3380,M,02,0000*5E
$GPRMC,080633.20,A,2234.20767055,N,11432.05803024,E,0.550,154.7,061224,3.4,W,D*23
$GNVTG,160.130,T,163.568,M,0.42942,N,0.79529,K,D*3B
$GNHDT,0.1980,T*1B
$GPGGA,080633.40,2234.20764803,N,11432.05803900,E,4,24,0.7,-3.8970,M,-1.3380,M,02,0000*55
$GPRMC,080633.40,A,2234.20764803,N,11432.05803900,E,0.429,160.1,061224,3.4,W,D*2C
$GNVTG,156.299,T,159.738,M,0.55197,N,1.02225,K,D*30
$GNHDT,359.6117,T*15
$GPGGA,080633.60,2234.20761986,N,11432.05805232,E,4,24,0.7,-3.9147,M,-1.3380,M,01,0000*5C
$GPRMC,080633.60,A,2234.20761986,N,11432.05805232,E,0.552,156.3,061224,3.4,W,D*21
$GNVTG,167.498,T,170.936,M,0.44228,N,0.81909,K,D*36
$GNHDT,359.6412,T*15
$GPGGA,080633.80,2234.20759579,N,11432.05805807,E,4,24,0.7,-3.9378,M,-1.3380,M,00,0000*56
$GPRMC,080633.80,A,2234.20759579,N,11432.05805807,E,0.442,167.5,061224,3.4,W,D*20
$GNVTG,178.787,T,182.225,M,0.33058,N,0.61224,K,D*3E
$GNHDT,359.8002,T*1E
$GPGGA,080634.00,2234.20757736,N,11432.05805849,E,4,24,0.7,-3.9341,M,-1.3380,M,01,0000*5F
$GPRMC,080634.00,A,2234.20757736,N,11432.05805849,E,0.331,178.8,061224,3.4,W,D*22
$GNVTG,180.678,T,184.116,M,0.35904,N,0.66495,K,D*30
$GNHDT,359.6393,T*1B
$GPGGA,080634.20,2234.20755735,N,11432.05805823,E,4,24,0.7,-3.9540,M,-1.3380,M,01,0000*57
$GPRMC,080634.20,A,2234.20755735,N,11432.05805823,E,0.359,180.7,061224,3.4,W,D*2B
$GNVTG,173.700,T,177.139,M,0.32293,N,0.59806,K,D*3B
$GNHDT,359.6708,T*1D
$GPGGA,080634.40,2234.20753945,N,11432.05806036,E,4,24,0.7,-3.9739,M,-1.3380,M,01,0000*5D
$GPRMC,080634.40,A,2234.20753945,N,11432.05806036,E,0.323,173.7,061224,3.4,W,D*2C
$GNVTG,168.658,T,172.097,M,0.54335,N,1.00628,K,D*3F
$GNHDT,359.7551,T*12
$GPGGA,080634.60,2234.20750975,N,11432.05806677,E,4,24,0.7,-3.9875,M,-1.3380,M,01,0000*5B
$GPRMC,080634.60,A,2234.20750975,N,11432.05806677,E,0.543,168.7,061224,3.4,W,D*27
$GNVTG,152.622,T,156.060,M,0.54878,N,1.01634,K,D*3B
$GNHDT,359.4814,T*1D
$GPGGA,080634.80,2234.20748259,N,11432.05808192,E,4,24,0.7,-4.0050,M,-1.3380,M,00,0000*5B
$GPRMC,080634.80,A,2234.20748259,N,11432.05808192,E,0.549,152.6,061224,3.4,W,D*25
$GNVTG,147.041,T,150.480,M,0.61728,N,1.14319,K,D*32
$GNHDT,359.2454,T*13
$GPGGA,080635.00,2234.20745372,N,11432.05810208,E,4,24,0.7,-4.0147,M,-1.3380,M,01,0000*58
$GPRMC,080635.00,A,2234.20745372,N,11432.05810208,E,0.617,147.0,061224,3.4,W,D*2A
$GNVTG,139.616,T,143.055,M,0.46662,N,0.86417,K,D*38
$GNHDT,358.7427,T*13
$GPGGA,080635.20,2234.20743390,N,11432.05812023,E,4,24,0.7,-4.0125,M,-1.3380,M,01,0000*5D
$GPRMC,080635.20,A,2234.20743390,N,11432.05812023,E,0.467,139.6,061224,3.4,W,D*21
$GNVTG,157.308,T,160.747,M,0.32834,N,0.60808,K,D*3B
$GNHDT,358.8044,T*1D
$GPGGA,080635.40,2234.20741701,N,11432.05812783,E,4,24,0.7,-3.9676,M,-1.3380,M,01,0000*57
$GPRMC,080635.40,A,2234.20741701,N,11432.05812783,E,0.328,157.3,061224,3.4,W,D*25
$GNVTG,218.484,T,221.923,M,0.15081,N,0.27930,K,D*30
$GNHDT,358.9965,T*16
$GPGGA,080635.60,2234.20741043,N,11432.05812220,E,4,24,0.7,-3.9069,M,-1.3380,M,01,0000*50
$GPRMC,080635.60,A,2234.20741043,N,11432.05812220,E,0.151,218.5,061224,3.4,W,D*28
$GNVTG,190.153,T,193.591,M,0.19823,N,0.36711,K,D*32
$GNHDT,358.7937,T*1F
$GPGGA,080635.80,2234.20739956,N,11432.05812010,E,4,24,0.7,-3.8641,M,-1.3380,M,00,0000*51
$GPRMC,080635.80,A,2234.20739956,N,11432.05812010,E,0.198,190.2,061224,3.4,W,D*24
$GNVTG,183.093,T,186.531,M,0.36089,N,0.66838,K,D*37
$GNHDT,358.9365,T*1C
$GPGGA,080636.00,2234.20737947,N,11432.05811893,E,4,24,0.7,-3.8421,M,-1.3380,M,01,0000*51
$GPRMC,080636.00,A,2234.20737947,N,11432.05811893,E,0.361,183.1,061224,3.4,W,D*24
$GNVTG,163.472,T,166.910,M,0.55661,N,1.03084,K,D*3B
$GNHDT,358.7572,T*12
$GPGGA,080636.20,2234.20734972,N,11432.05812844,E,4,24,0.7,-3.9026,M,-1.3380,M,01,0000*5D
$GPRMC,080636.20,A,2234.20734972,N,11432.05812844,E,0.557,163.5,061224,3.4,W,D*23
$GNVTG,158.221,T,161.660,M,0.54928,N,1.01727,K,D*33
$GNHDT,358.2123,T*17
$GPGGA,080636.40,2234.20732128,N,11432.05814067,E,4,24,0.7,-3.9592,M,-1.3380,M,01,0000*5F
$GPRMC,080636.40,A,2234.20732128,N,11432.05814067,E,0.549,158.2,061224,3.4,W,D*2B
$GNVTG,157.518,T,160.956,M,0.70091,N,1.29809,K,D*3E
$GNHDT,357.5427,T*1E
$GPGGA,080636.60,2234.20728518,N,11432.05815676,E,4,24,0.7,-4.0246,M,-1.3380,M,01,0000*56
$GPRMC,080636.60,A,2234.20728518,N,11432.05815676,E,0.701,157.5,061224,3.4,W,D*24
$GNVTG,178.557,T,181.996,M,0.42522,N,0.78750,K,D*31
$GNHDT,357.7509,T*11
$GPGGA,080636.80,2234.20726148,N,11432.05815740,E,4,24,0.7,-4.0374,M,-1.3380,M,00,0000*52
$GPRMC,080636.80,A,2234.20726148,N,11432.05815740,E,0.425,178.6,061224,3.4,W,D*2A
$GNVTG,158.106,T,161.544,M,0.21749,N,0.40279,K,D*31
$GNHDT,357.0970,T*14
$GPGGA,080637.00,2234.20725023,N,11432.05816227,E,4,24,0.7,-4.0065,M,-1.3380,M,01,0000*51
$GPRMC,080637.00,A,2234.20725023,N,11432.05816227,E,0.217,158.1,061224,3.4,W,D*29
$GNVTG,191.159,T,194.598,M,0.09231,N,0.17097,K,D*35
$GNHDT,357.1074,T*18
$GPGGA,080637.20,2234.20724518,N,11432.05816120,E,4,23,0.7,-3.9673,M,-1.3380,M,01,0000*53
$GPRMC,080637.20,A,2234.20724518,N,11432.05816120,E,0.092,191.2,061224,3.4,W,D*2A
$GNVTG,212.502,T,215.941,M,0.14843,N,0.27488,K,D*3F
$GNHDT,357.3535,T*1A
$GPGGA,080637.40,2234.20723821,N,11432.05815641,E,4,23,0.7,-3.9010,M,-1.3380,M,01,0000*55
$GPRMC,080637.40,A,2234.20723821,N,11432.05815641,E,0.148,212.5,061224,3.4,W,D*26
$GNVTG,175.008,T,178.447,M,0.34404,N,0.63717,K,D*39
$GNHDT,357.4300,T*1D
$GPGGA,080637.60,2234.20721910,N,11432.05815821,E,4,24,0.6,-3.8604,M,-1.3380,M,01,0000*5A
$GPRMC,080637.60,A,2234.20721910,N,11432.05815821,E,0.344,175.0,061224,3.4,W,D*24
$GNVTG,170.020,T,173.459,M,0.57651,N,1.06770,K,D*36
$GNHDT,357.4145,T*1E
$GPGGA,080637.80,2234.20718745,N,11432.05816420,E,4,24,0.6,-3.8545,M,-1.3380,M,00,0000*59
$GPRMC,080637.80,A,2234.20718745,N,11432.05816420,E,0.577,170.0,061224,3.4,W,D*23
$GNVTG,158.110,T,161.549,M,0.66748,N,1.23618,K,D*3E
$GNHDT,356.9705,T*10
$GPGGA,080638.00,2234.20715292,N,11432.05817914,E,4,25,0.6,-3.8803,M,-1.3380,M,01,0000*58
$GPRMC,080638.00,A,2234.20715292,N,11432.05817914,E,0.667,158.1,061224,3.4,W,D*24
$GNVTG,158.462,T,161.901,M,0.51482,N,0.95346,K,D*3D
$GNHDT,356.5541,T*1E
$GPGGA,080638.20,2234.20712622,N,11432.05819049,E,4,25,0.6,-3.9451,M,-1.3380,M,01,0000*57
$GPRMC,080638.20,A,2234.20712622,N,11432.05819049,E,0.515,158.5,061224,3.4,W,D*23
$GNVTG,164.338,T,167.776,M,0.30080,N,0.55708,K,D*31
$GNHDT,356.2372,T*1F
