0.7,-3.9114,M,-1.3418,M,02,0000*5D
$GPRMC,074542.00,A,2234.03946769,N,11431.92134905,E,1.191,305.6,061224,3.4,W,D*2E
$GNVTG,309.883,T,313.321,M,1.22283,N,2.26468,K,D*34
$GNHDT,69.6288,T*20
$GPGGA,074542.20,2234.03951140,N,11431.92129272,E,4,22,0.7,-3.9152,M,-1.3418,M,02,0000*51
$GPRMC,074542.20,A,2234.03951140,N,11431.92129272,E,1.223,309.9,061224,3.4,W,D*29
$GNVTG,310.141,T,313.578,M,1.16796,N,2.16307,K,D*3A
$GNHDT,69.7791,T*2C
$GPGGA,074542.40,2234.03955337,N,11431.92123913,E,4,22,0.7,-3.9123,M,-1.3418,M,02,0000*51
$GPRMC,074542.40,A,2234.03955337,N,11431.92123913,E,1.168,310.1,061224,3.4,W,D*23
$GNVTG,306.584,T,310.022,M,1.18179,N,2.18868,K,D*3C
$GNHDT,69.7752,T*23
$GPGGA,074542.60,2234.03959264,N,11431.92118217,E,4,22,0.7,-3.9082,M,-1.3418,M,02,0000*55
$GPRMC,074542.60,A,2234.03959264,N,11431.92118217,E,1.182,306.6,061224,3.4,W,D*29
$GNVTG,309.212,T,312.650,M,1.11780,N,2.07016,K,D*3C
$GNHDT,69.3993,T*24
$GPGGA,074542.80,2234.03963203,N,11431.92113018,E,4,22,0.7,-3.9133,M,-1.3418,M,00,0000*5C
$GPRMC,074542.80,A,2234.03963203,N,11431.92113018,E,1.118,309.2,061224,3.4,W,D*21
$GNVTG,310.038,T,313.475,M,1.21599,N,2.25201,K,D*37
$GNHDT,69.6685,T*29
$GPGGA,074543.00,2234.03967564,N,11431.92107430,E,4,22,0.7,-3.9191,M,-1.3418,M,01,0000*55
$GPRMC,074543.00,A,2234.03967564,N,11431.92107430,E,1.216,310.0,061224,3.4,W,D*26
$GNVTG,306.915,T,310.353,M,1.12286,N,2.07954,K,D*34
$GNHDT,69.6871,T*2C
$GPGGA,074543.20,2234.03971324,N,11431.92102041,E,4,22,0.7,-3.9187,M,-1.3418,M,01,0000*52
$GPRMC,074543.20,A,2234.03971324,N,11431.92102041,E,1.123,306.9,061224,3.4,W,D*2D
$GNVTG,307.493,T,310.930,M,1.18937,N,2.20272,K,D*38
$GNHDT,69.8253,T*28
$GPGGA,074543.40,2234.03975359,N,11431.92096377,E,4,22,0.7,-3.9072,M,-1.3419,M,01,0000*5A
$GPRMC,074543.40,A,2234.03975359,N,11431.92096377,E,1.189,307.5,061224,3.4,W,D*22
$GNVTG,304.075,T,307.512,M,1.23309,N,2.28369,K,D*31
$GNHDT,69.7648,T*29
$GPGGA,074543.60,2234.03979211,N,11431.92090246,E,4,23,0.7,-3.9116,M,-1.3419,M,01,0000*5E
$GPRMC,074543.60,A,2234.03979211,N,11431.92090246,E,1.233,304.1,061224,3.4,W,D*21
$GNVTG,310.807,T,314.245,M,1.14382,N,2.11835,K,D*31
$GNHDT,69.9397,T*20
$GPGGA,074543.80,2234.03983378,N,11431.92085049,E,4,23,0.7,-3.9199,M,-1.3419,M,00,0000*54
$GPRMC,074543.80,A,2234.03983378,N,11431.92085049,E,1.144,310.8,061224,3.4,W,D*22
$GNVTG,308.557,T,311.995,M,1.25213,N,2.31895,K,D*30
$GNHDT,70.0835,T*22
$GPGGA,074544.00,2234.03987729,N,11431.92079172,E,4,23,0.7,-3.9265,M,-1.3419,M,01,0000*54
$GPRMC,074544.00,A,2234.03987729,N,11431.92079172,E,1.252,308.6,061224,3.4,W,D*20
$GNVTG,306.327,T,309.765,M,1.14726,N,2.12472,K,D*32
$GNHDT,69.5207,T*24
$GPGGA,074544.20,2234.03991517,N,11431.92073624,E,4,23,0.7,-3.9225,M,-1.3419,M,01,0000*54
$GPRMC,074544.20,A,2234.03991517,N,11431.92073624,E,1.147,306.3,061224,3.4,W,D*28
$GNVTG,308.059,T,311.497,M,1.22619,N,2.27091,K,D*36
$GNHDT,69.9265,T*2C
$GPGGA,074544.40,2234.03995732,N,11431.92067829,E,4,23,0.7,-3.9296,M,-1.3419,M,01,0000*5D
$GPRMC,074544.40,A,2234.03995732,N,11431.92067829,E,1.226,308.1,061224,3.4,W,D*21
$GNVTG,309.878,T,313.316,M,1.19148,N,2.20663,K,D*37
$GNHDT,69.9762,T*2E
$GPGGA,074544.60,2234.03999990,N,11431.92062340,E,4,23,0.7,-3.9393,M,-1.3419,M,01,0000*50
$GPRMC,074544.60,A,2234.03999990,N,11431.92062340,E,1.191,309.9,061224,3.4,W,D*2E
$GNVTG,309.801,T,313.239,M,1.19689,N,2.21664,K,D*39
$GNHDT,69.7449,T*2A
$GPGGA,074544.80,2234.04004261,N,11431.92056821,E,4,23,0.7,-3.9269,M,-1.3419,M,01,0000*5E
$GPRMC,074544.80,A,2234.04004261,N,11431.92056821,E,1.197,309.8,061224,3.4,W,D*23
$GNVTG,308.216,T,311.654,M,1.19215,N,2.20787,K,D*35
$GNHDT,69.5771,T*20
$GPGGA,074545.00,2234.04008373,N,11431.92051198,E,4,23,0.7,-3.9354,M,-1.3419,M,02,0000*59
$GPRMC,074545.00,A,2234.04008373,N,11431.92051198,E,1.192,308.2,061224,3.4,W,D*26
$GNVTG,312.238,T,315.676,M,1.17832,N,2.18225,K,D*31
$GNHDT,69.7063,T*26
$GPGGA,074545.20,2234.04012788,N,11431.92045962,E,4,23,0.7,-3.9349,M,-1.3419,M,02,0000*54
$GPRMC,074545.20,A,2234.04012788,N,11431.92045962,E,1.178,312.2,061224,3.4,W,D*28
$GNVTG,310.865,T,314.302,M,1.22608,N,2.27069,K,D*31
$GNHDT,69.7345,T*21
$GPGGA,074545.40,2234.04017260,N,11431.92040396,E,4,23,0.7,-3.9149,M,-1.3419,M,02,0000*52
$GPRMC,074545.40,A,2234.04017260,N,11431.92040396,E,1.226,310.9,061224,3.4,W,D*2D
$GNVTG,307.125,T,310.563,M,1.23211,N,2.28187,K,D*3C
$GNHDT,69.6433,T*26
$GPGGA,074545.60,2234.04021406,N,11431.92034500,E,4,23,0.7,-3.9278,M,-1.3419,M,01,0000*5B
$GPRMC,074545.60,A,2234.04021406,N,11431.92034500,E,1.232,307.1,061224,3.4,W,D*2D
$GNVTG,306.523,T,309.961,M,1.24739,N,2.31016,K,D*30
$GNHDT,69.5067,T*20
$GPGGA,074545.80,2234.04025545,N,11431.92028483,E,4,24,0.7,-3.9144,M,-1.3419,M,00,0000*5A
$GPRMC,074545.80,A,2234.04025545,N,11431.92028483,E,1.247,306.5,061224,3.4,W,D*21
$GNVTG,311.387,T,314.824,M,1.22757,N,2.27345,K,D*3E
$GNHDT,69.9035,T*2B
$GPGGA,074546.00,2234.04030069,N,11431.92022954,E,4,24,0.7,-3.9227,M,-1.3419,M,01,0000*54
$GPRMC,074546.00,A,2234.04030069,N,11431.92022954,E,1.228,311.4,061224,3.4,W,D*26
$GNVTG,307.708,T,311.146,M,1.19594,N,2.21488,K,D*37
$GNHDT,69.7622,T*25
$GPGGA,074546.20,2234.04034147,N,11431.92017275,E,4,24,0.7,-3.9200,M,-1.3419,M,01,0000*54
$GPRMC,074546.20,A,2234.04034147,N,11431.92017275,E,1.196,307.7,061224,3.4,W,D*21
$GNVTG,305.229,T,308.667,M,1.16211,N,2.15224,K,D*3D
$GNHDT,69.5484,T*29
$GPGGA,074546.40,2234.04037884,N,11431.92011577,E,4,24,0.7,-3.9192,M,-1.3419,M,01,0000*5C
$GPRMC,074546.40,A,2234.04037884,N,11431.92011577,E,1.162,305.2,061224,3.4,W,D*2D
$GNVTG,311.189,T,314.626,M,1.20858,N,2.23829,K,D*39
$GNHDT,69.2717,T*27
$GPGGA,074546.60,2234.04042321,N,11431.92006118,E,4,23,0.7,-3.9280,M,-1.3419,M,01,0000*54
$GPRMC,074546.60,A,2234.04042321,N,11431.92006118,E,1.209,311.2,061224,3.4,W,D*29
$GNVTG,312.516,T,315.954,M,1.26210,N,2.33742,K,D*30
$GNHDT,69.7376,T*21
$GPGGA,074546.80,2234.04047076,N,11431.92000534,E,4,23,0.7,-3.9246,M,-1.3419,M,00,0000*59
$GPRMC,074546.80,A,2234.04047076,N,11431.92000534,E,1.262,312.5,061224,3.4,W,D*26
$GNVTG,308.772,T,312.209,M,1.22062,N,2.26059,K,D*35
$GNHDT,69.4543,T*22
$GPGGA,074547.00,2234.04051337,N,11431.91994821,E,4,23,0.7,-3.9112,M,-1.3419,M,01,0000*5C
$GPRMC,074547.00,A,2234.04051337,N,11431.91994821,E,1.221,308.8,061224,3.4,W,D*21
$GNVTG,310.760,T,314.197,M,1.23741,N,2.29168,K,D*36
$GNHDT,69.4833,T*28
$GPGGA,074547.20,2234.04055841,N,11431.91989195,E,4,22,0.7,-3.9081,M,-1.3419,M,01,0000*50
$GPRMC,074547.20,A,2234.04055841,N,11431.91989195,E,1.237,310.8,061224,3.4,W,D*29
$GNVTG,308.495,T,311.933,M,1.23030,N,2.27852,K,D*3A
$GNHDT,69.5986,T*26
$GPGGA,074547.40,2234.04060110,N,11431.91983416,E,4,22,0.7,-3.9073,M,-1.3419,M,01,0000*54
$GPRMC,074547.40,A,2234.04060110,N,11431.91983416,E,1.230,308.5,061224,3.4,W,D*23
$GNVTG,311.128,T,314.566,M,1.20135,N,2.22489,K,D*30
$GNHDT,69.8164,T*2F
$GPGGA,074547.60,2234.04064515,N,11431.91977984,E,4,23,0.7,-3.9118,M,-1.3419,M,01,0000*53
$GPRMC,074547.60,A,2234.04064515,N,11431.91977984,E,1.201,311.1,061224,3.4,W,D*27
$GNVTG,303.468,T,306.906,M,1.14320,N,2.11720,K,D*3A
$GNHDT,69.3838,T*24
$GPGGA,074547.80,2234.04068029,N,11431.91972260,E,4,23,0.7,-3.9155,M,-1.3419,M,00,0000*57
$GPRMC,074547.80,A,2234.04068029,N,11431.91972260,E,1.143,303.5,061224,3.4,W,D*29
$GNVTG,309.766,T,313.204,M,1.25754,N,2.32896,K,D*36
$GNHDT,69.6376,T*20
$GPGGA,074548.00,2234.04072514,N,11431.91966458,E,4,23,0.7,-3.8994,M,-1.3419,M,01,0000*5D
$GPRMC,074548.00,A,2234.04072514,N,11431.91966458,E,1.258,309.8,061224,3.4,W,D*28
$GNVTG,309.826,T,313.264,M,1.20086,N,2.22398,K,D*32
$GNHDT,69.2801,T*2F
$GPGGA,074548.20,2234.04076801,N,11431.91960922,E,4,24,0.7,-3.9198,M,-1.3420,M,01,0000*5C
$GPRMC,074548.20,A,2234.04076801,N,11431.91960922,E,1.201,309.8,061224,3.4,W,D*2D
$GNVTG,310.291,T,313.728,M,1.21788,N,2.25552,K,D*3E
$GNHDT,69.4593,T*2F
$GPGGA,074548.40,2234.04081191,N,11431.91955346,E,4,24,0.7,-3.9159,M,-1.3420,M,01,0000*51
$GPRMC,074548.40,A,2234.04081191,N,11431.91955346,E,1.218,310.3,061224,3.4,W,D*26
$GNVTG,310.103,T,313.541,M,1.21094,N,2.24266,K,D*30
$GNHDT,69.2710,T*20
$GPGGA,074548.60,2234.04085540,N,11431.91949786,E,4,24,0.7,-3.9193,M,-1.3420,M,01,0000*5C
$GPRMC,074548.60,A,2234.04085540,N,11431.91949786,E,1.211,310.1,061224,3.4,W,D*26
$GNVTG,312.863,T,316.300,M,1.20262,N,2.22725,K,D*35
$GNHDT,69.5043,T*26
$GPGGA,074548.80,2234.04090101,N,11431.91944495,E,4,24,0.7,-3.9013,M,-1.3420,M,01,0000*52
$GPRMC,074548.80,A,2234.04090101,N,11431.91944495,E,1.203,312.9,061224,3.4,W,D*28
$GNVTG,310.836,T,314.273,M,1.26789,N,2.34813,K,D*3B
$GNHDT,69.7083,T*28
$GPGGA,074549.00,2234.04094722,N,11431.91938737,E,4,24,0.7,-3.9037,M,-1.3420,M,02,0000*5D
$GPRMC,074549.00,A,2234.04094722,N,11431.91938737,E,1.268,310.8,061224,3.4,W,D*2C
$GNVTG,308.509,T,311.947,M,1.18616,N,2.19677,K,D*33
$GNHDT,69.1777,T*22
$GPGGA,074549.20,2234.04098840,N,11431.91933165,E,4,24,0.7,-3.9147,M,-1.3420,M,02,0000*54
$GPRMC,074549.20,A,2234.04098840,N,11431.91933165,E,1.186,308.5,061224,3.4,W,D*24
$GNVTG,311.018,T,314.456,M,1.17329,N,2.17294,K,D*37
$GNHDT,68.8433,T*29
$GPGGA,074549.40,2234.04103132,N,11431.91927852,E,4,24,0.7,-3.9217,M,-1.3420,M,02,0000*53
$GPRMC,074549.40,A,2234.04103132,N,11431.91927852,E,1.173,311.0,061224,3.4,W,D*22
$GNVTG,311.259,T,314.697,M,1.30096,N,2.40938,K,D*32
$GNHDT,69.1290,T*2E
$GPGGA,074549.60,2234.04107915,N,11431.91921981,E,4,24,0.7,-3.9121,M,-1.3420,M,02,0000*57
$GPRMC,074549.60,A,2234.04107915,N,11431.91921981,E,1.301,311.3,061224,3.4,W,D*24
$GNVTG,306.977,T,310.415,M,1.20095,N,2.22416,K,D*38
$GNHDT,68.5923,T*28
$GPGGA,074549.80,2234.04111942,N,11431.91916222,E,4,24,0.7,-3.9118,M,-1.3420,M,02,0000*50
$GPRMC,074549.80,A,2234.04111942,N,11431.91916222,E,1.201,307.0,061224,3.4,W,D*2C
$GNVTG,309.684,T,313.122,M,1.23729,N,2.29145,K,D*3D
$GNHDT,68.7844,T*2A
$GPGGA,074550.00,2234.04116346,N,11431.91910507,E,4,24,0.7,-3.9128,M,-1.3420,M,03,0000*5D
$GPRMC,074550.00,A,2234.04116346,N,11431.91910507,E,1.237,309.7,061224,3.4,W,D*2F
$GNVTG,308.002,T,311.439,M,1.21122,N,2.24317,K,D*3E
$GNHDT,68.4652,T*20
$GPGGA,074550.20,2234.04120504,N,11431.91904778,E,4,24,0.7,-3.9258,M,-1.3420,M,03,0000*51
$GPRMC,074550.20,A,2234.04120504,N,11431.91904778,E,1.211,308.0,061224,3.4,W,D*25
$GNVTG,309.951,T,313.389,M,1.29037,N,2.38977,K,D*32
$GNHDT,68.3795,T*2D
$GPGGA,074550.40,2234.04125123,N,11431.91898840,E,4,24,0.7,-3.9307,M,-1.3420,M,03,0000*58
$GPRMC,074550.40,A,2234.04125123,N,11431.91898840,E,1.290,310.0,061224,3.4,W,D*27
$GNVTG,307.646,T,311.083,M,1.28354,N,2.37712,K,D*3B
$GNHDT,68.2282,T*2F
$GPGGA,074550.60,2234.04129493,N,11431.91892740,E,4,24,0.7,-3.9374,M,-1.3420,M,03,0000*59
$GPRMC,074550.60,A,2234.04129493,N,11431.91892740,E,1.284,307.6,061224,3.4,W,D*27
$GNVTG,309.433,T,312.871,M,1.26437,N,2.34161,K,D*3E
$GNHDT,67.9926,T*2E
$GPGGA,074550.80,2234.04133970,N,11431.91886878,E,4,24,0.7,-3.9230,M,-1.3420,M,00,0000*5F
$GPRMC,074550.80,A,2234.04133970,N,11431.91886878,E,1.264,309.4,061224,3.4,W,D*21
$GNVTG,307.866,T,311.304,M,1.23935,N,2.29528,K,D*39
$GNHDT,67.5355,T*2C
$GPGGA,074551.00,2234.04138211,N,11431.91881005,E,4,23,0.7,-3.9379,M,-1.3420,M,01,0000*5E
$GPRMC,074551.00,A,2234.04138211,N,11431.91881005,E,1.239,307.9,061224,3.4,W,D*21
$GNVTG,307.554,T,310.992,M,1.30319,N,2.41350,K,D*30
$GNHDT,67.8085,T*2F
$GPGGA,074551.20,2234.04142639,N,11431.91874804,E,4,23,0.7,-3.9421,M,-1.3420,M,01,0000*56
$GPRMC,074551.20,A,2234.04142639,N,11431.91874804,E,1.303,307.6,061224,3.4,W,D*24
$GNVTG,310.175,T,313.612,M,1.21711,N,2.25409,K,D*30
$GNHDT,67.1241,T*2C
$GPGGA,074551.40,2234.04147016,N,11431.91869222,E,4,23,0.7,-3.9191,M,-1.3420,M,01,0000*52
$GPRMC,074551.40,A,2234.04147016,N,11431.91869222,E,1.217,310.2,061224,3.4,W,D*28
$GNVTG,307.864,T,311.301,M,1.32773,N,2.45896,K,D*30
$GNHDT,66.9457,T*24
$GPGGA,074551.60,2234.04151559,N,11431.91862930,E,4,23,0.7,-3.9240,M,-1.3420,M,01,0000*55
$GPRMC,074551.60,A,2234.04151559,N,11431.91862930,E,1.328,307.9,061224,3.4,W,D*20
$GNVTG,310.225,T,313.663,M,1.28111,N,2.37262,K,D*37
$GNHDT,66.5449,T*27
$GPGGA,074551.80,2234.04156172,N,11431.91857059,E,4,23,0.7,-3.9073,M,-1.3420,M,00,0000*52
$GPRMC,074551.80,A,2234.04156172,N,11431.91857059,E,1.281,310.2,061224,3.4,W,D*2B
$GNVTG,307.235,T,310.673,M,1.26484,N,2.34247,K,D*31
$GNHDT,65.8755,T*27
$GPGGA,074552.00,2234.04160438,N,11431.91851014,E,4,23,0.7,-3.9262,M,-1.3420,M,01,0000*5B
$GPRMC,074552.00,A,2234.04160438,N,11431.91851014,E,1.265,307.2,061224,3.4,W,D*2D
$GNVTG,310.033,T,313.471,M,1.27760,N,2.36612,K,D*3E
$GNHDT,65.5801,T*24
$GPGGA,074552.20,2234.04165019,N,11431.91845142,E,4,23,0.7,-3.9242,M,-1.3420,M,01,0000*5E
$GPRMC,074552.20,A,2234.04165019,N,11431.91845142,E,1.278,310.0,061224,3.4,W,D*22
$GNVTG,310.105,T,313.542,M,1.21828,N,2.25625,K,D*38
$GNHDT,65.1811,T*21
$GPGGA,074552.40,2234.04169394,N,11431.91839549,E,4,23,0.7,-3.9090,M,-1.3420,M,01,0000*5B
$GPRMC,074552.40,A,2234.04169394,N,11431.91839549,E,1.218,310.1,061224,3.4,W,D*2D
$GNVTG,306.159,T,309.596,M,1.23815,N,2.29305,K,D*33
$GNHDT,64.7960,T*21
$GPGGA,074552.60,2234.04173467,N,11431.91833549,E,4,24,0.7,-3.9040,M,-1.3420,M,01,0000*59
$GPRMC,074552.60,A,2234.04173467,N,11431.91833549,E,1.238,306.2,061224,3.4,W,D*23
$GNVTG,304.899,T,308.337,M,1.20700,N,2.23537,K,D*3D
$GNHDT,64.4910,T*25
$GPGGA,074552.80,2234.04177317,N,11431.91827607,E,4,24,0.7,-3.9122,M,-1.3420,M,00,0000*5B
$GPRMC,074552.80,A,2234.04177317,N,11431.91827607,E,1.207,304.9,061224,3.4,W,D*20
$GNVTG,303.887,T,307.325,M,1.25512,N,2.32449,K,D*35
$GNHDT,63.9743,T*27
$GPGGA,074553.00,2234.04181218,N,11431.91821352,E,4,24,0.7,-3.9016,M,-1.3421,M,01,0000*50
$GPRMC,074553.00,A,2234.04181218,N,11431.91821352,E,1.255,303.9,061224,3.4,W,D*2D
$GNVTG,304.326,T,307.764,M,1.24896,N,2.31307,K,D*3D
$GNHDT,63.3442,T*2F
$GPGGA,074553.20,2234.04185144,N,11431.91815161,E,4,24,0.7,-3.9052,M,-1.3421,M,01,0000*59
$GPRMC,074553.20,A,2234.04185144,N,11431.91815161,E,1.249,304.3,061224,3.4,W,D*24
$GNVTG,307.226,T,310.664,M,1.24071,N,2.29779,K,D*3D
$GNHDT,63.1418,T*22
$GPGGA,074553.40,2234.04189328,N,11431.91809231,E,4,24,0.7,-3.9003,M,-1.3421,M,01,0000*54
$GPRMC,074553.40,A,2234.04189328,N,11431.91809231,E,1.241,307.2,061224,3.4,W,D*27
$GNVTG,305.508,T,308.946,M,1.27511,N,2.36150,K,D*31
$GNHDT,62.7283,T*21
$GPGGA,074553.60,2234.04193457,N,11431.91803001,E,4,24,0.7,-3.9120,M,-1.3421,M,01,0000*59
$GPRMC,074553.60,A,2234.04193457,N,11431.91803001,E,1.275,305.5,061224,3.4,W,D*28
$GNVTG,303.813,T,307.251,M,1.20809,N,2.23738,K,D*3D
$GNHDT,62.1123,T*2E
$GPGGA,074553.80,2234.04197205,N,11431.91796976,E,4,24,0.7,-3.9359,M,-1.3421,M,00,0000*55
$GPRMC,074553.80,A,2234.04197205,N,11431.91796976,E,1.208,303.8,061224,3.4,W,D*28
$GNVTG,305.542,T,308.979,M,1.20813,N,2.23746,K,D*3E
$GNHDT,61.7031,T*29
$GPGGA,074554.00,2234.04201120,N,11431.91791075,E,4,24,0.7,-3.9364,M,-1.3421,M,01,0000*50
$GPRMC,074554.00,A,2234.04201120,N,11431.91791075,E,1.208,305.5,061224,3.4,W,D*29
$GNVTG,305.401,T,308.838,M,1.24297,N,2.30197,K,D*36
$GNHDT,61.4701,T*2E
$GPGGA,074554.20,2234.04205134,N,11431.91784993,E,4,24,0.7,-3.9168,M,-1.3421,M,01,0000*58
$GPRMC,074554.20,A,2234.04205134,N,11431.91784993,E,1.243,305.4,061224,3.4,W,D*21
$GNVTG,303.523,T,306.960,M,1.15096,N,2.13158,K,D*30
$GNHDT,60.5677,T*2E
$GPGGA,074554.40,2234.04208677,N,11431.91779234,E,4,24,0.7,-3.9073,M,-1.3421,M,01,0000*5C
$GPRMC,074554.40,A,2234.04208677,N,11431.91779234,E,1.151,303.5,061224,3.4,W,D*29
$GNVTG,306.118,T,309.556,M,1.26351,N,2.34003,K,D*3D
$GNHDT,60.1822,T*24
$GPGGA,074554.60,2234.04212829,N,11431.91773107,E,4,24,0.7,-3.9077,M,-1.3421,M,01,0000*5D
$GPRMC,074554.60,A,2234.04212829,N,11431.91773107,E,1.264,306.1,061224,3.4,W,D*28
$GNVTG,301.324,T,304.762,M,1.27190,N,2.35557,K,D*34
$GNHDT,59.5674,T*27
$GPGGA,074554.80,2234.04216515,N,11431.91766586,E,4,24,0.7,-3.9193,M,-1.3421,M,01,0000*57
$GPRMC,074554.80,A,2234.04216515,N,11431.91766586,E,1.272,301.3,061224,3.4,W,D*2B
$GNVTG,304.954,T,308.391,M,1.29758,N,2.40312,K,D*31
$GNHDT,59.1423,T*23
$GPGGA,074555.00,2234.04220660,N,11431.91760202,E,4,24,0.7,-3.9121,M,-1.3421,M,02,0000*5D
$GPRMC,074555.00,A,2234.04220660,N,11431.91760202,E,1.298,305.0,061224,3.4,W,D*28
$GNVTG,302.303,T,305.741,M,1.20456,N,2.23085,K,D*37
$GNHDT,58.4493,T*2C
$GPGGA,074555.20,2234.04224248,N,11431.91754091,E,4,24,0.7,-3.9250,M,-1.3421,M,02,0000*5F
$GPRMC,074555.20,A,2234.04224248,N,11431.91754091,E,1.205,302.3,061224,3.4,W,D*2F
$GNVTG,301.154,T,304.591,M,1.23916,N,2.29493,K,D*39
$GNHDT,57.8328,T*28
$GPGGA,074555.40,2234.04227822,N,11431.91747725,E,4,24,0.7,-3.9334,M,-1.3421,M,02,0000*55
$GPRMC,074555.40,A,2234.04227822,N,11431.91747725,E,1.239,301.2,061224,3.4,W,D*2B
$GNVTG,304.683,T,308.121,M,1.18864,N,2.20137,K,D*3C
$GNHDT,57.0363,T*2F
$GPGGA,074555.60,2234.04231593,N,11431.91741858,E,4,25,0.6,-3.9149,M,-1.3421,M,02,0000*5C
$GPRMC,074555.60,A,2234.04231593,N,11431.91741858,E,1.189,304.7,061224,3.4,W,D*22
$GNVTG,299.969,T,303.407,M,1.29732,N,2.40263,K,D*32
$GNHDT,56.3139,T*20
$GPGGA,074555.80,2234.04235205,N,11431.91735112,E,4,25,0.6,-3.9280,M,-1.3421,M,00,0000*5E
$GPRMC,074555.80,A,2234.04235205,N,11431.91735112,E,1.297,300.0,061224,3.4,W,D*2B
$GNVTG,306.261,T,309.699,M,1.20496,N,2.23159,K,D*32
$GNHDT,55.7787,T*24
$GPGGA,074556.00,2234.04239178,N,11431.91729280,E,4,25,0.6,-3.9135,M,-1.3422,M,01,0000*5A
$GPRMC,074556.00,A,2234.04239178,N,11431.91729280,E,1.205,306.3,061224,3.4,W,D*2E
$GNVTG,302.902,T,306.339,M,1.29774,N,2.40341,K,D*30
$GNHDT,55.0026,T*2F
$GPGGA,074556.20,2234.04243108,N,11431.91722740,E,4,25,0.6,-3.9234,M,-1.3422,M,01,0000*52
$GPRMC,074556.20,A,2234.04243108,N,11431.91722740,E,1.298,302.9,061224,3.4,W,D*2E
$GNVTG,302.263,T,305.701,M,1.30372,N,2.41448,K,D*35
$GNHDT,53.3696,T*27
$GPGGA,074556.40,2234.04246988,N,11431.91716123,E,4,21,0.7,-3.8762,M,-1.3422,M,01,0000*57
$GPRMC,074556.40,A,2234.04246988,N,11431.91716123,E,1.304,302.3,061224,3.4,W,D*27
$GNVTG,301.542,T,304.980,M,1.37321,N,2.54319,K,D*32
$GNHDT,54.1334,T*2F
$GPGGA,074556.60,2234.04250993,N,11431.91709098,E,4,21,0.7,-3.9195,M,-1.3422,M,01,0000*58
$GPRMC,074556.60,A,2234.04250993,N,11431.91709098,E,1.373,301.5,061224,3.4,W,D*22
$GNVTG,296.225,T,299.663,M,1.22722,N,2.27281,K,D*3B
$GNHDT,53.1663,T*2F
$GPGGA,074556.80,2234.04254016,N,11431.91702490,E,4,21,0.7,-3.9420,M,-1.3422,M,00,0000*5B
$GPRMC,074556.80,A,2234.04254016,N,11431.91702490,E,1.227,296.2,061224,3.4,W,D*23
$GNVTG,298.904,T,302.342,M,1.33889,N,2.47962,K,D*36
$GNHDT,52.3375,T*2E
$GPGGA,074557.00,2234.04257623,N,11431.91695454,E,4,21,0.7,-3.9311,M,-1.3422,M,01,0000*52
$GPRMC,074557.00,A,2234.04257623,N,11431.91695454,E,1.339,298.9,061224,3.4,W,D*25
$GNVTG,301.670,T,305.108,M,1.25775,N,2.32936,K,D*38
$GNHDT,52.8727,T*26
$GPGGA,074557.20,2234.04261305,N,11431.91689029,E,4,23,0.7,-3.9300,M,-1.3422,M,01,0000*55
$GPRMC,074557.20,A,2234.04261305,N,11431.91689029,E,1.258,301.7,061224,3.4,W,D*29
$GNVTG,295.947,T,299.385,M,1.29001,N,2.38909,K,D*32
$GNHDT,50.5827,T*26
$GPGGA,074557.40,2234.04264451,N,11431.91682066,E,4,23,0.7,-3.9290,M,-1.3422,M,01,0000*58
$GPRMC,074557.40,A,2234.04264451,N,11431.91682066,E,1.290,295.9,061224,3.4,W,D*2A
$GNVTG,301.515,T,304.953,M,1.29557,N,2.39939,K,D*35
$GNHDT,50.9485,T*2E
$GPGGA,074557.60,2234.04268227,N,11431.91675436,E,4,23,0.7,-3.9333,M,-1.3422,M,01,0000*50
$GPRMC,074557.60,A,2234.04268227,N,11431.91675436,E,1.296,301.5,061224,3.4,W,D*2C
$GNVTG,301.580,T,305.018,M,1.27993,N,2.37042,K,D*3F
$GNHDT,50.3141,T*29
$GPGGA,074557.80,2234.04271963,N,11431.91668891,E,4,22,0.7,-3.9311,M,-1.3422,M,00,0000*50
$GPRMC,074557.80,A,2234.04271963,N,11431.91668891,E,1.280,301.6,061224,3.4,W,D*28
$GNVTG,294.915,T,298.353,M,1.29018,N,2.38942,K,D*39
$GNHDT,49.5693,T*2F
$GPGGA,074558.00,2234.04274993,N,11431.91661868,E,4,22,0.7,-3.9439,M,-1.3422,M,01,0000*5E
$GPRMC,074558.00,A,2234.04274993,N,11431.91661868,E,1.290,294.9,061224,3.4,W,D*29
$GNVTG,298.528,T,301.966,M,1.29044,N,2.38990,K,D*3C
$GNHDT,48.9239,T*26
$GPGGA,074558.20,2234.04278429,N,11431.91655063,E,4,22,0.7,-3.9290,M,-1.3422,M,01,0000*5D
$GPRMC,074558.20,A,2234.04278429,N,11431.91655063,E,1.290,298.5,061224,3.4,W,D*2F
$GNVTG,292.291,T,295.728,M,1.24892,N,2.31300,K,D*3F
$GNHDT,47.9777,T*26
$GPGGA,074558.40,2234.04281070,N,11431.91648126,E,4,22,0.7,-3.9411,M,-1.3422,M,01,0000*56
$GPRMC,074558.40,A,2234.04281070,N,11431.91648126,E,1.249,292.3,061224,3.4,W,D*23
$GNVTG,296.695,T,300.133,M,1.33188,N,2.46664,K,D*39
$GNHDT,47.7640,T*2D
$GPGGA,074558.60,2234.04284405,N,11431.91640984,E,4,22,0.7,-3.9299,M,-1.3422,M,01,0000*59
$GPRMC,074558.60,A,2234.04284405,N,11431.91640984,E,1.332,296.7,061224,3.4,W,D*27
$GNVTG,295.081,T,298.519,M,1.30484,N,2.41656,K,D*39
$GNHDT,47.2505,T*2A
$GPGGA,074558.80,2234.04287489,N,11431.91633890,E,4,22,0.7,-3.9348,M,-1.3422,M,00,0000*5C
$GPRMC,074558.80,A,2234.04287489,N,11431.91633890,E,1.305,295.1,061224,3.4,W,D*2F
$GNVTG,291.694,T,295.132,M,1.28547,N,2.38069,K,D*3C
$GNHDT,46.4839,T*2F
$GPGGA,074559.00,2234.04290138,N,11431.91626720,E,4,22,0.7,-3.9318,M,-1.3422,M,01,0000*58
$GPRMC,074559.00,A,2234.04290138,N,11431.91626720,E,1.285,291.7,061224,3.4,W,D*24
$GNVTG,295.934,T,299.372,M,1.29461,N,2.39761,K,D*3D
$GNHDT,45.9811,T*2B
$GPGGA,074559.20,2234.04293294,N,11431.91619732,E,4,22,0.7,-3.9363,M,-1.3422,M,01,0000*5F
$GPRMC,074559.20,A,2234.04293294,N,11431.91619732,E,1.295,295.9,061224,3.4,W,D*24
$GNVTG,291.291,T,294.729,M,1.24690,N,2.30926,K,D*3F
$GNHDT,45.0724,T*2B
$GPGGA,074559.40,2234.04295818,N,11431.91612758,E,4,22,0.7,-3.9383,M,-1.3422,M,01,0000*58
$GPRMC,074559.40,A,2234.04295818,N,11431.91612758,E,1.247,291.3,061224,3.4,W,D*2C
$GNVTG,291.175,T,294.612,M,1.30306,N,2.41326,K,D*3C
$GNHDT,44.4386,T*22
$GPGGA,074559.60,2234.04298442,N,11431.91605465,E,4,23,0.7,-3.9489,M,-1.3422,M,01,0000*53
$GPRMC,074559.60,A,2234.04298442,N,11431.91605465,E,1.303,291.2,061224,3.4,W,D*2B
$GNVTG,292.807,T,296.245,M,1.30118,N,2.40979,K,D*3B
$GNHDT,43.8952,T*2A
$GPGGA,074559.80,2234.04301254,N,11431.91598265,E,4,22,0.7,-3.9486,M,-1.3422,M,00,0000*53
$GPRMC,074559.80,A,2234.04301254,N,11431.91598265,E,1.301,292.8,061224,3.4,W,D*2F
$GNVTG,293.514,T,296.952,M,1.25224,N,2.31914,K,D*3D
$GNHDT,42.9258,T*2B
$GPGGA,074600.00,2234.04304039,N,11431.91591373,E,4,22,0.7,-3.9395,M,-1.3422,M,01,0000*53
$GPRMC,074600.00,A,2234.04304039,N,11431.91591373,E,1.252,293.5,061224,3.4,W,D*20
$GNVTG,288.815,T,292.252,M,1.34641,N,2.49354,K,D*32
$GNHDT,42.4973,T*24
$GPGGA,074600.20,2234.04306460,N,11431.91583723,E,4,23,0.7,-3.9353,M,-1.3422,M,01,0000*52
$GPRMC,074600.20,A,2234.04306460,N,11431.91583723,E,1.346,288.8,061224,3.4,W,D*29
$GNVTG,292.315,T,295.753,M,1.33280,N,2.46834,K,D*3D
$GNHDT,41.7936,T*25
$GPGGA,074600.40,2234.04309281,N,11431.91576322,E,4,23,0.7,-3.9157,M,-1.3422,M,01,0000*5B
$GPRMC,074600.40,A,2234.04309281,N,11431.91576322,E,1.333,292.3,061224,3.4,W,D*24
$GNVTG,292.078,T,295.516,M,1.32222,N,2.44875,K,D*38
$GNHDT,41.2966,T*25
$GPGGA,074600.60,2234.04312051,N,11431.91568967,E,4,23,0.7,-3.9070,M,-1.3422,M,01,0000*5C
$GPRMC,074600.60,A,2234.04312051,N,11431.91568967,E,1.322,292.1,061224,3.4,W,D*25
$GNVTG,288.210,T,291.648,M,1.30512,N,2.41707,K,D*3A
$GNHDT,40.4586,T*20
$GPGGA,074600.80,2234.04314325,N,11431.91561526,E,4,23,0.7,-3.9057,M,-1.3422,M,01,0000*51
$GPRMC,074600.80,A,2234.04314325,N,11431.91561526,E,1.305,288.2,061224,3.4,W,D*20
$GNVTG,290.908,T,294.346,M,1.30495,N,2.41677,K,D*37
$GNHDT,39.7369,T*2A
$GPGGA,074601.00,2234.04316921,N,11431.91554209,E,4,23,0.7,-3.9180,M,-1.3422,M,02,0000*50
$GPRMC,074601.00,A,2234.04316921,N,11431.91554209,E,1.305,290.9,061224,3.4,W,D*2B
$GNVTG,290.473,T,293.911,M,1.39325,N,2.58030,K,D*31
$GNHDT,39.4177,T*24
$GPGGA,074601.20,2234.04319638,N,11431.91546374,E,4,23,0.7,-3.9499,M,-1.3423,M,02,0000*5E
$GPRMC,074601.20,A,2234.04319638,N,11431.91546374,E,1.393,290.5,061224,3.4,W,D*2A
$GNVTG,287.273,T,290.711,M,1.31464,N,2.43472,K,D*3E
$GNHDT,38.3154,T*23
$GPGGA,074601.40,2234.04321814,N,11431.91538839,E,4,23,0.7,-3.9379,M,-1.3423,M,02,0000*51
$GPRMC,074601.40,A,2234.04321814,N,11431.91538839,E,1.315,287.3,061224,3.4,W,D*22
$GNVTG,287.368,T,290.806,M,1.33681,N,2.47578,K,D*38
$GNHDT,37.8253,T*23
$GPGGA,074601.60,2234.04324038,N,11431.91531180,E,4,23,0.7,-3.9533,M,-1.3423,M,02,0000*5A
$GPRMC,074601.60,A,2234.04324038,N,11431.91531180,E,1.337,287.4,061224,3.4,W,D*26
$GNVTG,285.876,T,289.313,M,1.29570,N,2.39964,K,D*37
$GNHDT,36.9121,T*25
$GPGGA,074601.80,2234.04326014,N,11431.91523700,E,4,23,0.7,-3.9439,M,-1.3423,M,00,0000*5C
$GPRMC,074601.80,A,2234.04326014,N,11431.91523700,E,1.296,285.9,061224,3.4,W,D*2C
$GNVTG,288.543,T,291.980,M,1.38015,N,2.55603,K,D*3A
$GNHDT,36.4491,T*26
$GPGGA,074602.00,2234.04328461,N,11431.91515845,E,4,23,0.7,-3.9460,M,-1.3423,M,01,0000*59
$GPRMC,074602.00,A,2234.04328461,N,11431.91515845,E,1.380,288.5,061224,3.4,W,D*23
$GNVTG,287.005,T,290.443,M,1.34991,N,2.50004,K,D*3C
$GNHDT,35.9860,T*2A
$GPGGA,074602.20,2234.04330662,N,11431.91508097,E,4,23,0.7,-3.9536,M,-1.3423,M,01,0000*5A
$GPRMC,074602.20,A,2234.04330662,N,11431.91508097,E,1.350,287.0,061224,3.4,W,D*25
$GNVTG,283.313,T,286.750,M,1.32864,N,2.46065,K,D*37
$GNHDT,35.4953,T*26
$GPGGA,074602.40,2234.04332367,N,11431.91500336,E,4,23,0.7,-3.9329,M,-1.3423,M,01,0000*56
$GPRMC,074602.40,A,2234.04332367,N,11431.91500336,E,1.329,283.3,061224,3.4,W,D*28
$GNVTG,285.510,T,288.948,M,1.36165,N,2.52178,K,D*39
$GNHDT,34.7122,T*2A
$GPGGA,074602.60,2234.04334397,N,11431.91492460,E,4,23,0.7,-3.9247,M,-1.3423,M,01,0000*5A
$GPRMC,074602.60,A,2234.04334397,N,11431.91492460,E,1.362,285.5,061224,3.4,W,D*22
$GNVTG,285.093,T,288.531,M,1.35362,N,2.50690,K,D*30
$GNHDT,33.8892,T*20
$GPGGA,074602.80,2234.04336362,N,11431.91484615,E,4,22,0.7,-3.9453,M,-1.3423,M,00,0000*58
$GPRMC,074602.80,A,2234.04336362,N,11431.91484615,E,1.354,285.1,061224,3.4,W,D*22
$GNVTG,284.707,T,288.145,M,1.34105,N,2.48363,K,D*3E
$GNHDT,33.1461,T*29
$GPGGA,074603.00,2234.04338260,N,11431.91476829,E,4,22,0.7,-3.9467,M,-1.3423,M,01,0000*56
$GPRMC,074603.00,A,2234.04338260,N,11431.91476829,E,1.341,284.7,061224,3.4,W,D*29
$GNVTG,282.278,T,285.715,M,1.28692,N,2.38337,K,D*39
$GNHDT,32.5103,T*2D
$GPGGA,074603.20,2234.04339786,N,11431.91469281,E,4,22,0.7,-3.9488,M,-1.3423,M,01,0000*5F
$GPRMC,074603.20,A,2234.04339786,N,11431.91469281,E,1.287,282.3,061224,3.4,W,D*28
$GNVTG,280.938,T,284.375,M,1.30831,N,2.42299,K,D*31
$GNHDT,31.6609,T*20
$GPGGA,074603.40,2234.04341170,N,11431.91461571,E,4,22,0.7,-3.9598,M,-1.3423,M,01,0000*59
$GPRMC,074603.40,A,2234.04341170,N,11431.91461571,E,1.308,280.9,061224,3.4,W,D*20
$GNVTG,282.813,T,286.251,M,1.37687,N,2.54996,K,D*39
$GNHDT,31.3946,T*21
$GPGGA,074603.60,2234.04342872,N,11431.91453512,E,4,22,0.7,-3.9414,M,-1.3423,M,01,0000*52
$GPRMC,074603.60,A,2234.04342872,N,11431.91453512,E,1.377,282.8,061224,3.4,W,D*25
$GNVTG,279.750,T,283.188,M,1.30408,N,2.41515,K,D*36
$GNHDT,30.5430,T*2A
$GPGGA,074603.80,2234.04344103,N,11431.91445798,E,4,22,0.7,-3.9350,M,-1.3423,M,01,0000*55
$GPRMC,074603.80,A,2234.04344103,N,11431.91445798,E,1.304,279.8,061224,3.4,W,D*25
$GNVTG,282.538,T,285.975,M,1.34432,N,2.48968,K,D*30
$GNHDT,29.8250,T*2F
$GPGGA,074604.00,2234.04345730,N,11431.91437921,E,4,22,0.7,-3.9518,M,-1.3423,M,02,0000*5D
$GPRMC,074604.00,A,2234.04345730,N,11431.91437921,E,1.344,282.5,061224,3.4,W,D*29
$GNVTG,281.420,T,284.858,M,1.36454,N,2.52712,K,D*3E
$GNHDT,29.1906,T*2E
$GPGGA,074604.20,2234.04347236,N,11431.91429892,E,4,22,0.7,-3.9231,M,-1.3423,M,02,0000*54
$GPRMC,074604.20,A,2234.04347236,N,11431.91429892,E,1.365,281.4,061224,3.4,W,D*2D
$GNVTG,280.610,T,284.048,M,1.34080,N,2.48317,K,D*32
$GNHDT,28.7925,T*28
$GPGGA,074604.40,2234.04348612,N,11431.91421982,E,4,23,0.7,-3.9284,M,-1.3423,M,02,0000*58
$GPRMC,074604.40,A,2234.04348612,N,11431.91421982,E,1.341,280.6,061224,3.4,W,D*2B
$GNVTG,277.945,T,281.383,M,1.30471,N,2.41633,K,D*30
$GNHDT,27.8536,T*26
$GPGGA,074604.60,2234.04349618,N,11431.91414225,E,4,23,0.7,-3.9253,M,-1.3423,M,02,0000*5B
$GPRMC,074604.60,A,2234.04349618,N,11431.91414225,E,1.305,277.9,061224,3.4,W,D*25
$GNVTG,276.906,T,280.344,M,1.29815,N,2.40417,K,D*3F
$GNHDT,27.1634,T*2E
$GPGGA,074604.80,2234.04350488,N,11431.91406490,E,4,23,0.7,-3.9348,M,-1.3424,M,00,0000*53
$GPRMC,074604.80,A,2234.04350488,N,11431.91406490,E,1.298,276.9,061224,3.4,W,D*27
$GNVTG,276.016,T,279.453,M,1.25157,N,2.31790,K,D*39
$GNHDT,26.4729,T*27
$GPGGA,074605.00,2234.04351219,N,11431.91399019,E,4,23,0.7,-3.9482,M,-1.3424,M,01,0000*51
$GPRMC,074605.00,A,2234.04351219,N,11431.91399019,E,1.252,276.0,061224,3.4,W,D*2A
$GNVTG,275.874,T,279.311,M,1.21795,N,2.25564,K,D*37
$GNHDT,25.8750,T*26
$GPGGA,074605.20,2234.04351914,N,11431.91391746,E,4,23,0.7,-3.9324,M,-1.3424,M,01,0000*5B
$GPRMC,074605.20,A,2234.04351914,N,11431.91391746,E,1.218,275.9,061224,3.4,W,D*2F
$GNVTG,275.649,T,279.087,M,1.10179,N,2.04052,K,D*3E
$GNHDT,25.4473,T*28
$GPGGA,074605.40,2234.04352519,N,11431.91385165,E,4,23,0.7,-3.9104,M,-1.3424,M,01,0000*5D
$GPRMC,074605.40,A,2234.04352519,N,11431.91385165,E,1.102,275.6,061224,3.4,W,D*2E
$GNVTG,274.977,T,278.414,M,1.15200,N,2.13351,K,D*3C
$GNHDT,24.6282,T*23
$GPGGA,074605.60,2234.04353076,N,11431.91378276,E,4,24,0.7,-3.8917,M,-1.3424,M,01,0000*5D
$GPRMC,074605.60,A,2234.04353076,N,11431.91378276,E,1.152,275.0,061224,3.4,W,D*21
$GNVTG,274.135,T,277.573,M,1.28898,N,2.38720,K,D*33
$GNHDT,24.6720,T*2E
$GPGGA,074605.80,2234.04353594,N,11431.91370559,E,4,24,0.7,-3.8982,M,-1.3424,M,01,0000*54
$GPRMC,074605.80,A,2234.04353594,N,11431.91370559,E,1.289,274.1,061224,3.4,W,D*21
$GNVTG,272.519,T,275.957,M,1.20299,N,2.22793,K,D*37
$GNHDT,24.3187,T*20
$GPGGA,074606.00,2234.04353889,N,11431.91363345,E,4,24,0.7,-3.9002,M,-1.3424,M,02,0000*54
$GPRMC,074606.00,A,2234.04353889,N,11431.91363345,E,1.203,272.5,061224,3.4,W,D*22
$GNVTG,273.922,T,277.360,M,1.13561,N,2.10315,K,D*35
$GNHDT,24.0324,T*28
$GPGGA,074606.20,2234.04354322,N,11431.91356545,E,4,24,0.7,-3.8972,M,-1.3424,M,02,0000*54
$GPRMC,074606.20,A,2234.04354322,N,11431.91356545,E,1.136,273.9,061224,3.4,W,D*25
$GNVTG,271.734,T,275.171,M,1.15048,N,2.13069,K,D*3D
$GNHDT,23.5446,T*29
$GPGGA,074606.40,2234.04354516,N,11431.91349642,E,4,24,0.7,-3.9145,M,-1.3424,M,02,0000*54
$GPRMC,074606.40,A,2234.04354516,N,11431.91349642,E,1.150,271.7,061224,3.4,W,D*24
$GNVTG,272.933,T,276.371,M,1.12252,N,2.07890,K,D*33
$GNHDT,23.3364,T*28
$GPGGA,074606.60,2234.04354836,N,11431.91342913,E,4,24,0.7,-3.9231,M,-1.3424,M,02,0000*59
$GPRMC,074606.60,A,2234.04354836,N,11431.91342913,E,1.123,272.9,061224,3.4,W,D*20
$GNVTG,273.426,T,276.864,M,1.08319,N,2.00606,K,D*37
$GNHDT,23.0080,T*22
$GPGGA,074606.80,2234.04355197,N,11431.91336423,E,4,24,0.7,-3.9245,M,-1.3424,M,00,0000*58
$GPRMC,074606.80,A,2234.04355197,N,11431.91336423,E,1.083,273.4,061224,3.4,W,D*27
$GNVTG,269.440,T,272.877,M,1.11356,N,2.06231,K,D*3F
$GNHDT,22.7112,T*2E
$GPGGA,074607.00,2234.04355136,N,11431.91329739,E,4,24,0.7,-3.9283,M,-1.3424,M,01,0000*57
$GPRMC,074607.00,A,2234.04355136,N,11431.91329739,E,1.114,269.4,061224,3.4,W,D*27
$GNVTG,272.958,T,276.395,M,1.09446,N,2.02693,K,D*35
$GNHDT,22.5058,T*23
$GPGGA,074607.20,2234.04355451,N,11431.91323178,E,4,23,0.7,-3.9046,M,-1.3424,M,01,0000*54
$GPRMC,074607.20,A,2234.04355451,N,11431.91323178,E,1.094,273.0,061224,3.4,W,D*2E
$GNVTG,272.240,T,275.678,M,1.08622,N,2.01167,K,D*3C
$GNHDT,22.2299,T*2B
$GPGGA,074607.40,2234.04355688,N,11431.91316663,E,4,24,0.7,-3.8937,M,-1.3424,M,01,0000*56
$GPRMC,074607.40,A,2234.04355688,N,11431.91316663,E,1.086,272.2,061224,3.4,W,D*25
$GNVTG,269.572,T,273.010,M,1.02131,N,1.89147,K,D*30
$GNHDT,22.0090,T*22
$GPGGA,074607.60,2234.04355645,N,11431.91310533,E,4,24,0.7,-3.9126,M,-1.3424,M,01,0000*5C
$GPRMC,074607.60,A,2234.04355645,N,11431.91310533,E,1.021,269.6,061224,3.4,W,D*25
$GNVTG,272.043,T,275.481,M,0.97593,N,1.80743,K,D*3D
$GNHDT,21.0240,T*2E
$GPGGA,074607.80,2234.04355839,N,11431.91304679,E,4,24,0.7,-3.9118,M,-1.3424,M,00,0000*53
$GPRMC,074607.80,A,2234.04355839,N,11431.91304679,E,0.976,272.0,061224,3.4,W,D*20
$GNVTG,271.089,T,274.527,M,1.02581,N,1.89980,K,D*32
$GNHDT,20.9568,T*2B
$GPGGA,074608.00,2234.04355948,N,11431.91298523,E,4,23,0.7,-3.9162,M,-1.3424,M,01,0000*50
$GPRMC,074608.00,A,2234.04355948,N,11431.91298523,E,1.026,271.1,061224,3.4,W,D*27
$GNVTG,270.386,T,273.824,M,1.02529,N,1.89885,K,D*30
$GNHDT,20.7831,T*24
$GPGGA,074608.20,2234.04355986,N,11431.91292368,E,4,24,0.7,-3.9267,M,-1.3424,M,01,0000*52
$GPRMC,074608.20,A,2234.04355986,N,11431.91292368,E,1.025,270.4,061224,3.4,W,D*23
$GNVTG,271.947,T,275.385,M,0.97372,N,1.80334,K,D*3D
$GNHDT,20.2958,T*2F
$GPGGA,074608.40,2234.04356171,N,11431.91286527,E,4,24,0.7,-3.8953,M,-1.3424,M,01,0000*52
$GPRMC,074608.40,A,2234.04356171,N,11431.91286527,E,0.974,271.9,061224,3.4,W,D*2E
$GNVTG,274.132,T,277.569,M,1.05186,N,1.94805,K,D*3B
$GNHDT,20.6796,T*27
$GPGGA,074608.60,2234.04356593,N,11431.91280230,E,4,24,0.7,-3.9052,M,-1.3424,M,01,0000*56
$GPRMC,074608.60,A,2234.04356593,N,11431.91280230,E,1.052,274.1,061224,3.4,W,D*22
$GNVTG,270.002,T,273.440,M,0.93439,N,1.73049,K,D*35
$GNHDT,20.1315,T*2F
$GPGGA,074608.80,2234.04356593,N,11431.91274621,E,4,24,0.7,-3.9034,M,-1.3424,M,01,0000*57
$GPRMC,074608.80,A,2234.04356593,N,11431.91274621,E,0.934,270.0,061224,3.4,W,D*2E
$GNVTG,271.067,T,274.505,M,0.94560,N,1.75126,K,D*34
$GNHDT,19.9773,T*29
$GPGGA,074609.00,2234.04356691,N,11431.91268946,E,4,24,0.7,-3.9046,M,-1.3424,M,02,0000*5A
$GPRMC,074609.00,A,2234.04356691,N,11431.91268946,E,0.946,271.1,061224,3.4,W,D*20
$GNVTG,267.064,T,270.501,M,0.92917,N,1.72082,K,D*32
$GNHDT,19.4159,T*2A
$GPGGA,074609.20,2234.04356426,N,11431.91263376,E,4,24,0.7,-3.9182,M,-1.3424,M,02,0000*5D
$GPRMC,074609.20,A,2234.04356426,N,11431.91263376,E,0.929,267.1,061224,3.4,W,D*20
$GNVTG,271.817,T,275.255,M,0.85993,N,1.59258,K,D*3C
$GNHDT,19.1583,T*2C
$GPGGA,074609.40,2234.04356578,N,11431.91258217,E,4,24,0.7,-3.9113,M,-1.3424,M,02,0000*57
$GPRMC,074609.40,A,2234.04356578,N,11431.91258217,E,0.860,271.8,061224,3.4,W,D*20
$GNVTG,269.537,T,272.975,M,0.91076,N,1.68672,K,D*3D
$GNHDT,18.8574,T*2C
$GPGGA,074609.60,2234.04356537,N,11431.91252750,E,4,24,0.7,-3.9114,M,-1.3424,M,02,0000*55
$GPRMC,074609.60,A,2234.04356537,N,11431.91252750,E,0.911,269.5,061224,3.4,W,D*26
$GNVTG,276.643,T,280.080,M,0.84697,N,1.56859,K,D*3A
$GNHDT,18.4803,T*2D
$GPGGA,074609.80,2234.04357083,N,11431.91247700,E,4,23,0.7,-3.9008,M,-1.3424,M,00,0000*58
$GPRMC,074609.80,A,2234.04357083,N,11431.91247700,E,0.847,276.6,061224,3.4,W,D*2D
$GNVTG,269.870,T,273.308,M,0.80770,N,1.49586,K,D*38
$GNHDT,18.0120,T*21
$GPGGA,074610.00,2234.04357073,N,11431.91242852,E,4,23,0.7,-3.9039,M,-1.3424,M,01,0000*59
$GPRMC,074610.00,A,2234.04357073,N,11431.91242852,E,0.808,269.9,061224,3.4,W,D*25
$GNVTG,273.558,T,276.995,M,0.91423,N,1.69315,K,D*34
$GNHDT,17.9179,T*2B
$GPGGA,074610.20,2234.04357389,N,11431.91237375,E,4,23,0.7,-3.9162,M,-1.3424,M,01,0000*5E
$GPRMC,074610.20,A,2234.04357389,N,11431.91237375,E,0.914,273.6,061224,3.4,W,D*25
$GNVTG,272.239,T,275.677,M,0.80223,N,1.48573,K,D*36
$GNHDT,17.3793,T*23
$GPGGA,074610.40,2234.04357564,N,11431.91232563,E,4,23,0.7,-3.9320,M,-1.3424,M,01,0000*5D
$GPRMC,074610.40,A,2234.04357564,N,11431.91232563,E,0.802,272.2,061224,3.4,W,D*21
$GNVTG,269.894,T,273.331,M,0.76060,N,1.40863,K,D*38
$GNHDT,16.8895,T*20
$GPGGA,074610.60,2234.04357556,N,11431.91227998,E,4,23,0.7,-3.9032,M,-1.3425,M,01,0000*53
$GPRMC,074610.60,A,2234.04357556,N,11431.91227998,E,0.761,269.9,061224,3.4,W,D*25
$GNVTG,268.605,T,272.043,M,0.74276,N,1.37560,K,D*31
$GNHDT,16.5288,T*2B
$GPGGA,074610.80,2234.04357455,N,11431.91223541,E,4,23,0.7,-3.9256,M,-1.3425,M,00,0000*52
$GPRMC,074610.80,A,2234.04357455,N,11431.91223541,E,0.743,268.6,061224,3.4,W,D*2B
$GNVTG,271.531,T,274.969,M,0.82943,N,1.53611,K,D*39
$GNHDT,16.7648,T*21
$GPGGA,074611.00,2234.04357579,N,11431.91218564,E,4,23,0.7,-3.9145,M,-1.3425,M,01,0000*5B
$GPRMC,074611.00,A,2234.04357579,N,11431.91218564,E,0.829,271.5,061224,3.4,W,D*2A
$GNVTG,270.833,T,274.270,M,0.70921,N,1.31346,K,D*3E
$GNHDT,16.2647,T*2B
$GPGGA,074611.20,2234.04357636,N,11431.91214307,E,4,24,0.7,-3.9169,M,-1.3425,M,01,0000*57
$GPRMC,074611.20,A,2234.04357636,N,11431.91214307,E,0.709,270.8,061224,3.4,W,D*2E
$GNVTG,262.181,T,265.619,M,0.73865,N,1.36798,K,D*34
$GNHDT,16.4464,T*2E
$GPGGA,074611.40,2234.04357076,N,11431.91209915,E,4,24,0.7,-3.9102,M,-1.3425,M,01,0000*5B
$GPRMC,074611.40,A,2234.04357076,N,11431.91209915,E,0.739,262.2,061224,3.4,W,D*25
$GNVTG,267.281,T,270.718,M,0.75743,N,1.40276,K,D*3F
$GNHDT,16.2606,T*2E
$GPGGA,074611.60,2234.04356876,N,11431.91205374,E,4,23,0.7,-3.9143,M,-1.3425,M,01,0000*53
$GPRMC,074611.60,A,2234.04356876,N,11431.91205374,E,0.757,267.3,061224,3.4,W,D*23
$GNVTG,274.142,T,277.579,M,0.71798,N,1.32970,K,D*39
$GNHDT,15.9249,T*29
$GPGGA,074611.80,2234.04357165,N,11431.91201075,E,4,23,0.7,-3.9241,M,-1.3425,M,00,0000*51
$GPRMC,074611.80,A,2234.04357165,N,11431.91201075,E,0.718,274.1,061224,3.4,W,D*2A
$GNVTG,259.784,T,263.222,M,0.68306,N,1.26503,K,D*30
$GNHDT,15.4760,T*2A
$GPGGA,074612.00,2234.04356490,N,11431.91197040,E,4,24,0.7,-3.9149,M,-1.3425,M,01,0000*53
$GPRMC,074612.00,A,2234.04356490,N,11431.91197040,E,0.683,259.8,061224,3.4,W,D*20
$GNVTG,276.491,T,279.928,M,0.54167,N,1.00318,K,D*32
$GNHDT,14.6900,T*21
$GPGGA,074612.20,2234.04356831,N,11431.91193809,E,4,24,0.7,-3.9340,M,-1.3425,M,01,0000*5C
$GPRMC,074612.20,A,2234.04356831,N,11431.91193809,E,0.542,276.5,061224,3.4,W,D*2A
$GNVTG,291.909,T,295.347,M,0.30443,N,0.56380,K,D*34
$GNHDT,13.3821,T*21
$GPGGA,074612.40,2234.04357464,N,11431.91192114,E,4,24,0.7,-3.9294,M,-1.3425,M,01,0000*5B
$GPRMC,074612.40,A,2234.04357464,N,11431.91192114,E,0.304,291.9,061224,3.4,W,D*24
$GNVTG,280.444,T,283.881,M,0.17621,N,0.32635,K,D*3C
$GNHDT,12.0944,T*21
$GPGGA,074612.60,2234.04357642,N,11431.91191074,E,4,24,0.7,-3.9298,M,-1.3425,M,01,0000*57
$GPRMC,074612.60,A,2234.04357642,N,11431.91191074,E,0.176,280.4,061224,3.4,W,D*2E
$GNVTG,302.148,T,305.586,M,0.17657,N,0.32701,K,D*3C
$GNHDT,11.1823,T*23
$GPGGA,074612.80,2234.04358166,N,11431.91190177,E,4,25,0.6,-3.9176,M,-1.3425,M,01,0000*57
$GPRMC,074612.80,A,2234.04358166,N,11431.91190177,E,0.177,302.1,061224,3.4,W,D*22
$GNVTG,353.544,T,356.981,M,0.10129,N,0.18759,K,D*31
$GNHDT,10.4584,T*27
$GPGGA,074613.00,2234.04358727,N,11431.91190108,E,4,25,0.6,-3.9036,M,-1.3425,M,02,0000*53
$GPRMC,074613.00,A,2234.04358727,N,11431.91190108,E,0.101,353.5,061224,3.4,W,D*21
$GNVTG,349.165,T,352.603,M,0.06478,N,0.11997,K,D*3F
$GNHDT,9.8473,T*1A
$GPGGA,074613.20,2234.04359082,N,11431.91190035,E,4,25,0.6,-3.9037,M,-1.3425,M,02,0000*56
$GPRMC,074613.20,A,2234.04359082,N,11431.91190035,E,0.065,349.2,061224,3.4,W,D*2A
$GNVTG,150.346,T,153.784,M,0.05897,N,0.10921,K,D*39
$GNHDT,9.2135,T*17
$GPGGA,074613.40,2234.04358796,N,11431.91190210,E,4,25,0.6,-3.9112,M,-1.3425,M,02,0000*50
$GPRMC,074613.40,A,2234.04358796,N,11431.91190210,E,0.059,150.3,061224,3.4,W,D*2E
$GNVTG,255.617,T,259.054,M,0.03406,N,0.06308,K,D*39
$GNHDT,8.6381,T*1F
$GPGGA,074613.60,2234.04358749,N,11431.91190012,E,4,25,0.6,-3.9123,M,-1.3425,M,02,0000*52
$GPRMC,074613.60,A,2234.04358749,N,11431.91190012,E,0.034,255.6,061224,3.4,W,D*26
$GNVTG,41.955,T,45.393,M,0.03698,N,0.06848,K,D*3A
$GNHDT,8.1474,T*15
$GPGGA,074613.80,2234.04358902,N,11431.91190161,E,4,25,0.6,-3.9157,M,-1.3425,M,00,0000*59
$GPRMC,074613.80,A,2234.04358902,N,11431.91190161,E,0.037,42.0,061224,3.4,W,D*1D
$GNVTG,341.686,T,345.124,M,0.06844,N,0.12674,K,D*3B
$GNHDT,7.6816,T*15
$GPGGA,074614.00,2234.04359265,N,11431.91190032,E,4,25,0.6,-3.9168,M,-1.3425,M,01,0000*57
$GPRMC,074614.00,A,2234.04359265,N,11431.91190032,E,0.068,341.7,061224,3.4,W,D*23
$GNVTG,114.904,T,118.342,M,0.07548,N,0.13979,K,D*37
$GNHDT,6.9547,T*12
$GPGGA,074614.20,2234.04359087,N,11431.91190442,E,4,25,0.6,-3.9214,M,-1.3425,M,01,0000*50
$GPRMC,074614.20,A,2234.04359087,N,11431.91190442,E,0.075,114.9,061224,3.4,W,D*2C
$GNVTG,4.992,T,8.429,M,0.04177,N,0.07735,K,D*3A
$GNHDT,6.6707,T*1B
$GPGGA,074614.40,2234.04359319,N,11431.91190464,E,4,25,0.6,-3.9116,M,-1.3425,M,01,0000*57
$GPRMC,074614.40,A,2234.04359319,N,11431.91190464,E,0.042,5.0,061224,3.4,W,D*26
$GNVTG,67.230,T,70.668,M,0.09935,N,0.18400,K,D*3C
$GNHDT,5.8170,T*10
$GPGGA,074614.60,2234.04359534,N,11431.91191014,E,4,25,0.6,-3.9051,M,-1.3425,M,01,0000*5C
$GPRMC,074614.60,A,2234.04359534,N,11431.91191014,E,0.099,67.2,061224,3.4,W,D*1F
$GNVTG,11.877,T,15.314,M,0.12477,N,0.23107,K,D*32
$GNHDT,5.2074,T*1F
$GPGGA,074614.80,2234.04360214,N,11431.91191168,E,4,25,0.6,-3.9145,M,-1.3425,M,00,0000*52
$GPRMC,074614.80,A,2234.04360214,N,11431.91191168,E,0.125,11.9,061224,3.4,W,D*18
$GNVTG,74.963,T,78.401,M,0.14535,N,0.26918,K,D*3F
$GNHDT,4.3400,T*18
$GPGGA,074615.00,2234.04360425,N,11431.91192011,E,4,25,0.6,-3.9124,M,-1.3425,M,01,0000*55
$GPRMC,074615.00,A,2234.04360425,N,11431.91192011,E,0.145,75.0,061224,3.4,W,D*14
$GNVTG,78.986,T,82.424,M,0.19199,N,0.35557,K,D*30
$GNHDT,3.2194,T*16
$GPGGA,074615.20,2234.04360629,N,11431.91193142,E,4,25,0.6,-3.9215,M,-1.3425,M,01,0000*5E
$GPRMC,074615.20,A,2234.04360629,N,11431.91193142,E,0.192,79.0,061224,3.4,W,D*18
$GNVTG,40.498,T,43.936,M,0.20070,N,0.37169,K,D*3D
$GNHDT,2.4442,T*1F
$GPGGA,074615.40,2234.04361480,N,11431.91193924,E,4,25,0.6,-3.9297,M,-1.3425,M,01,0000*5A
$GPRMC,074615.40,A,2234.04361480,N,11431.91193924,E,0.201,40.5,061224,3.4,W,D*10
$GNVTG,103.395,T,106.833,M,0.13973,N,0.25878,K,D*35
$GNHDT,1.8916,T*1C
$GPGGA,074615.60,2234.04361299,N,11431.91194740,E,4,25,0.6,-3.9225,M,-1.3425,M,01,0000*54
$GPRMC,074615.60,A,2234.04361299,N,11431.91194740,E,0.140,103.4,061224,3.4,W,D*26
$GNVTG,70.846,T,74.284,M,0.23696,N,0.43885,K,D*32
$GNHDT,0.9999,T*1B
$GPGGA,074615.80,2234.04361733,N,11431.91196084,E,4,25,0.6,-3.9276,M,-1.3425,M,00,0000*55
$GPRMC,074615.80,A,2234.04361733,N,11431.91196084,E,0.237,70.8,061224,3.4,W,D*1A
$GNVTG,76.568,T,80.006,M,0.18422,N,0.34118,K,D*3E
$GNHDT,0.3597,T*13
$GPGGA,074616.00,2234.04361971,N,11431.91197160,E,4,25,0.6,-3.9241,M,-1.3425,M,01,0000*59
$GPRMC,074616.00,A,2234.04361971,N,11431.91197160,E,0.184,76.6,061224,3.4,W,D*10
$GNVTG,74.534,T,77.972,M,0.17375,N,0.32179,K,D*3C
$GNHDT,359.8264,T*1C
$GPGGA,074616.20,2234.04362230,N,11431.91198165,E,4,25,0.6,-3.9097,M,-1.3425,M,01,0000*55
$GPRMC,074616.20,A,2234.04362230,N,11431.91198165,E,0.174,74.5,061224,3.4,W,D*1B
$GNVTG,76.065,T,79.503,M,0.25723,N,0.47639,K,D*3C
$GNHDT,358.7668,T*1A
$GPGGA,074616.40,2234.04362575,N,11431.91199663,E,4,25,0.6,-3.9153,M,-1.3425,M,01,0000*5C
$GPRMC,074616.40,A,2234.04362575,N,11431.91199663,E,0.257,76.1,061224,3.4,W,D*1F
$GNVTG,77.329,T,80.767,M,0.25637,N,0.47479,K,D*32
$GNHDT,358.0065,T*16
$GPGGA,074616.60,2234.04362888,N,11431.91201165,E,4,25,0.6,-3.9227,M,-1.3425,M,01,0000*52
$GPRMC,074616.60,A,2234.04362888,N,11431.91201165,E,0.256,77.3,061224,3.4,W,D*13
$GNVTG,82.793,T,86.231,M,0.27114,N,0.50215,K,D*33
$GNHDT,357.3678,T*10
$GPGGA,074616.80,2234.04363078,N,11431.91202779,E,4,25,0.6,-3.9227,M,-1.3425,M,00,0000*53
$GPRMC,074616.80,A,2234.04363078,N,11431.91202779,E,0.271,82.8,061224,3.4,W,D*17
$GNVTG,78.030,T,81.467,M,0.27516,N,0.50959,K,D*3F
$GNHDT,356.4417,T*1D
$GPGGA,074617.00,2234.04363396,N,11431.91204395,E,4,25,0.6,-3.9330,M,-1.3425,M,01,0000*5F
$GPRMC,074617.00,A,2234.04363396,N,11431.91204395,E,0.275,78.0,061224,3.4,W,D*14
$GNVTG,70.409,T,73.847,M,0.34420,N,0.63747,K,D*3D
$GNHDT,355.5458,T*14
$GPGGA,074617.20,2234.04364040,N,11431.91206341,E,4,25,0.6,-3.9381,M,-1.3425,M,01,0000*53
$GPRMC,074617.20,A,2234.04364040,N,11431.91206341,E,0.344,70.4,061224,3.4,W,D*1D
$GNVTG,92.935,T,96.373,M,0.28820,N,0.53375,K,D*33
$GNHDT,354.8106,T*16
$GPGGA,074617.40,2234.04363957,N,11431.91208069,E,4,25,0.6,-3.9401,M,-1.3425,M,01,0000*55
$GPRMC,074617.40,A,2234.04363957,N,11431.91208069,E,0.288,92.9,061224,3.4,W,D*14
$GNVTG,86.141,T,89.579,M,0.35423,N,0.65603,K,D*3D
$GNHDT,353.8892,T*15
$GPGGA,074617.60,2234.04364090,N,11431.91210191,E,4,25,0.6,-3.9388,M,-1.3425,M,01,0000*5B
$GPRMC,074617.60,A,2234.04364090,N,11431.91210191,E,0.354,86.1,061224,3.4,W,D*11
$GNVTG,64.000,T,67.438,M,0.32587,N,0.60351,K,D*3E
$GNHDT,353.1091,T*17
$GPGGA,074617.80,2234.04364887,N,11431.91211949,E,4,25,0.6,-3.9267,M,-1.3425,M,00,0000*56
$GPRMC,074617.80,A,2234.04364887,N,11431.91211949,E,0.326,64.0,061224,3.4,W,D*15
$GNVTG,74.925,T,78.363,M,0.38349,N,0.71022,K,D*3F
$GNHDT,352.0761,T*1F
$GPGGA,074618.00,2234.04365443,N,11431.91214171,E,4,25,0.6,-3.9361,M,-1.3425,M,01,0000*54
$GPRMC,074618.00,A,2234.04365443,N,11431.91214171,E,0.383,74.9,061224,3.4,W,D*16
$GNVTG,69.466,T,72.904,M,0.37780,N,0.69969,K,D*39
$GNHDT,350.9871,T*1A
$GPGGA,074618.20,2234.04366181,N,11431.91216295,E,4,25,0.6,-3.9368,M,-1.3425,M,01,0000*5C
$GPRMC,074618.20,A,2234.04366181,N,11431.91216295,E,0.378,69.5,061224,3.4,W,D*13
$GNVTG,70.467,T,73.905,M,0.39664,N,0.73458,K,D*31
$GNHDT,350.1837,T*10
$GPGGA,074618.40,2234.04366921,N,11431.91218539,E,4,25,0.6,-3.9354,M,-1.3425,M,01,0000*58
$GPRMC,074618.40,A,2234.04366921,N,11431.91218539,E,0.397,70.5,061224,3.4,W,D*11
$GNVTG,76.769,T,80.206,M,0.45477,N,0.84224,K,D*30
$GNHDT,348.9321,T*1D
$GPGGA,074618.60,2234.04367501,N,11431.91221196,E,4,24,0.7,-3.9369,M,-1.3425,M,01,0000*50
$GPRMC,074618.60,A,2234.04367501,N,11431.91221196,E,0.455,76.8,061224,3.4,W,D*15
$GNVTG,72.442,T,75.880,M,0.38410,N,0.71136,K,D*31
$GNHDT,348.3016,T*10
$GPGGA,074618.80,2234.04368147,N,11431.91223394,E,4,24,0.7,-3.9250,M,-1.3425,M,00,0000*5F
$GPRMC,074618.80,A,2234.04368147,N,11431.91223394,E,0.384,72.4,061224,3.4,W,D*13
$GNVTG,74.894,T,78.332,M,0.47796,N,0.88519,K,D*35
$GNHDT,347.3236,T*1F
$GPGGA,074619.00,2234.04368841,N,11431.91226164,E,4,24,0.7,-3.9309,M,-1.3425,M,01,0000*5D
$GPRMC,074619.00,A,2234.04368841,N,11431.91226164,E,0.478,74.9,061224,3.4,W,D*12
$GNVTG,68.662,T,72.100,M,0.46333,N,0.85809,K,D*3D
$GNHDT,346.2663,T*1B
$GPGGA,074619.20,2234.04369781,N,11431.91228755,E,4,24,0.7,-3.9387,M,-1.3425,M,01,0000*51
$GPRMC,074619.20,A,2234.04369781,N,11431.91228755,E,0.463,68.7,061224,3.4,W,D*11
$GNVTG,66.014,T,69.452,M,0.47346,N,0.87685,K,D*37
$GNHDT,345.4769,T*15
$GPGGA,074619.40,2234.04370854,N,11431.91231351,E,4,24,0.7,-3.9323,M,-1.3425,M,01,0000*5E
$GPRMC,074619.40,A,2234.04370854,N,11431.91231351,E,0.473,66.0,061224,3.4,W,D*18
$GNVTG,72.064,T,75.502,M,0.46829,N,0.86728,K,D*38
$GNHDT,344.3534,T*19
$GPGGA,074619.60,2234.04371658,N,11431.91234025,E,4,24,0.7,-3.9431,M,-1.3425,M,01,0000*5E
$GPRMC,074619.60,A,2234.04371658,N,11431.91234025,E,0.468,72.1,061224,3.4,W,D*12
$GNVTG,63.872,T,67.310,M,0.44809,N,0.82986,K,D*3F
$GNHDT,343.4523,T*1F
$GPGGA,074619.80,2234.04372758,N,11431.91236440,E,4,24,0.7,-3.9273,M,-1.3425,M,00,0000*56
$GPRMC,074619.80,A,2234.04372758,N,11431.91236440,E,0.448,63.9,061224,3.4,W,D*11
$GNVTG,58.796,T,62.234,M,0.55086,N,1.02020,K,D*33
$GNHDT,342.4662,T*18
$GPGGA,074620.00,2234.04374349,N,11431.91239268,E,4,24,0.7,-3.9232,M,-1.3425,M,01,0000*51
$GPRMC,074620.00,A,2234.04374349,N,11431.91239268,E,0.551,58.8,061224,3.4,W,D*12
$GNVTG,65.893,T,69.331,M,0.50292,N,0.93141,K,D*35
$GNHDT,341.7109,T*12
$GPGGA,074620.20,2234.04375494,N,11431.91242024,E,4,24,0.7,-3.9202,M,-1.3425,M,01,0000*50
$GPRMC,074620.20,A,2234.04375494,N,11431.91242024,E,0.503,65.9,061224,3.4,W,D*18
$GNVTG,72.241,T,75.679,M,0.52185,N,0.96647,K,D*31
$GNHDT,340.5716,T*19
$GPGGA,074620.40,2234.04376382,N,11431.91245007,E,4,24,0.7,-3.9155,M,-1.3425,M,01,0000*52
$GPRMC,074620.40,A,2234.04376382,N,11431.91245007,E,0.522,72.2,061224,3.4,W,D*15
$GNVTG,66.764,T,70.201,M,0.47795,N,0.88517,K,D*32
$GNHDT,339.9525,T*19
$GPGGA,074620.60,2234.04377433,N,11431.91247643,E,4,24,0.7,-3.9288,M,-1.3425,M,01,0000*5B
$GPRMC,074620.60,A,2234.04377433,N,11431.91247643,E,0.478,66.8,061224,3.4,W,D*1E
$GNVTG,54.710,T,58.148,M,0.62122,N,1.15050,K,D*3A
$GNHDT,338.2925,T*1F
$GPGGA,074620.80,2234.04379433,N,11431.91250687,E,4,24,0.7,-3.9329,M,-1.3425,M,00,0000*5E
$GPRMC,074620.80,A,2234.04379433,N,11431.91250687,E,0.621,54.7,061224,3.4,W,D*10
$GNVTG,61.543,T,64.980,M,0.51911,N,0.96139,K,D*37
$GNHDT,337.2934,T*10
$GPGGA,074621.00,2234.04380812,N,11431.91253426,E,4,24,0.7,-3.9401,M,-1.3425,M,01,0000*58
$GPRMC,074621.00,A,2234.04380812,N,11431.91253426,E,0.519,61.5,061224,3.4,W,D*16
$GNVTG,52.993,T,56.431,M,0.65026,N,1.20428,K,D*33
$GNHDT,335.8297,T*1A
$GPGGA,074621.20,2234.04382994,N,11431.91256543,E,4,24,0.7,-3.9363,M,-1.3425,M,01,0000*53
$GPRMC,074621.20,A,2234.04382994,N,11431.91256543,E,0.650,53.0,061224,3.4,W,D*14
$GNVTG,56.678,T,60.116,M,0.64434,N,1.19333,K,D*39
$GNHDT,335.1052,T*18
$GPGGA,074621.40,2234.04384968,N,11431.91259775,E,4,24,0.7,-3.9205,M,-1.3425,M,01,0000*59
$GPRMC,074621.40,A,2234.04384968,N,11431.91259775,E,0.644,56.7,061224,3.4,W,D*18
$GNVTG,58.024,T,61.462,M,0.54422,N,1.00790,K,D*3E
$GNHDT,334.2144,T*1C
$GPGGA,074621.60,2234.04386574,N,11431.91262546,E,4,24,0.7,-3.9341,M,-1.3425,M,01,0000*53
$GPRMC,074621.60,A,2234.04386574,N,11431.91262546,E,0.544,58.0,061224,3.4,W,D*19
$GNVTG,62.585,T,66.023,M,0.58508,N,1.08357,K,D*3D
$GNHDT,333.1202,T*19
$GPGGA,074621.80,2234.04388076,N,11431.91265664,E,4,24,0.7,-3.9464,M,-1.3425,M,00,0000*51
$GPRMC,074621.80,A,2234.04388076,N,11431.91265664,E,0.585,62.6,061224,3.4,W,D*18
$GNVTG,55.662,T,59.100,M,0.61071,N,1.13103,K,D*37
$GNHDT,331.9496,T*18
$GPGGA,074622.00,2234.04389996,N,11431.91268691,E,4,24,0.7,-3.9327,M,-1.3425,M,01,0000*5A
$GPRMC,074622.00,A,2234.04389996,N,11431.91268691,E,0.611,55.7,061224,3.4,W,D*19
$GNVTG,55.389,T,58.826,M,0.52969,N,0.98099,K,D*3B
$GNHDT,331.2848,T*1C
$GPGGA,074622.20,2234.04391674,N,11431.91271307,E,4,24,0.7,-3.9345,M,-1.3425,M,01,0000*54
$GPRMC,074622.20,A,2234.04391674,N,11431.91271307,E,0.530,55.4,061224,3.4,W,D*10
$GNVTG,51.171,T,54.608,M,0.60697,N,1.12410,K,D*3D
$GNHDT,330.1535,T*19
$GPGGA,074622.40,2234.04393795,N,11431.91274146,E,4,24,0.7,-3.9351,M,-1.3425,M,01,0000*59
$GPRMC,074622.40,A,2234.04393795,N,11431.91274146,E,0.607,51.2,061224,3.4,W,D*1D
$GNVTG,48.916,T,52.353,M,0.64536,N,1.19521,K,D*35
$GNHDT,328.8818,T*1B
$GPGGA,074622.60,2234.04396160,N,11431.91277065,E,4,24,0.7,-3.9200,M,-1.3424,M,01,0000*55
$GPRMC,074622.60,A,2234.04396160,N,11431.91277065,E,0.645,48.9,061224,3.4,W,D*10
$GNVTG,47.946,T,51.384,M,0.64160,N,1.18824,K,D*38
$GNHDT,327.4415,T*19
$GPGGA,074622.80,2234.04398555,N,11431.91279925,E,4,23,0.7,-3.9281,M,-1.3424,M,01,0000*5A
$GPRMC,074622.80,A,2234.04398555,N,11431.91279925,E,0.642,47.9,061224,3.4,W,D*19
$GNVTG,48.741,T,52.179,M,0.61077,N,1.13114,K,D*3E
$GNHDT,326.0863,T*11
$GPGGA,074623.00,2234.04400801,N,11431.91282681,E,4,23,0.7,-3.9261,M,-1.3424,M,02,0000*51
$GPRMC,074623.00,A,2234.04400801,N,11431.91282681,E,0.611,48.7,061224,3.4,W,D*18
$GNVTG,43.339,T,46.777,M,0.60061,N,1.11233,K,D*31
$GNHDT,325.1893,T*1C
$GPGGA,074623.20,2234.04403236,N,11431.91285155,E,4,23,0.7,-3.9411,M,-1.3424,M,02,0000*56
$GPRMC,074623.20,A,2234.04403236,N,11431.91285155,E,0.601,43.3,061224,3.4,W,D*10
$GNVTG,54.951,T,58.389,M,0.64472,N,1.19403,K,D*36
$GNHDT,324.3582,T*12
$GPGGA,074623.40,2234.04405300,N,11431.91288323,E,4,23,0.7,-3.9611,M,-1.3424,M,02,0000*5E
$GPRMC,074623.40,A,2234.04405300,N,11431.91288323,E,0.645,55.0,061224,3.4,W,D*1E
$GNVTG,50.289,T,53.727,M,0.65431,N,1.21179,K,D*32
$GNHDT,323.0468,T*13
$GPGGA,074623.60,2234.04407630,N,11431.91291345,E,4,23,0.7,-3.9682,M,-1.3424,M,02,0000*5A
$GPRMC,074623.60,A,2234.04407630,N,11431.91291345,E,0.654,50.3,061224,3.4,W,D*16
$GNVTG,42.476,T,45.913,M,0.67150,N,1.24362,K,D*34
$GNHDT,321.9333,T*11
$GPGGA,074623.80,2234.04410391,N,11431.91294067,E,4,23,0.7,-3.9503,M,-1.3424,M,00,0000*52
$GPRMC,074623.80,A,2234.04410391,N,11431.91294067,E,0.672,42.5,061224,3.4,W,D*17
$GNVTG,49.390,T,52.827,M,0.57199,N,1.05933,K,D*3B
$GNHDT,321.3701,T*1E
$GPGGA,074624.00,2234.04412467,N,11431.91296673,E,4,23,0.7,-3.9583,M,-1.3424,M,01,0000*59
$GPRMC,074624.00,A,2234.04412467,N,11431.91296673,E,0.572,49.4,061224,3.4,W,D*1C
$GNVTG,43.968,T,47.406,M,0.69158,N,1.28080,K,D*39
$GNHDT,319.7562,T*16
$GPGGA,074624.20,2234.04415242,N,11431.91299555,E,4,23,0.7,-3.9410,M,-1.3424,M,01,0000*5E
$GPRMC,074624.20,A,2234.04415242,N,11431.91299555,E,0.692,44.0,061224,3.4,W,D*14
$GNVTG,38.013,T,41.451,M,0.57620,N,1.06713,K,D*30
$GNHDT,318.9296,T*15
$GPGGA,074624.40,2234.04417773,N,11431.91301685,E,4,23,0.7,-3.9262,M,-1.3424,M,01,0000*50
$GPRMC,074624.40,A,2234.04417773,N,11431.91301685,E,0.576,38.0,061224,3.4,W,D*1B
$GNVTG,41.477,T,44.914,M,0.62513,N,1.15774,K,D*37
$GNHDT,317.8873,T*1A
$GPGGA,074624.60,2234.04420384,N,11431.91304170,E,4,23,0.7,-3.9039,M,-1.3424,M,01,0000*5E
$GPRMC,074624.60,A,2234.04420384,N,11431.91304170,E,0.625,41.5,061224,3.4,W,D*17
$GNVTG,33.165,T,36.602,M,0.62406,N,1.15576,K,D*3C
$GNHDT,316.4810,T*12
$GPGGA,074624.80,2234.04423296,N,11431.91306219,E,4,23,0.7,-3.9103,M,-1.3424,M,00,0000*56
$GPRMC,074624.80,A,2234.04423296,N,11431.91306219,E,0.624,33.2,061224,3.4,W,D*15
$GNVTG,35.522,T,38.960,M,0.65945,N,1.22130,K,D*37
$GNHDT,315.0773,T*1F
$GPGGA,074625.00,2234.04426288,N,11431.91308519,E,4,23,0.7,-3.9142,M,-1.3424,M,01,0000*58
$GPRMC,074625.00,A,2234.04426288,N,11431.91308519,E,0.659,35.5,061224,3.4,W,D*14
$GNVTG,46.376,T,49.813,M,0.60017,N,1.11152,K,D*38
$GNHDT,313.9861,T*1C
$GPGGA,074625.20,2234.04428596,N,11431.91311127,E,4,23,0.7,-3.9097,M,-1.3424,M,01,0000*54
$GPRMC,074625.20,A,2234.04428596,N,11431.91311127,E,0.600,46.4,061224,3.4,W,D*18
$GNVTG,40.772,T,44.210,M,0.61678,N,1.14227,K,D*30
$GNHDT,312.7133,T*1D
$GPGGA,074625.40,2234.04431200,N,11431.91313545,E,4,23,0.7,-3.9476,M,-1.3424,M,01,0000*5B
$GPRMC,074625.40,A,2234.04431200,N,11431.91313545,E,0.617,40.8,061224,3.4,W,D*10
$GNVTG,32.245,T,35.683,M,0.62747,N,1.16208,K,D*3D
$GNHDT,311.6358,T*10
$GPGGA,074625.60,2234.04434159,N,11431.91315554,E,4,23,0.7,-3.9337,M,-1.3424,M,01,0000*57
$GPRMC,074625.60,A,2234.04434159,N,11431.91315554,E,0.627,32.2,061224,3.4,W,D*12
$GNVTG,40.029,T,43.466,M,0.70272,N,1.30144,K,D*37
$GNHDT,310.2508,T*16
$GPGGA,074625.80,2234.04437158,N,11431.91318267,E,4,23,0.7,-3.9391,M,-1.3424,M,01,0000*5D
$GPRMC,074625.80,A,2234.04437158,N,11431.91318267,E,0.703,40.0,061224,3.4,W,D*14
$GNVTG,32.972,T,36.410,M,0.61003,N,1.12977,K,D*3A
$GNHDT,309.1880,T*10
$GPGGA,074626.00,2234.04440011,N,11431.91320260,E,4,23,0.7,-3.9323,M,-1.3424,M,02,0000*5C
$GPRMC,074626.00,A,2234.04440011,N,11431.91320260,E,0.610,33.0,061224,3.4,W,D*18
$GNVTG,33.508,T,36.946,M,0.63959,N,1.18453,K,D*31
$GNHDT,308.1579,T*1A
$GPGGA,074626.20,2234.04442984,N,11431.91322380,E,4,23,0.7,-3.9404,M,-1.3424,M,02,0000*56
$GPRMC,074626.20,A,2234.04442984,N,11431.91322380,E,0.640,33.5,061224,3.4,W,D*10
$GNVTG,27.382,T,30.820,M,0.73842,N,1.36755,K,D*34
$GNHDT,306.9175,T*14
$GPGGA,074626.40,2234.04446640,N,11431.91324418,E,4,23,0.7,-3.9181,M,-1.3424,M,01,0000*58
$GPRMC,074626.40,A,2234.04446640,N,11431.91324418,E,0.738,27.4,061224,3.4,W,D*1F
$GNVTG,31.032,T,34.470,M,0.67352,N,1.24735,K,D*3C
$GNHDT,305.9792,T*18
$GPGGA,074626.60,2234.04449857,N,11431.91326502,E,4,23,0.7,-3.9324,M,-1.3424,M,01,0000*58
$GPRMC,074626.60,A,2234.04449857,N,11431.91326502,E,0.674,31.0,061224,3.4,W,D*18
$GNVTG,32.850,T,36.288,M,0.69585,N,1.28872,K,D*32
$GNHDT,304.5153,T*1E
$GPGGA,074626.80,2234.04453116,N,11431.91328768,E,4,23,0.7,-3.9327,M,-1.3424,M,00,0000*53
$GPRMC,074626.80,A,2234.04453116,N,11431.91328768,E,0.696,32.9,061224,3.4,W,D*17
$GNVTG,32.255,T,35.693,M,0.66436,N,1.23040,K,D*34
$GNHDT,303.6953,T*12
$GPGGA,074627.00,2234.04456248,N,11431.91330896,E,4,23,0.7,-3.9310,M,-1.3424,M,01,0000*55
$GPRMC,074627.00,A,2234.04456248,N,11431.91330896,E,0.664,32.3,061224,3.4,W,D*13
$GNVTG,31.361,T,34.798,M,0.60954,N,1.12887,K,D*34
$GNHDT,302.6576,T*18
$GPGGA,074627.20,2234.04459149,N,11431.91332800,E,4,22,0.7,-3.9368,M,-1.3424,M,01,0000*59
$GPRMC,074627.20,A,2234.04459149,N,11431.91332800,E,0.610,31.4,061224,3.4,W,D*16
$GNVTG,32.465,T,35.903,M,0.73902,N,1.36866,K,D*31
$GNHDT,301.1890,T*19
$GPGGA,074627.40,2234.04462625,N,11431.91335181,E,4,22,0.7,-3.9152,M,-1.3424,M,01,0000*56
$GPRMC,074627.40,A,2234.04462625,N,11431.91335181,E,0.739,32.5,061224,3.4,W,D*1A
$GNVTG,29.423,T,32.861,M,0.62651,N,1.16031,K,D*3A
$GNHDT,300.0809,T*19
$GPGGA,074627.60,2234.04465668,N,11431.91337029,E,4,22,0.7,-3.9254,M,-1.3424,M,01,0000*5E
$GPRMC,074627.60,A,2234.04465668,N,11431.91337029,E,0.627,29.4,061224,3.4,W,D*12
$GNVTG,26.794,T,30.232,M,0.69154,N,1.28074,K,D*31
$GNHDT,298.9917,T*1E
$GPGGA,074627.80,2234.04469109,N,11431.91338900,E,4,23,0.7,-3.9263,M,-1.3424,M,00,0000*55
$GPRMC,074627.80,A,2234.04469109,N,11431.91338900,E,0.692,26.8,061224,3.4,W,D*10
$GNVTG,23.028,T,26.466,M,0.77454,N,1.43445,K,D*35
$GNHDT,297.6527,T*11
$GPGGA,074628.00,2234.04473083,N,11431.91340719,E,4,23,0.7,-3.9070,M,-1.3424,M,01,0000*52
$GPRMC,074628.00,A,2234.04473083,N,11431.91340719,E,0.775,23.0,061224,3.4,W,D*13
$GNVTG,35.187,T,38.625,M,0.69450,N,1.28621,K,D*3A
$GNHDT,296.6696,T*19
$GPGGA,074628.20,2234.04476247,N,11431.91343121,E,4,23,0.7,-3.9169,M,-1.3424,M,01,0000*58
$GPRMC,074628.20,A,2234.04476247,N,11431.91343121,E,0.694,35.2,061224,3.4,W,D*1B
$GNVTG,21.040,T,24.478,M,0.73162,N,1.35496,K,D*3F
$GNHDT,295.7119,T*1B
$GPGGA,074628.40,2234.04480053,N,11431.91344698,E,4,23,0.7,-3.9301,M,-1.3424,M,01,0000*5E
$GPRMC,074628.40,A,2234.04480053,N,11431.91344698,E,0.732,21.0,061224,3.4,W,D*1B
$GNVTG,27.977,T,31.414,M,0.68565,N,1.26982,K,D*39
$GNHDT,294.8697,T*14
$GPGGA,074628.60,2234.04483429,N,11431.91346628,E,4,23,0.7,-3.9334,M,-1.3424,M,01,0000*59
$GPRMC,074628.60,A,2234.04483429,N,11431.91346628,E,0.686,28.0,061224,3.4,W,D*1D
$GNVTG,16.264,T,19.701,M,0.70639,N,1.30823,K,D*31
$GNHDT,293.8217,T*1F
$GPGGA,074628.80,2234.04487209,N,11431.91347816,E,4,23,0.7,-3.9320,M,-1.3424,M,01,0000*50
$GPRMC,074628.80,A,2234.04487209,N,11431.91347816,E,0.706,16.3,061224,3.4,W,D*16
$GNVTG,28.562,T,32.000,M,0.59451,N,1.10103,K,D*3C
$GNHDT,293.1720,T*17
$GPGGA,074629.00,2234.04490120,N,11431.91349522,E,4,23,0.7,-3.9261,M,-1.3424,M,02,0000*54
$GPRMC,074629.00,A,2234.04490120,N,11431.91349522,E,0.595,28.6,061224,3.4,W,D*15
$GNVTG,21.199,T,24.637,M,0.79440,N,1.47122,K,D*33
$GNHDT,291.5926,T*19
$GPGGA,074629.20,2234.04494249,N,11431.91351246,E,4,23,0.7,-3.9173,M,-1.3424,M,02,0000*52
$GPRMC,074629.20,A,2234.04494249,N,11431.91351246,E,0.794,21.2,061224,3.4,W,D*1D
$GNVTG,21.014,T,24.452,M,0.79391,N,1.47032,K,D*3D
$GNHDT,290.9068,T*17
$GPGGA,074629.40,2234.04498380,N,11431.91352955,E,4,23,0.7,-3.9083,M,-1.3424,M,02,0000*58
$GPRMC,074629.40,A,2234.04498380,N,11431.91352955,E,0.794,21.0,061224,3.4,W,D*1B
$GNVTG,18.242,T,21.680,M,0.75861,N,1.40495,K,D*38
$GNHDT,289.8914,T*1C
$GPGGA,074629.60,2234.04502397,N,11431.91354381,E,4,23,0.7,-3.9171,M,-1.3424,M,02,0000*57
$GPRMC,074629.60,A,2234.04502397,N,11431.91354381,E,0.759,18.2,061224,3.4,W,D*11
$GNVTG,21.273,T,24.711,M,0.75557,N,1.39932,K,D*3A
$GNHDT,289.0576,T*1C
$GPGGA,074629.80,2234.04506322,N,11431.91356026,E,4,23,0.7,-3.9269,M,-1.3424,M,02,0000*55
$GPRMC,074629.80,A,2234.04506322,N,11431.91356026,E,0.756,21.3,061224,3.4,W,D*1D
$GNVTG,14.918,T,18.355,M,0.76732,N,1.42108,K,D*3E
$GNHDT,288.2883,T*18
$GPGGA,074630.00,2234.04510456,N,11431.91357212,E,4,23,0.7,-3.9475,M,-1.3424,M,03,0000*58
$GPRMC,074630.00,A,2234.04510456,N,11431.91357212,E,0.767,14.9,061224,3.4,W,D*14
$GNVTG,10.523,T,13.961,M,0.66518,N,1.23191,K,D*34
$GNHDT,287.2044,T*14
$GPGGA,074630.20,2234.04514101,N,11431.91357941,E,4,21,0.7,-3.9426,M,-1.3424,M,03,0000*50
$GPRMC,074630.20,A,2234.04514101,N,11431.91357941,E,0.665,10.5,061224,3.4,W,D*13
$GNVTG,12.826,T,16.263,M,0.82901,N,1.53532,K,D*36
$GNHDT,286.6118,T*19
$GPGGA,074630.40,2234.04518607,N,11431.91359046,E,4,22,0.7,-3.9416,M,-1.3424,M,03,0000*5B
$GPRMC,074630.40,A,2234.04518607,N,11431.91359046,E,0.829,12.8,061224,3.4,W,D*11
$GNVTG,14.314,T,17.752,M,0.74397,N,1.37783,K,D*3A
